%  GPST                  latitude(deg) longitude(deg)  height(m)   Q  ns   sdn(m)   sde(m)   sdu(m)  sdne(m)  sdeu(m)  sdun(m) age(s)  ratio
2018/05/21 04:51:55.000   35.676452139  139.482611548    89.6614   1   8   0.3697   0.1483   0.4777  -0.2337  -0.2658   0.4196   0.99    4.1
2018/05/21 04:51:56.000   35.676452064  139.482608513    90.9908   1   6   0.3661   0.1471   0.4739  -0.2316  -0.2637   0.4159   0.99   31.7
2018/05/21 04:51:59.000   35.676468467  139.482604121    94.2363   1   8   0.0437   0.0376   0.1291   0.0315  -0.0614  -0.0730   0.99    4.0
2018/05/21 04:52:06.000   35.676455490  139.482612224    93.6046   1   6   0.0095   0.0134   0.0301  -0.0025  -0.0161  -0.0043   0.99    3.0
2018/05/21 04:52:13.000   35.676447056  139.482638207    93.0156   1   5   0.0097   0.0135   0.0371  -0.0028  -0.0166   0.0042   0.99    5.2
2018/05/21 04:52:18.000   35.676448102  139.482635333    87.7842   1   8   0.2019   1.1267   1.9719   0.4762  -1.4889  -0.6306   0.99    3.2
2018/05/21 04:53:18.000   35.676463481  139.482610378    92.0445   1   8   0.0086   0.0122   0.0268  -0.0016  -0.0140  -0.0078   0.99    3.0
2018/05/21 04:53:19.000   35.676463439  139.482610442    92.0353   1   8   0.0086   0.0122   0.0268  -0.0015  -0.0140  -0.0078   0.99    3.1
2018/05/21 04:53:20.000   35.676463472  139.482610394    92.0366   1   8   0.0086   0.0122   0.0269  -0.0018  -0.0140  -0.0077   0.99    3.2
2018/05/21 04:53:21.000   35.676463490  139.482610415    92.0358   1   8   0.0087   0.0122   0.0268  -0.0016  -0.0140  -0.0078   0.99    3.3
2018/05/21 04:53:22.000   35.676463478  139.482610398    92.0465   1   8   0.0086   0.0122   0.0268  -0.0015  -0.0140  -0.0078   0.99    3.3
2018/05/21 04:53:53.000   35.676537793  139.482607052    92.5636   1   8   0.0307   0.0149   0.0647  -0.0160   0.0178  -0.0421   0.99   17.8
2018/05/21 04:54:04.000   35.676573945  139.482592546    92.2480   1  10   0.0386   0.0292   0.1152   0.0319  -0.0559  -0.0659   0.99    4.0
2018/05/21 04:54:06.000   35.676598203  139.482575735    93.0909   1  11   0.0093   0.0162   0.0425   0.0095  -0.0234  -0.0173   0.99    4.6
2018/05/21 04:54:15.000   35.676697009  139.482566367    92.7247   1   6   0.0249   0.0179   0.0521  -0.0176  -0.0279   0.0312   0.99    3.9
2018/05/21 04:54:16.000   35.676707252  139.482573309    92.7902   1   6   0.0249   0.0179   0.0521  -0.0176  -0.0279   0.0312   0.99    5.4
2018/05/21 04:54:18.000   35.676727100  139.482587353    92.7934   1   6   0.0249   0.0179   0.0521  -0.0176  -0.0279   0.0312   0.99    4.1
2018/05/21 04:54:19.000   35.676736856  139.482594164    92.8606   1   7   0.0249   0.0179   0.0521  -0.0176  -0.0279   0.0312   0.99    3.1
2018/05/21 04:56:02.000   35.676909858  139.482762813    95.4745   1  12   0.0064   0.0098   0.0236   0.0044  -0.0113  -0.0100   0.99    3.0
2018/05/21 04:56:03.000   35.676909816  139.482762863    95.4742   1  12   0.0062   0.0098   0.0236   0.0046  -0.0113  -0.0101   0.99    3.2
2018/05/21 04:56:04.000   35.676909901  139.482762836    95.4741   1  12   0.0063   0.0098   0.0236   0.0044  -0.0113  -0.0100   0.99    3.4
2018/05/21 04:56:05.000   35.676909916  139.482762777    95.4842   1  12   0.0065   0.0098   0.0236   0.0044  -0.0113  -0.0100   0.99    3.5
2018/05/21 04:56:06.000   35.676909943  139.482762749    95.4789   1  12   0.0065   0.0098   0.0236   0.0042  -0.0114  -0.0100   0.99    3.7
2018/05/21 04:56:07.000   35.676909924  139.482762739    95.4804   1  12   0.0063   0.0098   0.0236   0.0044  -0.0113  -0.0101   0.99    3.8
2018/05/21 04:56:08.000   35.676909909  139.482762727    95.4861   1  12   0.0065   0.0098   0.0236   0.0044  -0.0113  -0.0100   0.99    3.9
2018/05/21 04:56:09.000   35.676909899  139.482762644    95.5017   1  12   0.0064   0.0098   0.0236   0.0046  -0.0113  -0.0100   0.99    3.9
2018/05/21 04:56:10.000   35.676909931  139.482762693    95.4889   1  12   0.0063   0.0098   0.0236   0.0044  -0.0113  -0.0100   0.99    4.0
2018/05/21 04:56:11.000   35.676909885  139.482762713    95.4785   1  12   0.0064   0.0098   0.0236   0.0045  -0.0113  -0.0099   0.99    4.0
2018/05/21 04:56:12.000   35.676909884  139.482762684    95.4856   1  12   0.0064   0.0097   0.0236   0.0044  -0.0113  -0.0100   0.99   20.7
2018/05/21 04:56:13.000   35.676909947  139.482762739    95.4788   1  12   0.0065   0.0098   0.0236   0.0043  -0.0113  -0.0100   0.99   35.8
2018/05/21 04:56:14.000   35.676909958  139.482762748    95.4796   1  12   0.0064   0.0098   0.0236   0.0044  -0.0113  -0.0100   0.99   44.6
2018/05/21 04:56:15.000   35.676909899  139.482762728    95.4798   1  12   0.0065   0.0098   0.0236   0.0046  -0.0113  -0.0100   0.99   49.1
2018/05/21 04:56:16.000   35.676909924  139.482762659    95.4771   1  12   0.0063   0.0098   0.0236   0.0045  -0.0113  -0.0101   0.99   53.4
2018/05/21 04:56:17.000   35.676909905  139.482762730    95.4785   1  12   0.0063   0.0099   0.0236   0.0045  -0.0113  -0.0100   0.99   57.5
2018/05/21 04:56:18.000   35.676909882  139.482762741    95.4774   1  12   0.0064   0.0098   0.0236   0.0044  -0.0113  -0.0100   0.99   61.6
2018/05/21 04:56:19.000   35.676909916  139.482762687    95.4693   1  12   0.0064   0.0097   0.0236   0.0045  -0.0113  -0.0100   0.99   66.1
2018/05/21 04:56:20.000   35.676909897  139.482762684    95.4668   1  12   0.0063   0.0098   0.0236   0.0045  -0.0113  -0.0100   0.99   70.7
2018/05/21 04:56:21.000   35.676909853  139.482762745    95.4839   1  12   0.0063   0.0098   0.0236   0.0044  -0.0113  -0.0100   0.99   74.9
2018/05/21 04:56:22.000   35.676909881  139.482762704    95.4809   1  12   0.0064   0.0097   0.0236   0.0043  -0.0113  -0.0100   0.99   78.9
2018/05/21 04:56:23.000   35.676909862  139.482762738    95.4807   1  12   0.0064   0.0098   0.0236   0.0043  -0.0113  -0.0099   0.99   83.5
2018/05/21 04:56:24.000   35.676909790  139.482762738    95.4829   1  12   0.0065   0.0098   0.0237   0.0044  -0.0113  -0.0099   0.99   87.9
2018/05/21 04:56:25.000   35.676909851  139.482762751    95.4778   1  12   0.0065   0.0098   0.0236   0.0045  -0.0113  -0.0100   0.99   92.7
2018/05/21 04:56:26.000   35.676909804  139.482762783    95.4779   1  12   0.0064   0.0097   0.0236   0.0045  -0.0113  -0.0100   0.99   97.0
2018/05/21 04:56:27.000   35.676909792  139.482762749    95.4825   1  12   0.0063   0.0097   0.0236   0.0043  -0.0113  -0.0099   0.99  101.5
2018/05/21 04:56:28.000   35.676909798  139.482762705    95.4785   1  12   0.0065   0.0098   0.0236   0.0044  -0.0113  -0.0099   0.99  106.0
2018/05/21 04:56:29.000   35.676909827  139.482762720    95.4757   1  12   0.0062   0.0097   0.0236   0.0044  -0.0113  -0.0101   0.99  110.6
2018/05/21 04:56:30.000   35.676909854  139.482762756    95.4683   1  12   0.0064   0.0098   0.0236   0.0045  -0.0113  -0.0100   0.99  114.9
2018/05/21 04:56:31.000   35.676909870  139.482762731    95.4697   1  12   0.0063   0.0097   0.0236   0.0043  -0.0113  -0.0100   0.99  119.4
2018/05/21 04:56:32.000   35.676909920  139.482762694    95.4732   1  12   0.0065   0.0098   0.0236   0.0043  -0.0113  -0.0099   0.99  123.6
2018/05/21 04:56:33.000   35.676909884  139.482762725    95.4824   1  12   0.0064   0.0098   0.0236   0.0043  -0.0113  -0.0100   0.99  128.5
2018/05/21 04:56:34.000   35.676909817  139.482762775    95.4891   1  12   0.0065   0.0097   0.0236   0.0044  -0.0113  -0.0100   0.99  132.7
2018/05/21 04:56:35.000   35.676909883  139.482762749    95.4730   1  12   0.0062   0.0097   0.0236   0.0043  -0.0113  -0.0100   0.99  137.5
2018/05/21 04:56:36.000   35.676909923  139.482762758    95.4729   1  12   0.0062   0.0097   0.0236   0.0043  -0.0113  -0.0100   0.99  142.6
2018/05/21 04:56:37.000   35.676909941  139.482762731    95.4805   1  12   0.0065   0.0097   0.0236   0.0044  -0.0113  -0.0100   0.99  147.8
2018/05/21 04:56:38.000   35.676909999  139.482762716    95.4633   1  12   0.0065   0.0098   0.0236   0.0043  -0.0113  -0.0100   0.99  153.0
2018/05/21 04:56:39.000   35.676909925  139.482762777    95.4653   1  12   0.0063   0.0097   0.0236   0.0043  -0.0113  -0.0100   0.99  157.4
2018/05/21 04:56:40.000   35.676909880  139.482762847    95.4709   1  12   0.0064   0.0098   0.0237   0.0045  -0.0113  -0.0099   0.99  162.5
2018/05/21 04:56:41.000   35.676909781  139.482762877    95.4846   1  12   0.0063   0.0097   0.0236   0.0044  -0.0113  -0.0100   0.99  166.8
2018/05/21 04:56:42.000   35.676909710  139.482762826    95.4796   1  12   0.0065   0.0098   0.0236   0.0043  -0.0113  -0.0100   0.99  170.2
2018/05/21 04:56:43.000   35.676909665  139.482762891    95.4748   1  12   0.0066   0.0097   0.0236   0.0043  -0.0113  -0.0099   0.99  174.0
2018/05/21 04:56:44.000   35.676909700  139.482762883    95.4899   1  12   0.0063   0.0097   0.0236   0.0045  -0.0113  -0.0100   0.99  177.8
2018/05/21 04:56:45.000   35.676909713  139.482762827    95.4815   1  12   0.0064   0.0097   0.0237   0.0044  -0.0112  -0.0100   0.99  182.6
2018/05/21 04:56:46.000   35.676909547  139.482762871    95.4913   1  12   0.0064   0.0097   0.0236   0.0043  -0.0113  -0.0100   0.99  187.3
2018/05/21 04:56:47.000   35.676909209  139.482762827    95.4992   1  12   0.0063   0.0098   0.0236   0.0044  -0.0113  -0.0101   0.99  192.1
2018/05/21 04:56:48.000   35.676909169  139.482762899    95.5078   1  12   0.0066   0.0097   0.0237   0.0043  -0.0113  -0.0099   0.99  196.8
2018/05/21 04:56:49.000   35.676909265  139.482762875    95.4957   1  12   0.0065   0.0097   0.0236   0.0043  -0.0113  -0.0100   0.99  201.5
2018/05/21 04:56:50.000   35.676909254  139.482762797    95.4811   1  12   0.0063   0.0097   0.0236   0.0044  -0.0112  -0.0100   0.99  206.9
2018/05/21 04:56:51.000   35.676909206  139.482762803    95.4698   1  12   0.0063   0.0097   0.0237   0.0044  -0.0113  -0.0100   0.99  212.0
2018/05/21 04:56:52.000   35.676908781  139.482762513    95.4920   1  12   0.0062   0.0097   0.0237   0.0044  -0.0112  -0.0100   0.99  216.9
2018/05/21 04:56:53.000   35.676908677  139.482763009    95.4816   1  12   0.0066   0.0097   0.0236   0.0042  -0.0113  -0.0099   0.99  220.9
2018/05/21 04:56:54.000   35.676908541  139.482763162    95.4757   1  12   0.0063   0.0097   0.0237   0.0044  -0.0112  -0.0099   0.99  227.4
2018/05/21 04:56:55.000   35.676908482  139.482763055    95.4859   1  12   0.0065   0.0097   0.0236   0.0044  -0.0113  -0.0100   0.99  232.9
2018/05/21 04:56:56.000   35.676908419  139.482763089    95.4793   1  12   0.0063   0.0097   0.0236   0.0044  -0.0112  -0.0100   0.99  239.0
2018/05/21 04:56:57.000   35.676908414  139.482763277    95.4857   1  12   0.0065   0.0097   0.0237   0.0044  -0.0113  -0.0099   0.99  244.3
2018/05/21 04:56:58.000   35.676908205  139.482763441    95.4924   1  12   0.0062   0.0097   0.0237   0.0043  -0.0113  -0.0100   0.99  249.6
2018/05/21 04:56:59.000   35.676908213  139.482763894    95.4771   1  12   0.0061   0.0097   0.0236   0.0044  -0.0113  -0.0100   0.99  254.9
2018/05/21 04:57:00.000   35.676908075  139.482764343    95.4891   1  12   0.0064   0.0097   0.0236   0.0043  -0.0113  -0.0100   0.99  258.9
2018/05/21 04:57:01.000   35.676907996  139.482764186    95.4828   1  12   0.0063   0.0097   0.0236   0.0044  -0.0112  -0.0100   0.99  264.3
2018/05/21 04:57:02.000   35.676907467  139.482763400    95.4683   1  11   0.0065   0.0099   0.0258   0.0044  -0.0122  -0.0102   0.99  235.2
2018/05/21 04:57:03.000   35.676907298  139.482763056    95.4762   1  11   0.0063   0.0099   0.0258   0.0044  -0.0122  -0.0102   0.99  241.3
2018/05/21 04:57:04.000   35.676907331  139.482763095    95.4590   1  11   0.0063   0.0100   0.0258   0.0044  -0.0122  -0.0102   0.99  247.7
2018/05/21 04:57:05.000   35.676907451  139.482763043    95.4519   1  11   0.0063   0.0099   0.0258   0.0044  -0.0122  -0.0101   0.99  253.3
2018/05/21 04:57:06.000   35.676907546  139.482763012    95.4500   1  11   0.0065   0.0100   0.0258   0.0045  -0.0122  -0.0101   0.99  259.4
2018/05/21 04:57:07.000   35.676907627  139.482762977    95.4302   1  11   0.0064   0.0099   0.0258   0.0044  -0.0122  -0.0101   0.99  266.2
2018/05/21 04:57:08.000   35.676907529  139.482762994    95.4462   1  11   0.0062   0.0099   0.0258   0.0044  -0.0122  -0.0102   0.99  271.2
2018/05/21 04:57:09.000   35.676907532  139.482763029    95.4442   1  11   0.0066   0.0100   0.0258   0.0044  -0.0122  -0.0101   0.99  276.6
2018/05/21 04:57:10.000   35.676907532  139.482762998    95.4442   1  11   0.0064   0.0099   0.0258   0.0043  -0.0122  -0.0101   0.99  281.4
2018/05/21 04:57:11.000   35.676907506  139.482762973    95.4499   1  11   0.0067   0.0100   0.0258   0.0045  -0.0122  -0.0101   0.99  287.6
2018/05/21 04:57:12.000   35.676907460  139.482763023    95.4490   1  11   0.0063   0.0099   0.0258   0.0044  -0.0122  -0.0102   0.99  294.1
2018/05/21 04:57:13.000   35.676907397  139.482763017    95.4485   1  11   0.0066   0.0099   0.0258   0.0045  -0.0122  -0.0101   0.99  299.2
2018/05/21 04:57:14.000   35.676907460  139.482762992    95.4472   1  11   0.0063   0.0099   0.0258   0.0045  -0.0121  -0.0101   0.99  305.8
2018/05/21 04:57:15.000   35.676907416  139.482762948    95.4451   1  11   0.0062   0.0099   0.0258   0.0044  -0.0122  -0.0102   0.99  311.9
2018/05/21 04:57:16.000   35.676907376  139.482762723    95.4084   1  11   0.0065   0.0099   0.0258   0.0045  -0.0121  -0.0101   0.99  319.4
2018/05/21 04:57:17.000   35.676907376  139.482762756    95.4030   1  11   0.0064   0.0099   0.0258   0.0042  -0.0122  -0.0101   0.99  324.6
2018/05/21 04:57:18.000   35.676907419  139.482762764    95.3973   1  11   0.0063   0.0099   0.0258   0.0043  -0.0122  -0.0101   0.99  331.5
2018/05/21 04:57:19.000   35.676907386  139.482762740    95.3916   1  11   0.0064   0.0099   0.0258   0.0044  -0.0121  -0.0101   0.99  337.3
2018/05/21 04:57:20.000   35.676907354  139.482762783    95.3905   1  11   0.0060   0.0099   0.0258   0.0045  -0.0121  -0.0103   0.99  343.8
2018/05/21 04:57:21.000   35.676907392  139.482762717    95.3964   1  11   0.0063   0.0100   0.0258   0.0045  -0.0121  -0.0102   0.99  351.4
2018/05/21 04:57:22.000   35.676907417  139.482762768    95.3924   1  11   0.0063   0.0099   0.0258   0.0043  -0.0122  -0.0102   0.99  359.1
2018/05/21 04:57:23.000   35.676907391  139.482762698    95.4524   1  11   0.0066   0.0099   0.0258   0.0044  -0.0122  -0.0101   0.99  364.7
2018/05/21 04:57:24.000   35.676907325  139.482762622    95.4906   1  11   0.0064   0.0099   0.0258   0.0043  -0.0121  -0.0102   0.99  369.7
2018/05/21 04:57:25.000   35.676907272  139.482762661    95.4810   1  11   0.0064   0.0099   0.0258   0.0044  -0.0121  -0.0102   0.99  374.6
2018/05/21 04:57:26.000   35.676907283  139.482762670    95.4893   1  11   0.0064   0.0099   0.0258   0.0044  -0.0122  -0.0101   0.99  380.5
2018/05/21 04:57:27.000   35.676907203  139.482762204    95.4870   1  11   0.0064   0.0099   0.0258   0.0045  -0.0121  -0.0102   0.99  384.6
2018/05/21 04:57:28.000   35.676907257  139.482762209    95.4769   1  11   0.0064   0.0099   0.0258   0.0044  -0.0121  -0.0102   0.99  390.0
2018/05/21 04:57:29.000   35.676907477  139.482762217    95.4784   1  11   0.0065   0.0099   0.0258   0.0045  -0.0121  -0.0101   0.99  394.8
2018/05/21 04:57:30.000   35.676907664  139.482762289    95.4697   1  11   0.0062   0.0099   0.0258   0.0044  -0.0121  -0.0102   0.99  396.9
2018/05/21 04:57:31.000   35.676907619  139.482762311    95.4681   1  11   0.0063   0.0099   0.0258   0.0043  -0.0121  -0.0101   0.99  399.1
2018/05/21 04:57:32.000   35.676907611  139.482762277    95.4764   1  11   0.0065   0.0099   0.0258   0.0044  -0.0121  -0.0101   0.99  402.7
2018/05/21 04:57:33.000   35.676907659  139.482762239    95.4771   1  11   0.0063   0.0099   0.0258   0.0043  -0.0121  -0.0102   0.99  405.6
2018/05/21 04:57:34.000   35.676907665  139.482762296    95.4813   1  11   0.0064   0.0099   0.0258   0.0042  -0.0121  -0.0102   0.99  408.6
2018/05/21 04:57:35.000   35.676907611  139.482762311    95.4685   1  11   0.0067   0.0099   0.0258   0.0042  -0.0122  -0.0101   0.99  411.9
2018/05/21 04:57:36.000   35.676907612  139.482762252    95.4794   1  11   0.0062   0.0099   0.0258   0.0045  -0.0121  -0.0102   0.99  417.1
2018/05/21 04:57:37.000   35.676907633  139.482762235    95.4775   1  11   0.0064   0.0099   0.0258   0.0043  -0.0121  -0.0102   0.99  421.1
2018/05/21 04:57:38.000   35.676907628  139.482762205    95.4834   1  11   0.0065   0.0098   0.0258   0.0043  -0.0122  -0.0101   0.99  425.9
2018/05/21 04:57:39.000   35.676907477  139.482761980    95.4692   1  11   0.0062   0.0099   0.0258   0.0044  -0.0121  -0.0102   0.99  428.9
2018/05/21 04:57:40.000   35.676907428  139.482761953    95.4739   1  11   0.0065   0.0099   0.0258   0.0044  -0.0121  -0.0101   0.99  432.0
2018/05/21 04:57:41.000   35.676907348  139.482761943    95.4736   1  11   0.0064   0.0099   0.0258   0.0044  -0.0121  -0.0101   0.99  434.4
2018/05/21 04:57:42.000   35.676905885  139.482760385    95.4798   1  11   0.0063   0.0099   0.0258   0.0045  -0.0121  -0.0101   0.99  438.4
2018/05/21 04:57:43.000   35.676907044  139.482757512    95.4599   1  11   0.0062   0.0099   0.0258   0.0042  -0.0121  -0.0102   0.99  444.8
2018/05/21 04:57:44.000   35.676907511  139.482755547    95.4757   1  11   0.0063   0.0098   0.0258   0.0043  -0.0121  -0.0101   0.99  445.9
2018/05/21 04:57:50.000   35.676907571  139.482754994    95.4870   1  12   0.0066   0.0097   0.0237   0.0042  -0.0112  -0.0099   0.99    3.2
2018/05/21 04:57:51.000   35.676907557  139.482754935    95.4977   1  12   0.0063   0.0097   0.0236   0.0044  -0.0112  -0.0100   0.99    3.6
2018/05/21 04:57:57.000   35.676907660  139.482755218    95.4579   1  13   0.0062   0.0064   0.0219   0.0031  -0.0077  -0.0094   0.99    3.3
2018/05/21 04:57:58.000   35.676907590  139.482755254    95.4626   1  13   0.0065   0.0065   0.0219   0.0034  -0.0077  -0.0093   0.99    3.7
2018/05/21 04:57:59.000   35.676907625  139.482755224    95.4626   1  13   0.0065   0.0065   0.0219   0.0028  -0.0078  -0.0092   0.99    4.0
2018/05/21 04:58:00.000   35.676907654  139.482755199    95.4814   1  13   0.0062   0.0064   0.0219   0.0032  -0.0077  -0.0094   0.99    4.2
2018/05/21 04:58:01.000   35.676907655  139.482755177    95.4678   1  13   0.0064   0.0064   0.0219   0.0030  -0.0077  -0.0094   0.99    4.4
2018/05/21 04:58:02.000   35.676907612  139.482755223    95.4636   1  13   0.0061   0.0063   0.0219   0.0031  -0.0077  -0.0094   0.99    4.7
2018/05/21 04:58:03.000   35.676907664  139.482755225    95.4670   1  13   0.0062   0.0064   0.0218   0.0030  -0.0077  -0.0094   0.99    4.9
2018/05/21 04:58:04.000   35.676907679  139.482755231    95.4670   1  13   0.0063   0.0063   0.0219   0.0031  -0.0077  -0.0094   0.99    5.2
2018/05/21 04:58:05.000   35.676907666  139.482755194    95.4700   1  13   0.0062   0.0063   0.0219   0.0032  -0.0076  -0.0094   0.99    5.3
2018/05/21 04:58:06.000   35.676907555  139.482755276    95.4696   1  13   0.0065   0.0065   0.0219   0.0030  -0.0078  -0.0093   0.99    5.4
2018/05/21 04:58:07.000   35.676907514  139.482755347    95.4574   1  13   0.0063   0.0064   0.0219   0.0032  -0.0076  -0.0093   0.99    8.5
2018/05/21 04:58:08.000   35.676907479  139.482755329    95.4685   1  13   0.0063   0.0064   0.0219   0.0032  -0.0077  -0.0094   0.99   11.5
2018/05/21 04:58:09.000   35.676907545  139.482755278    95.4770   1  13   0.0063   0.0064   0.0219   0.0032  -0.0077  -0.0094   0.99   14.5
2018/05/21 04:58:10.000   35.676907564  139.482755236    95.4705   1  13   0.0064   0.0064   0.0219   0.0030  -0.0077  -0.0093   0.99   17.5
2018/05/21 04:58:11.000   35.676907663  139.482755225    95.4377   1  13   0.0064   0.0065   0.0219   0.0028  -0.0077  -0.0093   0.99   20.5
2018/05/21 04:58:12.000   35.676907673  139.482755225    95.4456   1  13   0.0062   0.0065   0.0219   0.0032  -0.0077  -0.0093   0.99   23.4
2018/05/21 04:58:13.000   35.676907598  139.482755253    95.4741   1  13   0.0062   0.0063   0.0219   0.0030  -0.0077  -0.0093   0.99   26.4
2018/05/21 04:58:14.000   35.676907529  139.482755357    95.4814   1  13   0.0063   0.0063   0.0219   0.0032  -0.0077  -0.0093   0.99   29.4
2018/05/21 04:58:15.000   35.676907507  139.482755209    95.4888   1  13   0.0062   0.0065   0.0218   0.0028  -0.0078  -0.0094   0.99   32.1
2018/05/21 04:58:16.000   35.676907114  139.482754031    95.4758   1  13   0.0063   0.0065   0.0219   0.0031  -0.0077  -0.0093   0.99   35.0
2018/05/21 04:58:17.000   35.676906887  139.482753993    95.4786   1  13   0.0063   0.0064   0.0219   0.0032  -0.0077  -0.0093   0.99   37.7
2018/05/21 04:58:18.000   35.676906913  139.482754026    95.4822   1  13   0.0063   0.0065   0.0219   0.0034  -0.0077  -0.0094   0.99   40.5
2018/05/21 04:58:19.000   35.676907033  139.482754259    95.4771   1  13   0.0064   0.0064   0.0219   0.0030  -0.0077  -0.0093   0.99   43.3
2018/05/21 04:58:20.000   35.676907484  139.482755195    95.4807   1  13   0.0064   0.0064   0.0219   0.0031  -0.0077  -0.0094   0.99   45.9
2018/05/21 04:58:21.000   35.676907906  139.482755878    95.4751   1  13   0.0062   0.0064   0.0219   0.0033  -0.0076  -0.0094   0.99   48.6
2018/05/21 04:58:22.000   35.676907881  139.482755840    95.4746   1  13   0.0060   0.0062   0.0219   0.0032  -0.0076  -0.0093   0.99   51.2
2018/05/21 04:58:23.000   35.676907722  139.482755656    95.4773   1  13   0.0063   0.0065   0.0219   0.0030  -0.0077  -0.0094   0.99   53.9
2018/05/21 04:58:24.000   35.676906971  139.482754006    95.4769   1  13   0.0064   0.0064   0.0219   0.0030  -0.0077  -0.0093   0.99   56.7
2018/05/21 04:58:25.000   35.676906520  139.482753262    95.4849   1  13   0.0063   0.0063   0.0219   0.0029  -0.0077  -0.0094   0.99   59.7
2018/05/21 04:58:27.000   35.676909283  139.482751984    95.5055   1  13   0.0062   0.0064   0.0219   0.0032  -0.0077  -0.0094   0.99   62.7
2018/05/21 04:58:33.000   35.676911099  139.482748102    95.4817   1  13   0.0060   0.0065   0.0202   0.0027  -0.0074  -0.0088   0.99    3.0
2018/05/21 04:58:34.000   35.676911108  139.482748155    95.4797   1  13   0.0060   0.0062   0.0202   0.0029  -0.0073  -0.0088   0.99    3.3
2018/05/21 04:58:35.000   35.676911049  139.482748077    95.4805   1  13   0.0059   0.0063   0.0203   0.0028  -0.0073  -0.0088   0.99    3.5
2018/05/21 04:58:36.000   35.676911128  139.482748014    95.4884   1  13   0.0061   0.0064   0.0202   0.0028  -0.0073  -0.0088   0.99    3.7
2018/05/21 04:58:38.000   35.676911871  139.482748156    95.4842   1  13   0.0065   0.0064   0.0202   0.0028  -0.0073  -0.0087   0.99    4.2
2018/05/21 04:58:40.000   35.676912465  139.482745353    95.4793   1  13   0.0060   0.0063   0.0203   0.0030  -0.0072  -0.0088   0.99    4.6
2018/05/21 04:58:41.000   35.676914394  139.482745053    95.4860   1  13   0.0063   0.0063   0.0202   0.0030  -0.0073  -0.0088   0.99    4.8
2018/05/21 04:58:42.000   35.676915345  139.482745435    95.4945   1  13   0.0061   0.0064   0.0203   0.0026  -0.0073  -0.0087   0.99    5.0
2018/05/21 04:58:43.000   35.676915873  139.482744344    95.4869   1  13   0.0062   0.0063   0.0202   0.0030  -0.0073  -0.0088   0.99    5.3
2018/05/21 04:58:44.000   35.676916563  139.482741988    95.5054   1  13   0.0061   0.0064   0.0203   0.0032  -0.0072  -0.0087   0.99    5.5
2018/05/21 04:58:48.000   35.676921063  139.482739175    95.5199   1  13   0.0064   0.0062   0.0203   0.0028  -0.0073  -0.0087   0.99    6.5
2018/05/21 04:58:49.000   35.676921355  139.482737927    95.5139   1  13   0.0063   0.0066   0.0202   0.0030  -0.0073  -0.0088   0.99    6.7
2018/05/21 04:58:50.000   35.676923032  139.482737723    95.5434   1  13   0.0060   0.0064   0.0203   0.0032  -0.0072  -0.0088   0.99    6.9
2018/05/21 04:58:53.000   35.676926151  139.482734055    95.5277   1  13   0.0059   0.0063   0.0202   0.0027  -0.0073  -0.0088   0.99    7.5
2018/05/21 04:58:54.000   35.676928024  139.482734336    95.5330   1  13   0.0061   0.0061   0.0202   0.0028  -0.0073  -0.0088   0.99    7.8
2018/05/21 04:58:55.000   35.676930668  139.482735447    95.5386   1  12   0.0062   0.0064   0.0234   0.0031  -0.0079  -0.0093   0.99   53.3
2018/05/21 04:58:59.000   35.676937427  139.482737573    95.5411   1  13   0.0061   0.0063   0.0202   0.0029  -0.0073  -0.0087   0.99    8.5
2018/05/21 04:59:00.000   35.676939448  139.482736436    95.5225   1  12   0.0062   0.0065   0.0234   0.0030  -0.0078  -0.0094   0.99   52.0
2018/05/21 04:59:01.000   35.676940394  139.482736935    95.4993   1  13   0.0061   0.0062   0.0203   0.0030  -0.0072  -0.0087   0.99    8.5
2018/05/21 04:59:02.000   35.676940904  139.482739357    95.5083   1  10   0.0079   0.0068   0.0238   0.0027  -0.0081  -0.0101   0.99   58.8
2018/05/21 04:59:03.000   35.676941576  139.482739637    95.5250   1  11   0.0068   0.0067   0.0234   0.0023  -0.0079  -0.0093   0.99   53.5
2018/05/21 04:59:04.000   35.676944346  139.482738407    95.5303   1  12   0.0065   0.0066   0.0203   0.0022  -0.0070  -0.0089   0.99    8.9
2018/05/21 04:59:05.000   35.676945716  139.482738993    95.5290   1  12   0.0065   0.0066   0.0203   0.0020  -0.0071  -0.0089   0.99    9.1
2018/05/21 04:59:07.000   35.676948996  139.482740347    95.5479   1  12   0.0065   0.0067   0.0203   0.0020  -0.0071  -0.0089   0.99    9.5
2018/05/21 04:59:08.000   35.676950598  139.482740102    95.5345   1  12   0.0066   0.0066   0.0203   0.0023  -0.0070  -0.0089   0.99    9.7
2018/05/21 04:59:11.000   35.676955931  139.482740070    95.5216   1  12   0.0065   0.0066   0.0203   0.0022  -0.0070  -0.0089   0.99   10.4
2018/05/21 04:59:12.000   35.676957424  139.482741850    95.5484   1  13   0.0063   0.0065   0.0203   0.0030  -0.0073  -0.0087   0.99    3.4
2018/05/21 04:59:13.000   35.676958984  139.482741195    95.5309   1  13   0.0062   0.0063   0.0202   0.0031  -0.0072  -0.0087   0.99    4.1
2018/05/21 04:59:14.000   35.676960635  139.482739946    95.5258   1  13   0.0062   0.0066   0.0202   0.0028  -0.0073  -0.0087   0.99    4.9
2018/05/21 04:59:15.000   35.676962508  139.482741316    95.5488   1  13   0.0063   0.0061   0.0202   0.0030  -0.0073  -0.0088   0.99    5.6
2018/05/21 04:59:16.000   35.676963625  139.482741252    95.5204   1  13   0.0063   0.0064   0.0203   0.0029  -0.0073  -0.0087   0.99    6.4
2018/05/21 04:59:17.000   35.676965481  139.482739437    95.5458   1  13   0.0062   0.0061   0.0203   0.0030  -0.0072  -0.0087   0.99    7.2
2018/05/21 04:59:18.000   35.676967217  139.482739973    95.5587   1  13   0.0062   0.0062   0.0203   0.0029  -0.0072  -0.0087   0.99    7.9
2018/05/21 04:59:19.000   35.676968816  139.482741348    95.5572   1  13   0.0062   0.0062   0.0202   0.0029  -0.0072  -0.0087   0.99    8.6
2018/05/21 04:59:20.000   35.676970299  139.482740279    95.5494   1  13   0.0063   0.0062   0.0202   0.0027  -0.0072  -0.0088   0.99    9.4
2018/05/21 04:59:21.000   35.676971918  139.482739022    95.5376   1  13   0.0062   0.0064   0.0202   0.0028  -0.0072  -0.0088   0.99   14.2
2018/05/21 04:59:22.000   35.676973992  139.482740381    95.5613   1  13   0.0063   0.0060   0.0203   0.0029  -0.0071  -0.0087   0.99   16.3
2018/05/21 04:59:23.000   35.676975234  139.482739432    95.5655   1  13   0.0061   0.0064   0.0202   0.0029  -0.0072  -0.0088   0.99   18.3
2018/05/21 04:59:24.000   35.676977000  139.482737306    95.5470   1  13   0.0061   0.0061   0.0202   0.0029  -0.0072  -0.0087   0.99   20.4
2018/05/21 04:59:25.000   35.676979024  139.482737820    95.5642   1  13   0.0062   0.0063   0.0203   0.0029  -0.0072  -0.0087   0.99   22.5
2018/05/21 04:59:27.000   35.676983540  139.482736276    95.5513   1  12   0.0062   0.0065   0.0234   0.0033  -0.0078  -0.0094   0.99   69.4
2018/05/21 04:59:28.000   35.676984722  139.482736004    95.5525   1  13   0.0062   0.0064   0.0202   0.0030  -0.0073  -0.0087   0.99   24.8
2018/05/21 04:59:29.000   35.676987090  139.482737939    95.5883   1  13   0.0062   0.0064   0.0202   0.0027  -0.0073  -0.0087   0.99   25.0
2018/05/21 04:59:30.000   35.676989539  139.482737110    95.5475   1  13   0.0061   0.0061   0.0203   0.0028  -0.0071  -0.0088   0.99   25.3
2018/05/21 04:59:31.000   35.676991583  139.482736076    95.5444   1  13   0.0062   0.0064   0.0202   0.0028  -0.0072  -0.0087   0.99   25.5
2018/05/21 04:59:32.000   35.676993964  139.482737906    95.5811   1  13   0.0063   0.0063   0.0202   0.0028  -0.0073  -0.0087   0.99   25.7
2018/05/21 04:59:33.000   35.676996172  139.482736582    95.5475   1  13   0.0062   0.0065   0.0202   0.0030  -0.0072  -0.0087   0.99   25.9
2018/05/21 04:59:34.000   35.676997865  139.482734708    95.5523   1  13   0.0064   0.0062   0.0202   0.0029  -0.0072  -0.0086   0.99   26.0
2018/05/21 04:59:36.000   35.677002392  139.482736586    95.5963   1  13   0.0063   0.0063   0.0202   0.0029  -0.0072  -0.0087   0.99   26.4
2018/05/21 04:59:37.000   35.677005259  139.482734388    95.6022   1  13   0.0060   0.0063   0.0202   0.0030  -0.0072  -0.0087   0.99   26.5
2018/05/21 04:59:39.000   35.677015100  139.482734190    95.6074   1  13   0.0063   0.0064   0.0202   0.0030  -0.0072  -0.0087   0.99   26.9
2018/05/21 04:59:44.000   35.677039898  139.482730615    95.6455   1  13   0.0063   0.0062   0.0202   0.0030  -0.0072  -0.0087   0.99   28.1
2018/05/21 04:59:49.000   35.677061663  139.482725540    95.6898   1  14   0.0062   0.0063   0.0194   0.0031  -0.0071  -0.0088   0.99    3.1
2018/05/21 04:59:50.000   35.677066762  139.482724011    95.6489   1  13   0.0060   0.0065   0.0202   0.0031  -0.0072  -0.0087   0.99   29.1
2018/05/21 04:59:51.000   35.677071378  139.482725016    95.6596   1  14   0.0059   0.0062   0.0194   0.0028  -0.0071  -0.0089   0.99    3.2
2018/05/21 04:59:52.000   35.677076312  139.482724036    95.6488   1  13   0.0063   0.0061   0.0202   0.0029  -0.0072  -0.0087   0.99   29.5
2018/05/21 04:59:53.000   35.677080974  139.482723955    95.6151   1  14   0.0061   0.0062   0.0194   0.0030  -0.0070  -0.0088   0.99    3.4
2018/05/21 04:59:54.000   35.677085248  139.482722412    95.6294   1  13   0.0060   0.0063   0.0203   0.0025  -0.0072  -0.0087   0.99   29.7
2018/05/21 04:59:55.000   35.677090094  139.482720617    95.6447   1  13   0.0061   0.0065   0.0202   0.0027  -0.0073  -0.0086   0.99   29.9
2018/05/21 04:59:56.000   35.677094431  139.482718981    95.6708   1  13   0.0062   0.0059   0.0202   0.0029  -0.0071  -0.0088   0.99   30.0
2018/05/21 04:59:57.000   35.677099872  139.482717806    95.6317   1  13   0.0062   0.0063   0.0202   0.0028  -0.0072  -0.0088   0.99   30.2
2018/05/21 04:59:58.000   35.677104708  139.482718112    95.6398   1  13   0.0062   0.0064   0.0202   0.0027  -0.0072  -0.0087   0.99   30.4
2018/05/21 04:59:59.000   35.677109640  139.482716566    95.6180   1  12   0.0064   0.0062   0.0235   0.0028  -0.0077  -0.0093   0.99   74.7
2018/05/21 05:00:01.000   35.677118384  139.482712887    95.6266   1  13   0.0061   0.0063   0.0202   0.0027  -0.0072  -0.0088   0.99   32.6
2018/05/21 05:00:02.000   35.677122411  139.482710601    95.6298   1  13   0.0061   0.0063   0.0203   0.0029  -0.0072  -0.0087   0.99   32.8
2018/05/21 05:00:03.000   35.677125393  139.482706138    95.6327   1  13   0.0064   0.0063   0.0203   0.0030  -0.0071  -0.0086   0.99   33.0
2018/05/21 05:00:04.000   35.677128019  139.482701581    95.6193   1  12   0.0061   0.0095   0.0223   0.0041  -0.0108  -0.0093   0.99   50.8
2018/05/21 05:00:05.000   35.677129874  139.482696392    95.6320   1  11   0.0066   0.0097   0.0260   0.0043  -0.0119  -0.0100   0.99  171.8
2018/05/21 05:00:07.000   35.677130453  139.482684971    95.5970   1  12   0.0063   0.0065   0.0234   0.0030  -0.0078  -0.0093   0.99   76.0
2018/05/21 05:00:09.000   35.677127256  139.482674666    95.6404   1  12   0.0062   0.0063   0.0234   0.0033  -0.0077  -0.0094   0.99   75.3
2018/05/21 05:00:10.000   35.677124486  139.482669328    95.5964   1  12   0.0064   0.0063   0.0234   0.0031  -0.0077  -0.0093   0.99   74.5
2018/05/21 05:00:11.000   35.677122979  139.482662392    95.5749   1  12   0.0065   0.0064   0.0235   0.0028  -0.0077  -0.0092   0.99   74.2
2018/05/21 05:00:12.000   35.677120556  139.482655974    95.5473   1  12   0.0064   0.0064   0.0234   0.0029  -0.0077  -0.0093   0.99   73.4
2018/05/21 05:00:18.000   35.677115662  139.482614400    95.5459   1  11   0.0062   0.0063   0.0246   0.0031  -0.0076  -0.0093   0.99   80.8
2018/05/21 05:00:21.000   35.677112011  139.482594204    95.5145   1  11   0.0064   0.0061   0.0246   0.0029  -0.0076  -0.0093   0.99   79.0
2018/05/21 05:00:22.000   35.677110376  139.482587430    95.4886   1  12   0.0062   0.0063   0.0235   0.0031  -0.0076  -0.0094   0.99   68.2
2018/05/21 05:00:24.000   35.677108286  139.482574093    95.4668   1  12   0.0061   0.0062   0.0235   0.0028  -0.0077  -0.0094   0.99   67.4
2018/05/21 05:00:25.000   35.677106908  139.482567852    95.4443   1  11   0.0063   0.0062   0.0246   0.0029  -0.0076  -0.0093   0.99   76.7
2018/05/21 05:00:26.000   35.677104784  139.482562241    95.4566   1  12   0.0063   0.0064   0.0235   0.0029  -0.0077  -0.0093   0.99   67.2
2018/05/21 05:00:28.000   35.677098400  139.482553433    95.4420   1  12   0.0061   0.0062   0.0234   0.0029  -0.0077  -0.0094   0.99   66.8
2018/05/21 05:00:29.000   35.677094262  139.482549877    95.4683   1  12   0.0063   0.0064   0.0235   0.0030  -0.0077  -0.0093   0.99   66.8
2018/05/21 05:00:31.000   35.677085918  139.482542822    95.4104   1  12   0.0062   0.0063   0.0235   0.0030  -0.0077  -0.0093   0.99   66.5
2018/05/21 05:00:32.000   35.677082112  139.482538283    95.3865   1  12   0.0060   0.0062   0.0235   0.0028  -0.0077  -0.0094   0.99   66.5
2018/05/21 05:00:33.000   35.677077293  139.482534769    95.3923   1  12   0.0063   0.0063   0.0235   0.0029  -0.0077  -0.0093   0.99   66.4
2018/05/21 05:00:34.000   35.677072816  139.482530994    95.3785   1  12   0.0063   0.0063   0.0235   0.0029  -0.0077  -0.0093   0.99   66.5
2018/05/21 05:00:35.000   35.677068421  139.482526637    95.3684   1  12   0.0063   0.0064   0.0235   0.0029  -0.0077  -0.0093   0.99   66.5
2018/05/21 05:00:36.000   35.677063990  139.482523430    95.3646   1  12   0.0061   0.0062   0.0235   0.0030  -0.0076  -0.0094   0.99   66.4
2018/05/21 05:00:37.000   35.677060393  139.482519061    95.3521   1  12   0.0065   0.0063   0.0235   0.0029  -0.0077  -0.0093   0.99   66.4
2018/05/21 05:00:38.000   35.677055786  139.482515379    95.3511   1  12   0.0061   0.0063   0.0235   0.0029  -0.0076  -0.0094   0.99   66.5
2018/05/21 05:00:39.000   35.677051980  139.482510574    95.3201   1  12   0.0064   0.0063   0.0234   0.0032  -0.0076  -0.0094   0.99   66.5
2018/05/21 05:00:40.000   35.677047507  139.482506423    95.3538   1  12   0.0063   0.0066   0.0235   0.0029  -0.0077  -0.0093   0.99   66.2
2018/05/21 05:00:41.000   35.677042857  139.482503707    95.3834   1  11   0.0076   0.0068   0.0279  -0.0003  -0.0058  -0.0124   0.99   67.9
2018/05/21 05:00:42.000   35.677038029  139.482501608    95.4014   1  11   0.0075   0.0064   0.0279   0.0012  -0.0058  -0.0123   0.99   69.4
2018/05/21 05:00:43.000   35.677032646  139.482501584    95.4281   1  11   0.0075   0.0064   0.0279   0.0010  -0.0058  -0.0124   0.99   71.0
2018/05/21 05:00:44.000   35.677027330  139.482502036    95.4201   1  11   0.0077   0.0066   0.0279   0.0009  -0.0057  -0.0124   0.99   72.5
2018/05/21 05:00:46.000   35.677016064  139.482506399    95.4166   1  12   0.0068   0.0063   0.0258   0.0021  -0.0068  -0.0109   0.99   73.6
2018/05/21 05:00:47.000   35.677011135  139.482509305    95.3834   1  10   0.0120   0.0067   0.0380  -0.0031  -0.0021  -0.0199   0.99   86.7
2018/05/21 05:00:56.000   35.676979212  139.482555554    95.6199   1  12   0.0064   0.0063   0.0234   0.0028  -0.0077  -0.0093   0.99    3.2
2018/05/21 05:00:57.000   35.676979661  139.482556368    95.6287   1  12   0.0060   0.0063   0.0235   0.0029  -0.0076  -0.0094   0.99    3.5
2018/05/21 05:01:01.000   35.676979780  139.482556396    95.6353   1  13   0.0062   0.0065   0.0202   0.0027  -0.0071  -0.0086   0.99    3.1
2018/05/21 05:01:02.000   35.676979774  139.482556442    95.6423   1  13   0.0062   0.0064   0.0202   0.0028  -0.0071  -0.0087   0.99    3.2
2018/05/21 05:01:03.000   35.676979812  139.482556478    95.6310   1  13   0.0061   0.0063   0.0202   0.0029  -0.0071  -0.0087   0.99    3.4
2018/05/21 05:01:04.000   35.676979820  139.482556511    95.6160   1  13   0.0062   0.0063   0.0202   0.0028  -0.0070  -0.0087   0.99    3.5
2018/05/21 05:01:05.000   35.676979797  139.482556481    95.6336   1  13   0.0061   0.0063   0.0203   0.0027  -0.0071  -0.0086   0.99    3.7
2018/05/21 05:01:06.000   35.676979821  139.482556449    95.6318   1  13   0.0062   0.0062   0.0202   0.0029  -0.0071  -0.0087   0.99    3.8
2018/05/21 05:01:08.000   35.676980882  139.482556322    95.6422   1  11   0.0059   0.0064   0.0247   0.0029  -0.0075  -0.0093   0.99    6.2
2018/05/21 05:01:09.000   35.676981032  139.482556224    95.6430   1  11   0.0060   0.0064   0.0247   0.0028  -0.0075  -0.0093   0.99    6.4
2018/05/21 05:01:10.000   35.676981020  139.482556288    95.6502   1  11   0.0060   0.0062   0.0247   0.0030  -0.0075  -0.0093   0.99    6.6
2018/05/21 05:01:11.000   35.676980982  139.482556352    95.6512   1  11   0.0061   0.0063   0.0247   0.0029  -0.0075  -0.0093   0.99    6.8
2018/05/21 05:01:14.000   35.676980998  139.482556335    95.6370   1  11   0.0063   0.0062   0.0247   0.0029  -0.0074  -0.0093   0.99    7.3
2018/05/21 05:01:31.000   35.676978810  139.482556272    95.6142   1  13   0.0062   0.0062   0.0202   0.0029  -0.0070  -0.0087   0.99    3.1
2018/05/21 05:01:32.000   35.676978867  139.482556223    95.6273   1  13   0.0062   0.0062   0.0202   0.0023  -0.0070  -0.0087   0.99    3.2
2018/05/21 05:01:33.000   35.676978907  139.482556290    95.6285   1  13   0.0061   0.0061   0.0202   0.0028  -0.0069  -0.0087   0.99    3.3
2018/05/21 05:01:34.000   35.676978896  139.482556240    95.6297   1  13   0.0060   0.0061   0.0202   0.0028  -0.0069  -0.0087   0.99    3.4
2018/05/21 05:01:35.000   35.676978702  139.482556226    95.6289   1  13   0.0061   0.0062   0.0202   0.0029  -0.0070  -0.0086   0.99    3.5
2018/05/21 05:01:36.000   35.676978241  139.482556044    95.6232   1  13   0.0063   0.0060   0.0202   0.0028  -0.0070  -0.0087   0.99    3.6
2018/05/21 05:01:37.000   35.676977559  139.482555777    95.6155   1  13   0.0061   0.0061   0.0202   0.0026  -0.0070  -0.0087   0.99    3.7
2018/05/21 05:01:38.000   35.676977141  139.482555550    95.6160   1  13   0.0061   0.0062   0.0202   0.0027  -0.0070  -0.0087   0.99    3.8
2018/05/21 05:01:39.000   35.676976868  139.482555521    95.6184   1  13   0.0060   0.0061   0.0202   0.0026  -0.0070  -0.0088   0.99    3.9
2018/05/21 05:01:40.000   35.676976259  139.482555925    95.6029   1  12   0.0064   0.0064   0.0235   0.0026  -0.0076  -0.0092   0.99    8.8
2018/05/21 05:01:41.000   35.676975666  139.482556254    95.6270   1  12   0.0061   0.0062   0.0235   0.0030  -0.0075  -0.0093   0.99   10.0
2018/05/21 05:01:42.000   35.676975294  139.482556545    95.6518   1  12   0.0062   0.0064   0.0235   0.0026  -0.0076  -0.0093   0.99   11.1
2018/05/21 05:01:43.000   35.676975146  139.482556564    95.6470   1  11   0.0063   0.0063   0.0235   0.0030  -0.0074  -0.0093   0.99   16.6
2018/05/21 05:01:44.000   35.676975149  139.482556678    95.6262   1  11   0.0062   0.0062   0.0235   0.0029  -0.0075  -0.0092   0.99   18.1
2018/05/21 05:01:47.000   35.676975352  139.482554152    95.6094   1  12   0.0061   0.0063   0.0235   0.0028  -0.0075  -0.0093   0.99   15.0
2018/05/21 05:01:48.000   35.676975760  139.482553046    95.6083   1  12   0.0063   0.0064   0.0235   0.0029  -0.0075  -0.0092   0.99   15.3
2018/05/21 05:01:49.000   35.676976529  139.482552066    95.6181   1  12   0.0062   0.0062   0.0235   0.0028  -0.0075  -0.0093   0.99   15.5
2018/05/21 05:01:50.000   35.676977497  139.482551014    95.6187   1  12   0.0063   0.0061   0.0235   0.0030  -0.0075  -0.0093   0.99   15.7
2018/05/21 05:01:51.000   35.676978053  139.482550144    95.6145   1  12   0.0061   0.0061   0.0235   0.0027  -0.0074  -0.0094   0.99   16.0
2018/05/21 05:01:52.000   35.676978426  139.482549328    95.6263   1  12   0.0062   0.0062   0.0235   0.0030  -0.0075  -0.0093   0.99   16.2
2018/05/21 05:01:53.000   35.676978761  139.482548218    95.5999   1  12   0.0062   0.0062   0.0235   0.0029  -0.0075  -0.0093   0.99   16.5
2018/05/21 05:01:59.000   35.676982179  139.482551630    95.5987   1  12   0.0062   0.0063   0.0235   0.0028  -0.0075  -0.0093   0.99   17.6
2018/05/21 05:02:03.000   35.676982112  139.482555070    95.6098   1  12   0.0062   0.0063   0.0235   0.0028  -0.0075  -0.0092   0.99   18.4
2018/05/21 05:02:04.000   35.676981445  139.482556786    95.6002   1  12   0.0062   0.0062   0.0235   0.0029  -0.0075  -0.0093   0.99   18.6
2018/05/21 05:02:05.000   35.676981778  139.482557685    95.6205   1  11   0.0063   0.0063   0.0235   0.0030  -0.0075  -0.0092   0.99   24.7
2018/05/21 05:02:06.000   35.676981264  139.482558119    95.6188   1  10   0.0064   0.0065   0.0250   0.0030  -0.0073  -0.0089   0.99   41.6
2018/05/21 05:02:07.000   35.676980956  139.482558346    95.6113   1  11   0.0061   0.0063   0.0248   0.0029  -0.0073  -0.0092   0.99   32.1
2018/05/21 05:02:08.000   35.676980992  139.482558254    95.6175   1  11   0.0061   0.0063   0.0248   0.0029  -0.0073  -0.0092   0.99   32.2
2018/05/21 05:02:15.000   35.676980987  139.482558289    95.6136   1  11   0.0060   0.0062   0.0248   0.0027  -0.0073  -0.0092   0.99   32.3
2018/05/21 05:02:16.000   35.676981018  139.482558249    95.6080   1  10   0.0063   0.0062   0.0250   0.0031  -0.0072  -0.0090   0.99   41.3
2018/05/21 05:02:18.000   35.676980889  139.482558238    95.6147   1  11   0.0064   0.0062   0.0248   0.0029  -0.0073  -0.0092   0.99   32.4
2018/05/21 05:02:25.000   35.676945556  139.482565185    95.7502   1  10   0.0064   0.0095   0.0272   0.0040  -0.0116  -0.0099   0.99   78.5
2018/05/21 05:02:26.000   35.676934905  139.482565814    95.7231   1   9   0.0063   0.0095   0.0274   0.0041  -0.0115  -0.0097   0.99  163.1
2018/05/21 05:02:27.000   35.676925038  139.482564223    95.6877   1   9   0.0064   0.0095   0.0274   0.0042  -0.0114  -0.0096   0.99  165.1
2018/05/21 05:02:28.000   35.676914658  139.482562453    95.6883   1  11   0.0064   0.0060   0.0235   0.0028  -0.0074  -0.0092   0.99    3.2
2018/05/21 05:02:29.000   35.676903772  139.482562167    95.6388   1  11   0.0063   0.0060   0.0235   0.0029  -0.0073  -0.0092   0.99    3.5
2018/05/21 05:02:30.000   35.676893616  139.482562709    95.6128   1  11   0.0062   0.0064   0.0235   0.0029  -0.0074  -0.0092   0.99    3.7
2018/05/21 05:02:32.000   35.676872167  139.482560172    95.6011   1  11   0.0064   0.0095   0.0261   0.0040  -0.0116  -0.0099   0.99    4.8
2018/05/21 05:02:33.000   35.676861781  139.482557115    95.5691   1   9   0.0079   0.0094   0.0303   0.0040  -0.0115  -0.0126   0.99    9.9
2018/05/21 05:02:34.000   35.676851121  139.482555611    95.6116   1  10   0.0063   0.0094   0.0272   0.0040  -0.0115  -0.0098   0.99    7.9
2018/05/21 05:02:35.000   35.676839252  139.482554258    95.5120   1  10   0.0063   0.0095   0.0272   0.0039  -0.0115  -0.0099   0.99    9.5
2018/05/21 05:02:36.000   35.676827819  139.482551835    95.4450   1  10   0.0062   0.0094   0.0272   0.0039  -0.0116  -0.0099   0.99   11.3
2018/05/21 05:02:37.000   35.676817171  139.482548832    95.3816   1  10   0.0079   0.0095   0.0282   0.0040  -0.0116  -0.0121   0.99   20.9
2018/05/21 05:02:38.000   35.676806848  139.482545523    95.4319   1   9   0.0064   0.0095   0.0274   0.0040  -0.0115  -0.0096   0.99  171.6
2018/05/21 05:02:39.000   35.676795950  139.482542653    95.3852   1   9   0.0066   0.0097   0.0263   0.0045  -0.0113  -0.0096   0.99   23.4
2018/05/21 05:02:40.000   35.676785435  139.482539449    95.3046   1   8   0.0067   0.0097   0.0281   0.0046  -0.0108  -0.0090   0.99  213.7
2018/05/21 05:02:41.000   35.676774858  139.482536923    95.3556   1   8   0.0068   0.0098   0.0281   0.0046  -0.0108  -0.0090   0.99  212.0
2018/05/21 05:02:42.000   35.676764186  139.482535603    95.3290   1   9   0.0065   0.0097   0.0278   0.0044  -0.0110  -0.0094   0.99   17.4
2018/05/21 05:02:43.000   35.676753422  139.482535257    95.3002   1   8   0.0066   0.0097   0.0282   0.0046  -0.0108  -0.0090   0.99  243.1
2018/05/21 05:02:44.000   35.676742687  139.482535282    95.2636   1   7   0.0075   0.0112   0.0310   0.0016  -0.0137  -0.0061   0.99  258.9
2018/05/21 05:02:47.000   35.676710719  139.482532515    95.2446   1   7   0.0081   0.0097   0.0316   0.0045  -0.0107  -0.0120   0.99    5.3
2018/05/21 05:02:48.000   35.676700542  139.482531785    95.2942   1   8   0.0072   0.0112   0.0303   0.0013  -0.0138  -0.0071   0.99  268.8
2018/05/21 05:02:49.000   35.676689563  139.482532330    95.2203   1   5   0.0303   0.0152   0.0689  -0.0170  -0.0252   0.0394   0.99  599.0
2018/05/21 05:02:50.000   35.676678838  139.482533367    95.1307   1   7   0.0148   0.0112   0.0654  -0.0070   0.0143  -0.0292   0.99    3.8
2018/05/21 05:02:53.000   35.676647112  139.482543183    95.5198   1   8   0.0093   0.0099   0.0423   0.0032  -0.0077  -0.0158   0.99    5.5
2018/05/21 05:02:54.000   35.676637105  139.482547739    95.5407   1   9   0.0097   0.0189   0.0351   0.0112  -0.0202  -0.0156   0.99    4.7
2018/05/21 05:03:06.000   35.676514843  139.482609326    96.0321   1   9   0.0085   0.0096   0.0303   0.0024  -0.0103  -0.0133   0.99    3.8
2018/05/21 05:03:08.000   35.676494001  139.482612781    95.9308   1  10   0.0100   0.0118   0.0303  -0.0055  -0.0099  -0.0135   0.99    3.6
