%  GPST                  latitude(deg) longitude(deg)  height(m)   Q  ns   sdn(m)   sde(m)   sdu(m)  sdne(m)  sdeu(m)  sdun(m) age(s)  ratio
2018/05/21 04:48:42.000   35.676436055  139.482535195    87.7849   5   6   5.7599   7.5961  13.1782   3.9576   1.2461  -6.5884   0.00    0.0
2018/05/21 04:48:43.000   35.676436881  139.482538520    87.9886   5   6   5.7601   7.5972  13.1784   3.9585   1.2403  -6.5887   0.00    0.0
2018/05/21 04:48:44.000   35.676441368  139.482541430    87.3084   5   6   5.7604   7.5983  13.1786   3.9594   1.2345  -6.5891   0.00    0.0
2018/05/21 04:48:45.000   35.676439781  139.482538420    86.9400   5   6   5.7606   7.5994  13.1788   3.9603   1.2287  -6.5895   0.00    0.0
2018/05/21 04:48:46.000   35.676440166  139.482539125    85.9625   5   6   5.7608   7.6005  13.1790   3.9612   1.2228  -6.5898   0.00    0.0
2018/05/21 04:48:47.000   35.676447071  139.482536188    84.1308   5   6   5.7611   7.6017  13.1792   3.9621   1.2169  -6.5902   0.00    0.0
2018/05/21 04:48:48.000   35.676448035  139.482534179    84.2510   5   6   5.7613   7.6028  13.1795   3.9630   1.2110  -6.5906   0.00    0.0
2018/05/21 04:48:49.000   35.676448413  139.482536670    83.5779   5   6   5.7615   7.6039  13.1797   3.9639   1.2050  -6.5909   0.00    0.0
2018/05/21 04:48:50.000   35.676447640  139.482536218    83.4842   5   6   5.7618   7.6050  13.1799   3.9648   1.1991  -6.5913   0.00    0.0
2018/05/21 04:48:51.000   35.676446695  139.482536129    83.6047   5   6   5.7620   7.6061  13.1801   3.9657   1.1931  -6.5917   0.00    0.0
2018/05/21 04:48:52.000   35.676448444  139.482539922    83.6464   5   6   5.7622   7.6072  13.1803   3.9666   1.1870  -6.5920   0.00    0.0
2018/05/21 04:48:53.000   35.676451837  139.482538025    83.0751   5   6   5.7625   7.6083  13.1805   3.9675   1.1809  -6.5924   0.00    0.0
2018/05/21 04:48:54.000   35.676449891  139.482535493    82.9145   5   6   5.7627   7.6095  13.1807   3.9684   1.1748  -6.5928   0.00    0.0
2018/05/21 04:48:55.000   35.676451672  139.482533124    81.8570   5   6   5.7629   7.6106  13.1809   3.9693   1.1687  -6.5931   0.00    0.0
2018/05/21 04:48:56.000   35.676452308  139.482536471    81.5232   5   6   5.7632   7.6117  13.1811   3.9702   1.1625  -6.5935   0.00    0.0
2018/05/21 04:48:57.000   35.676450889  139.482537284    82.0331   5   6   5.7634   7.6128  13.1814   3.9711   1.1563  -6.5939   0.00    0.0
2018/05/21 04:48:58.000   35.676447187  139.482529300    83.3477   5   6   5.7636   7.6139  13.1816   3.9720   1.1500  -6.5943   0.00    0.0
2018/05/21 04:48:59.000   35.676458975  139.482567945    75.9496   5   5   6.2058   9.6988  20.8011   5.4405  -9.7644  -8.9721   0.00    0.0
2018/05/21 04:49:00.000   35.676443629  139.482531303    84.9985   5   6   5.7641   7.6162  13.1820   3.9738   1.1374  -6.5950   0.00    0.0
2018/05/21 04:49:01.000   35.676439280  139.482524314    85.5617   5   6   5.7643   7.6173  13.1822   3.9747   1.1310  -6.5954   0.00    0.0
2018/05/21 04:49:02.000   35.676439098  139.482520143    85.8189   5   6   5.7646   7.6184  13.1824   3.9756   1.1246  -6.5957   0.00    0.0
2018/05/21 04:49:03.000   35.676446231  139.482536226    88.6956   5   7   5.4845   6.7572  13.1484   3.0920   2.1437  -6.4669   0.00    0.0
2018/05/21 04:49:04.000   35.676448126  139.482527448    88.7797   5   7   5.4848   6.7584  13.1485   3.0933   2.1410  -6.4672   0.00    0.0
2018/05/21 04:49:05.000   35.676447362  139.482522659    88.9439   5   7   5.4852   6.7595  13.1487   3.0945   2.1384  -6.4675   0.00    0.0
2018/05/21 04:49:06.000   35.676446348  139.482519181    88.6730   5   7   5.4855   6.7606  13.1488   3.0958   2.1357  -6.4678   0.00    0.0
2018/05/21 04:49:07.000   35.676459089  139.482548298    79.7556   5   6   5.7091   8.1212  19.8545   4.0868  -7.8972  -8.0841   0.00    0.0
2018/05/21 04:49:08.000   35.676459962  139.482549432    79.0063   5   6   5.7095   8.1226  19.8562   4.0881  -7.8992  -8.0849   0.00    0.0
2018/05/21 04:49:09.000   35.676461056  139.482549215    78.0696   5   6   5.7099   8.1239  19.8580   4.0894  -7.9012  -8.0857   0.00    0.0
2018/05/21 04:49:10.000   35.676461816  139.482550011    78.2431   5   6   5.7104   8.1252  19.8598   4.0907  -7.9032  -8.0866   0.00    0.0
2018/05/21 04:49:11.000   35.676461134  139.482551637    76.8398   5   6   5.7108   8.1266  19.8615   4.0920  -7.9052  -8.0874   0.00    0.0
2018/05/21 04:49:12.000   35.676463322  139.482561784    78.1220   5   7   5.5573   8.0024  18.9878   3.8576  -8.4156  -8.5499   0.00    0.0
2018/05/21 04:49:13.000   35.676462339  139.482559088    78.5717   5   7   5.5577   8.0037  18.9893   3.8589  -8.4177  -8.5508   0.00    0.0
2018/05/21 04:49:14.000   35.676461785  139.482558903    78.2529   5   7   5.5581   8.0050  18.9908   3.8602  -8.4198  -8.5518   0.00    0.0
2018/05/21 04:49:15.000   35.676449511  139.482514037    89.5885   5   8   5.2032   6.2624  12.9395   2.2708  -1.2563  -6.7795   0.00    0.0
2018/05/21 04:49:16.000   35.676449811  139.482507465    88.7861   5   8   5.2034   6.2633  12.9397   2.2720  -1.2615  -6.7798   0.00    0.0
2018/05/21 04:49:17.000   35.676449281  139.482502938    89.3016   5   8   5.2037   6.2642  12.9398   2.2732  -1.2667  -6.7801   0.00    0.0
2018/05/21 04:49:18.000   35.676447763  139.482506867    89.2081   5   8   5.2039   6.2651  12.9400   2.2744  -1.2719  -6.7805   0.00    0.0
2018/05/21 04:49:19.000   35.676463578  139.482575732    89.4601   5  11   3.3350   2.9079   9.2373   1.1379  -1.6674  -4.0105   0.00    0.0
2018/05/21 04:49:20.000   35.676462753  139.482577350    89.3050   5  11   3.3351   2.9079   9.2378   1.1378  -1.6664  -4.0107   0.00    0.0
2018/05/21 04:49:21.000   35.676463785  139.482575641    89.6941   5  11   3.3351   2.9079   9.2384   1.1376  -1.6653  -4.0108   0.00    0.0
2018/05/21 04:49:22.000   35.676463640  139.482574508    89.0856   5  11   3.3352   2.9079   9.2389   1.1375  -1.6643  -4.0110   0.00    0.0
2018/05/21 04:49:23.000   35.676464270  139.482571812    88.6268   5  11   3.3352   2.9078   9.2395   1.1374  -1.6632  -4.0111   0.00    0.0
2018/05/21 04:49:24.000   35.676466393  139.482571248    88.0357   5  11   3.3353   2.9078   9.2401   1.1373  -1.6622  -4.0113   0.00    0.0
2018/05/21 04:49:25.000   35.676466897  139.482571212    87.5800   5  11   3.3353   2.9078   9.2406   1.1371  -1.6612  -4.0114   0.00    0.0
2018/05/21 04:49:26.000   35.676466071  139.482570431    87.9034   5  11   3.3354   2.9078   9.2412   1.1370  -1.6601  -4.0116   0.00    0.0
2018/05/21 04:49:27.000   35.676466128  139.482570790    87.8673   5  11   3.3354   2.9078   9.2417   1.1369  -1.6591  -4.0118   0.00    0.0
2018/05/21 04:49:28.000   35.676467271  139.482571020    88.0438   5  11   3.3355   2.9077   9.2423   1.1367  -1.6580  -4.0119   0.00    0.0
2018/05/21 04:49:29.000   35.676464575  139.482568942    88.5074   5  11   3.3355   2.9077   9.2428   1.1366  -1.6570  -4.0121   0.00    0.0
2018/05/21 04:49:30.000   35.676463358  139.482569805    89.7496   5  11   3.3356   2.9077   9.2434   1.1365  -1.6559  -4.0122   0.00    0.0
2018/05/21 04:49:31.000   35.676460328  139.482571209    90.2518   5  11   3.3356   2.9077   9.2439   1.1364  -1.6549  -4.0124   0.00    0.0
2018/05/21 04:49:32.000   35.676462777  139.482611713    86.1669   2   9   0.6617   1.1672   2.4880   0.3826  -1.2993  -0.9187   0.99    1.1
2018/05/21 04:49:33.000   35.676461525  139.482614181    86.2374   2   9   0.4701   0.8280   1.7661   0.2707  -0.9214  -0.6522   0.99    1.3
2018/05/21 04:49:34.000   35.676460222  139.482612724    86.8360   2   9   0.3844   0.6766   1.4437   0.2209  -0.7529  -0.5331   0.99    1.4
2018/05/21 04:49:35.000   35.676458866  139.482611217    87.5846   2   9   0.3331   0.5862   1.2508   0.1911  -0.6521  -0.4619   0.99    1.3
2018/05/21 04:49:36.000   35.676457253  139.482610963    88.2757   2   9   0.2981   0.5243   1.1189   0.1707  -0.5831  -0.4131   0.99    1.3
2018/05/21 04:49:37.000   35.676455563  139.482611227    88.8729   2   9   0.2721   0.4785   1.0212   0.1556  -0.5320  -0.3770   0.99    1.1
2018/05/21 04:49:38.000   35.676453914  139.482611181    89.5299   2   9   0.2520   0.4429   0.9452   0.1438  -0.4922  -0.3488   0.99    1.1
2018/05/21 04:49:39.000   35.676452436  139.482611106    90.0656   2   9   0.2357   0.4141   0.8837   0.1342  -0.4600  -0.3261   0.99    1.1
2018/05/21 04:49:40.000   35.676451041  139.482611014    90.4839   2   9   0.2221   0.3903   0.8326   0.1262  -0.4332  -0.3072   0.99    1.1
2018/05/21 04:49:41.000   35.676449762  139.482611045    90.7603   2   9   0.2107   0.3700   0.7893   0.1194  -0.4105  -0.2911   0.99    1.0
2018/05/21 04:49:42.000   35.676448617  139.482610532    91.0387   2   9   0.2008   0.3526   0.7520   0.1135  -0.3909  -0.2772   0.99    1.1
2018/05/21 04:49:43.000   35.676447622  139.482609834    91.2388   2   9   0.1922   0.3374   0.7193   0.1084  -0.3737  -0.2651   0.99    1.1
2018/05/21 04:49:44.000   35.676446547  139.482609267    91.5799   2   9   0.1846   0.3239   0.6903   0.1037  -0.3584  -0.2544   0.99    1.1
2018/05/21 04:49:45.000   35.676445556  139.482608990    92.0590   2   8   0.1780   0.3120   0.6666   0.0996  -0.3454  -0.2441   0.99    2.3
2018/05/21 04:49:46.000   35.676444635  139.482608585    92.4388   2   8   0.1720   0.3013   0.6449   0.0959  -0.3335  -0.2350   0.99    2.5
2018/05/21 04:49:47.000   35.676443691  139.482607917    92.6857   2   9   0.1665   0.2914   0.6229   0.0925  -0.3219  -0.2272   0.99    1.0
2018/05/21 04:49:48.000   35.676442808  139.482606977    92.9398   2   9   0.1614   0.2823   0.6031   0.0892  -0.3115  -0.2200   0.99    1.1
2018/05/21 04:49:49.000   35.676442217  139.482606142    93.1082   2   9   0.1567   0.2741   0.5849   0.0863  -0.3020  -0.2134   0.99    1.1
2018/05/21 04:49:50.000   35.676441792  139.482604930    93.3097   2   9   0.1524   0.2664   0.5682   0.0835  -0.2931  -0.2073   0.99    1.0
2018/05/21 04:49:51.000   35.676441312  139.482604044    93.4881   2   9   0.1484   0.2593   0.5526   0.0809  -0.2849  -0.2016   0.99    1.0
2018/05/21 04:49:52.000   35.676440886  139.482603419    93.6465   2   9   0.1447   0.2528   0.5382   0.0785  -0.2772  -0.1963   0.99    1.0
2018/05/21 04:49:53.000   35.676440447  139.482603035    93.7915   2   9   0.1413   0.2466   0.5247   0.0762  -0.2700  -0.1913   0.99    1.1
2018/05/21 04:49:54.000   35.676439948  139.482602897    93.9532   2   9   0.1381   0.2409   0.5120   0.0741  -0.2633  -0.1867   0.99    1.1
2018/05/21 04:49:55.000   35.676439205  139.482602563    94.2525   2   9   0.1351   0.2355   0.5001   0.0720  -0.2569  -0.1823   0.99    1.1
2018/05/21 04:49:56.000   35.676438586  139.482602535    94.4639   2   9   0.1322   0.2304   0.4888   0.0701  -0.2509  -0.1781   0.99    1.1
2018/05/21 04:49:57.000   35.676437946  139.482603005    94.6210   2   9   0.1295   0.2256   0.4781   0.0682  -0.2452  -0.1742   0.99    1.1
2018/05/21 04:49:58.000   35.676437221  139.482603516    94.8397   2   9   0.1270   0.2210   0.4680   0.0665  -0.2398  -0.1704   0.99    1.1
2018/05/21 04:49:59.000   35.676436456  139.482604279    94.9984   2   9   0.1245   0.2167   0.4584   0.0647  -0.2347  -0.1668   0.99    1.1
2018/05/21 04:50:00.000   35.676435609  139.482604935    95.2015   2   9   0.1222   0.2126   0.4493   0.0631  -0.2297  -0.1634   0.99    1.1
2018/05/21 04:50:01.000   35.676434715  139.482605691    95.3762   2   9   0.1201   0.2087   0.4406   0.0615  -0.2250  -0.1602   0.99    1.1
2018/05/21 04:50:02.000   35.676434009  139.482606438    95.4512   2   9   0.1180   0.2049   0.4322   0.0600  -0.2205  -0.1571   0.99    1.1
2018/05/21 04:50:03.000   35.676433357  139.482607272    95.4936   2   9   0.1160   0.2014   0.4242   0.0585  -0.2162  -0.1541   0.99    1.1
2018/05/21 04:50:04.000   35.676432790  139.482608209    95.5107   2   9   0.1141   0.1979   0.4165   0.0571  -0.2120  -0.1512   0.99    1.0
2018/05/21 04:50:05.000   35.676432308  139.482609292    95.5037   2   9   0.1123   0.1947   0.4092   0.0556  -0.2080  -0.1484   0.99    1.1
2018/05/21 04:50:06.000   35.676431916  139.482610140    95.5118   2   9   0.1105   0.1915   0.4021   0.0543  -0.2042  -0.1457   0.99    1.1
2018/05/21 04:50:07.000   35.676431557  139.482610811    95.5437   2   8   0.1089   0.1887   0.3968   0.0530  -0.2011  -0.1431   0.99    1.0
2018/05/21 04:50:08.000   35.676431264  139.482611562    95.5664   2   8   0.1074   0.1860   0.3912   0.0519  -0.1981  -0.1406   0.99    1.0
2018/05/21 04:50:09.000   35.676430871  139.482611684    95.6724   2   8   0.1059   0.1833   0.3858   0.0508  -0.1951  -0.1382   0.99    1.1
2018/05/21 04:50:10.000   35.676430571  139.482612144    95.7211   2   8   0.1044   0.1808   0.3806   0.0497  -0.1922  -0.1359   0.99    1.1
2018/05/21 04:50:11.000   35.676430293  139.482612545    95.7870   2   8   0.1030   0.1784   0.3755   0.0487  -0.1894  -0.1337   0.99    1.1
2018/05/21 04:50:12.000   35.676430054  139.482612829    95.8579   2   8   0.1017   0.1760   0.3706   0.0476  -0.1866  -0.1315   0.99    1.2
2018/05/21 04:50:13.000   35.676429934  139.482613136    95.9085   2   8   0.1004   0.1737   0.3658   0.0466  -0.1840  -0.1294   0.99    1.2
2018/05/21 04:50:14.000   35.676429719  139.482613104    95.9753   2   8   0.0991   0.1715   0.3612   0.0456  -0.1814  -0.1273   0.99    1.2
2018/05/21 04:50:15.000   35.676429543  139.482613127    96.0153   2   8   0.0979   0.1693   0.3567   0.0446  -0.1789  -0.1254   0.99    1.3
2018/05/21 04:50:16.000   35.676429340  139.482612987    96.0662   2   8   0.0967   0.1673   0.3523   0.0437  -0.1764  -0.1234   0.99    1.3
2018/05/21 04:50:17.000   35.676429099  139.482612748    96.1104   2   9   0.0956   0.1652   0.3477   0.0427  -0.1740  -0.1217   0.99    1.2
2018/05/21 04:50:18.000   35.676428840  139.482612688    96.1097   2   9   0.0944   0.1633   0.3433   0.0418  -0.1717  -0.1200   0.99    1.1
2018/05/21 04:50:19.000   35.676428632  139.482612668    96.0945   2   9   0.0933   0.1614   0.3390   0.0409  -0.1694  -0.1184   0.99    1.1
2018/05/21 04:50:20.000   35.676428420  139.482612585    96.0971   2   9   0.0922   0.1595   0.3348   0.0400  -0.1672  -0.1167   0.99    1.1
2018/05/21 04:50:21.000   35.676428313  139.482612498    96.0738   2   9   0.0912   0.1577   0.3307   0.0391  -0.1650  -0.1152   0.99    1.1
2018/05/21 04:50:22.000   35.676428117  139.482612524    96.0819   2   8   0.0902   0.1559   0.3270   0.0382  -0.1629  -0.1134   0.99    1.6
2018/05/21 04:50:23.000   35.676427987  139.482612484    96.0987   2   8   0.0892   0.1542   0.3233   0.0373  -0.1608  -0.1118   0.99    1.7
2018/05/21 04:50:24.000   35.676427935  139.482612662    96.0988   2   8   0.0883   0.1526   0.3197   0.0364  -0.1588  -0.1102   0.99    1.7
2018/05/21 04:50:25.000   35.676427973  139.482612781    96.1042   2   8   0.0874   0.1509   0.3162   0.0355  -0.1568  -0.1086   0.99    1.7
2018/05/21 04:50:26.000   35.676428073  139.482612954    96.0632   2   8   0.0865   0.1494   0.3128   0.0346  -0.1549  -0.1071   0.99    1.7
2018/05/21 04:50:27.000   35.676428171  139.482613095    96.0603   2   8   0.0856   0.1478   0.3094   0.0338  -0.1530  -0.1056   0.99    1.7
2018/05/21 04:50:28.000   35.676428341  139.482613371    96.0282   2   9   0.0847   0.1463   0.3059   0.0329  -0.1511  -0.1043   0.99    1.3
2018/05/21 04:50:29.000   35.676428458  139.482613719    95.9728   2   9   0.0839   0.1448   0.3025   0.0321  -0.1492  -0.1030   0.99    1.1
2018/05/21 04:50:30.000   35.676428666  139.482614089    95.8921   2   9   0.0830   0.1434   0.2991   0.0313  -0.1474  -0.1017   0.99    1.2
2018/05/21 04:50:31.000   35.676428789  139.482614471    95.8389   2   9   0.0822   0.1420   0.2958   0.0304  -0.1457  -0.1004   0.99    1.2
2018/05/21 04:50:32.000   35.676428890  139.482614695    95.8121   2   9   0.0814   0.1406   0.2926   0.0296  -0.1439  -0.0991   0.99    1.2
2018/05/21 04:50:33.000   35.676429013  139.482615116    95.7485   2   9   0.0806   0.1392   0.2895   0.0288  -0.1422  -0.0979   0.99    1.2
2018/05/21 04:50:34.000   35.676429236  139.482615592    95.6874   2   9   0.0798   0.1379   0.2864   0.0279  -0.1405  -0.0967   0.99    1.2
2018/05/21 04:50:35.000   35.676429381  139.482616155    95.6313   2   9   0.0791   0.1366   0.2834   0.0271  -0.1389  -0.0955   0.99    1.2
2018/05/21 04:50:36.000   35.676429558  139.482616612    95.5774   2   9   0.0784   0.1354   0.2804   0.0262  -0.1373  -0.0943   0.99    1.2
2018/05/21 04:50:37.000   35.676429773  139.482616844    95.5747   2   8   0.0777   0.1342   0.2779   0.0252  -0.1359  -0.0930   0.99    1.1
2018/05/21 04:50:38.000   35.676429883  139.482617095    95.5746   2   9   0.0770   0.1329   0.2749   0.0245  -0.1342  -0.0920   0.99    1.1
2018/05/21 04:50:39.000   35.676429948  139.482617320    95.5911   2   9   0.0763   0.1317   0.2721   0.0237  -0.1327  -0.0909   0.99    1.0
2018/05/21 04:50:40.000   35.676430048  139.482617560    95.6102   2   9   0.0757   0.1306   0.2693   0.0228  -0.1311  -0.0898   0.99    1.0
2018/05/21 04:50:41.000   35.676430239  139.482617663    95.6121   2   9   0.0750   0.1294   0.2666   0.0220  -0.1296  -0.0887   0.99    1.0
2018/05/21 04:50:42.000   35.676430395  139.482617841    95.6444   2   9   0.0743   0.1283   0.2639   0.0211  -0.1282  -0.0876   0.99    1.1
2018/05/21 04:50:43.000   35.676430519  139.482617877    95.7065   2   9   0.0737   0.1272   0.2613   0.0202  -0.1267  -0.0866   0.99    1.2
2018/05/21 04:50:44.000   35.676430712  139.482617912    95.7316   2   9   0.0731   0.1261   0.2587   0.0193  -0.1253  -0.0855   0.99    1.2
2018/05/21 04:50:45.000   35.676430880  139.482617879    95.7548   2   9   0.0725   0.1250   0.2562   0.0184  -0.1239  -0.0845   0.99    1.3
2018/05/21 04:50:46.000   35.676431062  139.482617703    95.7809   2   9   0.0719   0.1240   0.2536   0.0174  -0.1225  -0.0835   0.99    1.3
2018/05/21 04:50:47.000   35.676431221  139.482617469    95.8388   2   9   0.0713   0.1229   0.2512   0.0164  -0.1211  -0.0825   0.99    1.4
2018/05/21 04:50:48.000   35.676431298  139.482617193    95.9025   2   9   0.0707   0.1219   0.2488   0.0154  -0.1197  -0.0815   0.99    1.4
2018/05/21 04:50:49.000   35.676431420  139.482617015    95.9566   2   9   0.0702   0.1209   0.2464   0.0144  -0.1184  -0.0806   0.99    1.5
2018/05/21 04:50:50.000   35.676431494  139.482616680    96.0537   2   9   0.0696   0.1200   0.2440   0.0133  -0.1171  -0.0796   0.99    1.6
2018/05/21 04:50:51.000   35.676431560  139.482616485    96.1248   2   9   0.0691   0.1190   0.2417   0.0121  -0.1158  -0.0787   0.99    1.7
2018/05/21 04:50:52.000   35.676431589  139.482616344    96.2057   2   9   0.0685   0.1180   0.2394   0.0110  -0.1145  -0.0777   0.99    1.7
2018/05/21 04:50:53.000   35.676431542  139.482616061    96.3166   2   9   0.0680   0.1171   0.2371   0.0095  -0.1132  -0.0768   0.99    1.8
2018/05/21 04:50:54.000   35.676431540  139.482615799    96.3949   2   9   0.0675   0.1162   0.2349   0.0080  -0.1120  -0.0759   0.99    1.8
2018/05/21 04:50:55.000   35.676431612  139.482615538    96.4625   2   9   0.0670   0.1153   0.2327   0.0062  -0.1107  -0.0750   0.99    1.8
2018/05/21 04:50:56.000   35.676431601  139.482615153    96.5748   2   9   0.0665   0.1144   0.2306   0.0033  -0.1095  -0.0741   0.99    1.8
2018/05/21 04:50:57.000   35.676431721  139.482614928    96.6299   2   9   0.0660   0.1136   0.2285  -0.0034  -0.1083  -0.0733   0.99    1.7
2018/05/21 04:50:58.000   35.676431765  139.482614619    96.7071   2   9   0.0655   0.1127   0.2264  -0.0062  -0.1071  -0.0724   0.99    1.7
2018/05/21 04:50:59.000   35.676431804  139.482614321    96.7925   2   9   0.0650   0.1118   0.2243  -0.0079  -0.1059  -0.0716   0.99    1.7
2018/05/21 04:51:00.000   35.676431867  139.482614082    96.8566   2   9   0.0645   0.1110   0.2223  -0.0093  -0.1048  -0.0707   0.99    1.7
2018/05/21 04:51:01.000   35.676431954  139.482613850    96.9152   2   9   0.0641   0.1102   0.2203  -0.0104  -0.1036  -0.0699   0.99    1.7
2018/05/21 04:51:02.000   35.676432038  139.482613656    96.9665   2   9   0.0637   0.1094   0.2183  -0.0113  -0.1025  -0.0691   0.99    1.7
2018/05/21 04:51:03.000   35.676432074  139.482613390    97.0285   2   9   0.0632   0.1086   0.2163  -0.0123  -0.1014  -0.0683   0.99    1.6
2018/05/21 04:51:04.000   35.676432206  139.482613192    97.0819   2   9   0.0628   0.1078   0.2144  -0.0131  -0.1003  -0.0675   0.99    1.6
2018/05/21 04:51:05.000   35.676432250  139.482612975    97.1333   2   9   0.0623   0.1070   0.2125  -0.0138  -0.0992  -0.0668   0.99    1.6
2018/05/21 04:51:06.000   35.676432321  139.482612746    97.1913   2   9   0.0619   0.1063   0.2106  -0.0145  -0.0981  -0.0660   0.99    1.6
2018/05/21 04:51:07.000   35.676432373  139.482612462    97.2338   2   9   0.0615   0.1055   0.2088  -0.0151  -0.0970  -0.0652   0.99    1.6
2018/05/21 04:51:08.000   35.676432387  139.482612235    97.2795   2   9   0.0611   0.1048   0.2070  -0.0157  -0.0960  -0.0645   0.99    1.5
2018/05/21 04:51:09.000   35.676432475  139.482611880    97.3145   2   9   0.0607   0.1041   0.2052  -0.0163  -0.0949  -0.0637   0.99    1.5
2018/05/21 04:51:10.000   35.676432603  139.482611604    97.3391   2   9   0.0603   0.1033   0.2034  -0.0168  -0.0939  -0.0630   0.99    1.5
2018/05/21 04:51:11.000   35.676432725  139.482611291    97.3588   2   9   0.0599   0.1026   0.2016  -0.0173  -0.0929  -0.0623   0.99    1.5
2018/05/21 04:51:12.000   35.676432793  139.482610995    97.3672   2   9   0.0595   0.1019   0.1999  -0.0178  -0.0919  -0.0616   0.99    1.4
2018/05/21 04:51:13.000   35.676432924  139.482610852    97.3765   2   9   0.0591   0.1013   0.1982  -0.0182  -0.0909  -0.0609   0.99    1.4
2018/05/21 04:51:14.000   35.676432994  139.482610598    97.4072   2   9   0.0588   0.1006   0.1965  -0.0186  -0.0899  -0.0602   0.99    1.4
2018/05/21 04:51:15.000   35.676433027  139.482610508    97.4216   2   9   0.0584   0.0999   0.1948  -0.0190  -0.0889  -0.0595   0.99    1.4
2018/05/21 04:51:16.000   35.676433030  139.482610400    97.4430   2   9   0.0580   0.0992   0.1932  -0.0194  -0.0879  -0.0588   0.99    1.3
2018/05/21 04:51:17.000   35.676433034  139.482610310    97.4656   2   9   0.0577   0.0986   0.1916  -0.0198  -0.0870  -0.0581   0.99    1.3
2018/05/21 04:51:18.000   35.676433100  139.482610188    97.4732   2   9   0.0573   0.0980   0.1900  -0.0201  -0.0861  -0.0575   0.99    1.3
2018/05/21 04:51:19.000   35.676433171  139.482610111    97.4760   2   9   0.0570   0.0973   0.1884  -0.0204  -0.0851  -0.0568   0.99    1.3
2018/05/21 04:51:20.000   35.676433231  139.482610036    97.4585   2   9   0.0567   0.0967   0.1868  -0.0207  -0.0842  -0.0562   0.99    1.3
2018/05/21 04:51:21.000   35.676433331  139.482610027    97.4129   2   9   0.0563   0.0961   0.1853  -0.0211  -0.0833  -0.0556   0.99    1.2
2018/05/21 04:51:22.000   35.676433458  139.482609981    97.3353   2   9   0.0560   0.0955   0.1838  -0.0214  -0.0824  -0.0549   0.99    1.2
2018/05/21 04:51:23.000   35.676433616  139.482609872    97.2599   2   9   0.0556   0.0949   0.1823  -0.0216  -0.0815  -0.0543   0.99    1.2
2018/05/21 04:51:24.000   35.676433743  139.482609713    97.2216   2   9   0.0553   0.0943   0.1808  -0.0219  -0.0806  -0.0537   0.99    1.2
2018/05/21 04:51:25.000   35.676433942  139.482609622    97.1608   2   8   0.0550   0.0938   0.1800  -0.0222  -0.0801  -0.0529   0.99    1.2
2018/05/21 04:51:26.000   35.676434099  139.482609611    97.0846   2   9   0.0547   0.0932   0.1781  -0.0223  -0.0790  -0.0525   0.99    1.2
2018/05/21 04:51:27.000   35.676434193  139.482609613    97.0151   2   9   0.0544   0.0926   0.1766  -0.0226  -0.0782  -0.0519   0.99    1.1
2018/05/21 04:51:28.000   35.676434163  139.482609630    96.9586   2   8   0.0546   0.0921   0.1754  -0.0230  -0.0774  -0.0517   0.99    1.0
2018/05/21 04:51:29.000   35.676434276  139.482609623    96.8684   2   9   0.0539   0.0916   0.1744  -0.0230  -0.0768  -0.0508   0.99    1.1
2018/05/21 04:51:30.000   35.676434287  139.482609714    96.7944   2   9   0.0536   0.0910   0.1730  -0.0232  -0.0760  -0.0503   0.99    1.1
2018/05/21 04:51:31.000   35.676434363  139.482609676    96.7153   2   9   0.0533   0.0905   0.1716  -0.0235  -0.0752  -0.0497   0.99    1.1
2018/05/21 04:51:32.000   35.676434423  139.482609619    96.6713   2   8   0.0530   0.0900   0.1704  -0.0237  -0.0744  -0.0490   0.99    1.3
2018/05/21 04:51:33.000   35.676434452  139.482609684    96.6225   2   9   0.0528   0.0894   0.1690  -0.0239  -0.0736  -0.0485   0.99    1.0
2018/05/21 04:51:34.000   35.676434433  139.482609993    96.5387   2   9   0.0525   0.0889   0.1675  -0.0241  -0.0727  -0.0481   0.99    1.1
2018/05/21 04:51:35.000   35.676434478  139.482610067    96.4787   2   6   0.0576   0.0894   0.1723  -0.0300  -0.0759  -0.0355   0.99    1.2
2018/05/21 04:51:36.000   35.676434554  139.482610094    96.4749   2   6   0.0575   0.0890   0.1717  -0.0302  -0.0755  -0.0348   0.99    1.1
2018/05/21 04:51:37.000   35.676434635  139.482610213    96.4307   2   7   0.0521   0.0877   0.1667  -0.0249  -0.0719  -0.0457   0.99    1.0
2018/05/21 04:51:38.000   35.676434578  139.482610273    96.3953   2   7   0.0524   0.0873   0.1650  -0.0254  -0.0710  -0.0456   0.99    1.0
2018/05/21 04:51:39.000   35.676434635  139.482610350    96.3681   2   7   0.0522   0.0871   0.1642  -0.0257  -0.0695  -0.0464   0.99    1.0
2018/05/21 04:51:40.000   35.676434609  139.482610315    96.3433   2   8   0.0519   0.0865   0.1634  -0.0252  -0.0700  -0.0458   0.99    1.1
2018/05/21 04:51:41.000   35.676434640  139.482610205    96.2826   2   8   0.0518   0.0861   0.1627  -0.0254  -0.0695  -0.0454   0.99    1.1
2018/05/21 04:51:42.000   35.676434606  139.482610112    96.2401   2   8   0.0516   0.0857   0.1620  -0.0256  -0.0691  -0.0450   0.99    1.1
2018/05/21 04:51:43.000   35.676434688  139.482610110    96.1887   2   8   0.0514   0.0852   0.1612  -0.0257  -0.0686  -0.0446   0.99    1.1
2018/05/21 04:51:44.000   35.676434866  139.482610043    96.1198   2   8   0.0512   0.0848   0.1605  -0.0259  -0.0682  -0.0441   0.99    1.1
2018/05/21 04:51:45.000   35.676434937  139.482609933    96.0731   2   7   0.0513   0.0845   0.1606  -0.0264  -0.0682  -0.0429   0.99    1.0
2018/05/21 04:51:46.000   35.676428021  139.482546658    90.0877   5   9  30.0000  30.0000  30.0000   0.0000   0.0000   0.0000   0.99    0.0
2018/05/21 04:51:47.000   35.676439246  139.482623734    86.1526   2   8   0.6975   1.1604   2.5374   0.3280  -1.3103  -0.8803   0.99    0.0
2018/05/21 04:51:48.000   35.676440513  139.482617050    89.3309   2   9   0.4955   0.8059   1.6392   0.2341  -0.8593  -0.6289   0.99    0.0
2018/05/21 04:51:49.000   35.676440723  139.482618844    88.7178   2   8   0.4044   0.6621   1.3766   0.1910  -0.7183  -0.5125   0.99    1.2
2018/05/21 04:51:50.000   35.676434494  139.482623602    88.4019   2   8   0.6974   1.1600   2.5380   0.3279  -1.3101  -0.8803   0.99    0.0
2018/05/21 04:51:51.000   35.676434075  139.482623522    88.8679   2   8   0.4954   0.8229   1.8012   0.2317  -0.9291  -0.6252   0.99    0.0
2018/05/21 04:51:52.000   35.676433654  139.482622885    90.1721   2   8   0.6974   1.1598   2.5384   0.3278  -1.3099  -0.8803   0.99    0.0
2018/05/21 04:51:53.000   35.676449021  139.482603805    93.0071   2   8   0.6208   1.1635   2.3218  -0.4282  -1.2435   0.3081   0.99    0.0
2018/05/21 04:51:54.000   35.676449711  139.482612281    90.0056   2   8   0.4924   0.8332   1.7100  -0.2602  -0.9107  -0.2318   0.99    0.0
2018/05/21 04:51:55.000   35.676452139  139.482611548    89.6614   1   8   0.3697   0.1483   0.4777  -0.2337  -0.2658   0.4196   0.99    4.1
2018/05/21 04:51:56.000   35.676452064  139.482608513    90.9908   1   6   0.3661   0.1471   0.4739  -0.2316  -0.2637   0.4159   0.99   31.7
2018/05/21 04:51:57.000   35.676463297  139.482599405    85.3154   2   6   1.1483   0.7016   2.9390  -0.7162   0.3187  -1.0680   0.99    1.6
2018/05/21 04:51:58.000   35.676468570  139.482601206    93.8737   2   9   0.4957   0.5129   1.1235  -0.2668  -0.5952   0.2705   0.99    2.0
2018/05/21 04:51:59.000   35.676468467  139.482604121    94.2363   1   8   0.0437   0.0376   0.1291   0.0315  -0.0614  -0.0730   0.99    4.0
2018/05/21 04:52:00.000   35.676463740  139.482606438    93.4641   2  10   0.3563   0.4282   0.8881  -0.1567  -0.4678  -0.2246   0.99    1.8
2018/05/21 04:52:01.000   35.676461912  139.482606265    93.2778   2  10   0.3172   0.3994   0.8149  -0.1262  -0.4297  -0.2448   0.99    1.0
2018/05/21 04:52:02.000   35.676460465  139.482606074    93.0229   2   8   0.2966   0.3786   0.7780  -0.1138  -0.4101  -0.2321   0.99    1.3
2018/05/21 04:52:03.000   35.676459577  139.482606037    93.2657   2   7   0.2819   0.3613   0.7493  -0.1069  -0.3947  -0.2150   0.99    1.0
2018/05/21 04:52:04.000   35.676458219  139.482607042    93.5113   2   7   0.2693   0.3463   0.7237  -0.1011  -0.3808  -0.2008   0.99    1.6
2018/05/21 04:52:05.000   35.676456478  139.482608355    93.6201   2   7   0.2583   0.3330   0.7006  -0.0962  -0.3683  -0.1884   0.99    1.5
2018/05/21 04:52:06.000   35.676455490  139.482612224    93.6046   1   6   0.0095   0.0134   0.0301  -0.0025  -0.0161  -0.0043   0.99    3.0
2018/05/21 04:52:07.000   35.676452556  139.482615268    93.4415   2   6   0.2385   0.3129   0.6671  -0.0850  -0.3492  -0.1718   0.99    1.1
2018/05/21 04:52:08.000   35.676450283  139.482619054    93.3756   2   6   0.2296   0.3040   0.6539  -0.0800  -0.3403  -0.1654   0.99    1.4
2018/05/21 04:52:09.000   35.676448848  139.482623140    93.2736   2   5   0.2229   0.2961   0.6425  -0.0767  -0.3327  -0.1576   0.99    1.6
2018/05/21 04:52:10.000   35.676447583  139.482627256    93.1780   2   5   0.2167   0.2887   0.6315  -0.0737  -0.3254  -0.1508   0.99    2.4
2018/05/21 04:52:11.000   35.676446492  139.482631475    93.0536   2   5   0.2110   0.2818   0.6211  -0.0710  -0.3186  -0.1446   0.99    1.7
2018/05/21 04:52:12.000   35.676447679  139.482634033    93.1494   2   6   0.2004   0.2740   0.6084  -0.0583  -0.3095  -0.1484   0.99    2.6
2018/05/21 04:52:13.000   35.676447056  139.482638207    93.0156   1   5   0.0097   0.0135   0.0371  -0.0028  -0.0166   0.0042   0.99    5.2
2018/05/21 04:52:14.000   35.676447543  139.482640150    93.0013   2   6   0.1875   0.2615   0.5878  -0.0456  -0.2959  -0.1454   0.99    1.2
2018/05/21 04:52:15.000   35.676448294  139.482642485    93.0252   2   6   0.1802   0.2554   0.5773  -0.0349  -0.2888  -0.1468   0.99    1.2
2018/05/21 04:52:16.000   35.676449360  139.482644476    93.0355   2   6   0.1737   0.2498   0.5674  -0.0233  -0.2822  -0.1476   0.99    1.6
2018/05/21 04:52:17.000   35.676447553  139.482644514    92.6306   2  10   0.1689   0.2438   0.5460  -0.0199  -0.2734  -0.1497   0.99    1.3
2018/05/21 04:52:18.000   35.676448102  139.482635333    87.7842   1   8   0.2019   1.1267   1.9719   0.4762  -1.4889  -0.6306   0.99    3.2
2018/05/21 04:52:19.000   35.676446495  139.482630143    89.9409   2   8   0.2207   0.8156   1.8348   0.3093  -0.9628  -0.5218   0.99    2.9
2018/05/21 04:52:20.000   35.676445341  139.482626523    91.4766   2   8   0.1996   0.6689   1.5014   0.2480  -0.7880  -0.4271   0.99    1.3
2018/05/21 04:52:21.000   35.676444424  139.482623651    92.6903   2   8   0.1871   0.5808   1.3013   0.2107  -0.6831  -0.3702   0.99    1.1
2018/05/21 04:52:22.000   35.676443897  139.482621417    93.6940   2   9   0.1778   0.5185   1.1526   0.1864  -0.6053  -0.3350   0.99    1.7
2018/05/21 04:52:23.000   35.676443527  139.482620933    94.3564   2   9   0.1704   0.4728   1.0460   0.1688  -0.5491  -0.3093   0.99    1.5
2018/05/21 04:52:24.000   35.676443420  139.482619662    95.0044   2   9   0.1642   0.4374   0.9647   0.1552  -0.5059  -0.2895   0.99    1.5
2018/05/21 04:52:25.000   35.676443231  139.482618722    95.5933   2   9   0.1589   0.4088   0.8999   0.1442  -0.4715  -0.2736   0.99    1.3
2018/05/21 04:52:26.000   35.676443354  139.482617238    96.0332   2   9   0.1540   0.3852   0.8468   0.1352  -0.4432  -0.2604   0.99    1.2
2018/05/21 04:52:27.000   35.676443467  139.482616543    96.3796   2   9   0.1497   0.3652   0.8022   0.1276  -0.4193  -0.2490   0.99    1.1
2018/05/21 04:52:28.000   35.676443637  139.482615799    96.5804   2   9   0.1458   0.3480   0.7639   0.1211  -0.3988  -0.2392   0.99    1.1
2018/05/21 04:52:29.000   35.676443865  139.482615096    96.7705   2   9   0.1422   0.3330   0.7306   0.1154  -0.3810  -0.2305   0.99    1.0
2018/05/21 04:52:30.000   35.676443992  139.482614536    96.9269   2   9   0.1389   0.3197   0.7013   0.1103  -0.3652  -0.2228   0.99    1.0
2018/05/21 04:52:31.000   35.676444225  139.482613915    97.0861   2   9   0.1358   0.3079   0.6751   0.1058  -0.3512  -0.2158   0.99    1.0
2018/05/21 04:52:32.000   35.676444566  139.482613428    97.1829   2   9   0.1329   0.2972   0.6516   0.1017  -0.3386  -0.2095   0.99    1.0
2018/05/21 04:52:33.000   35.676444967  139.482613050    97.2631   2   9   0.1302   0.2876   0.6303   0.0980  -0.3271  -0.2036   0.99    1.0
2018/05/21 04:52:34.000   35.676445423  139.482612147    97.3600   2   9   0.1277   0.2788   0.6109   0.0946  -0.3166  -0.1983   0.99    1.1
2018/05/21 04:52:35.000   35.676446129  139.482611791    97.2813   2   9   0.1253   0.2707   0.5931   0.0915  -0.3070  -0.1933   0.99    1.1
2018/05/21 04:52:36.000   35.676446881  139.482611037    97.2354   2   9   0.1230   0.2632   0.5766   0.0887  -0.2981  -0.1886   0.99    1.0
2018/05/21 04:52:37.000   35.676447719  139.482610115    97.1455   2   9   0.1209   0.2563   0.5613   0.0860  -0.2899  -0.1843   0.99    1.1
2018/05/21 04:52:38.000   35.676448768  139.482609240    97.0180   2   9   0.1188   0.2499   0.5471   0.0835  -0.2822  -0.1802   0.99    1.0
2018/05/21 04:52:39.000   35.676449761  139.482608417    96.8839   2   9   0.1169   0.2438   0.5338   0.0811  -0.2750  -0.1763   0.99    1.1
2018/05/21 04:52:40.000   35.676450746  139.482607546    96.7564   2   9   0.1150   0.2382   0.5213   0.0789  -0.2682  -0.1726   0.99    1.3
2018/05/21 04:52:41.000   35.676451714  139.482606989    96.5553   2   9   0.1132   0.2329   0.5096   0.0768  -0.2619  -0.1692   0.99    1.4
2018/05/21 04:52:42.000   35.676452738  139.482607097    96.2720   2   9   0.1115   0.2279   0.4985   0.0748  -0.2558  -0.1659   0.99    1.3
2018/05/21 04:52:43.000   35.676453573  139.482607094    96.0431   2   9   0.1099   0.2232   0.4880   0.0729  -0.2501  -0.1627   0.99    1.2
2018/05/21 04:52:44.000   35.676454446  139.482606947    95.8685   2   9   0.1083   0.2188   0.4780   0.0711  -0.2447  -0.1597   0.99    1.1
2018/05/21 04:52:45.000   35.676455269  139.482606548    95.7248   2   9   0.1068   0.2145   0.4685   0.0693  -0.2395  -0.1568   0.99    1.1
2018/05/21 04:52:46.000   35.676456028  139.482606184    95.5988   2   9   0.1053   0.2105   0.4595   0.0677  -0.2346  -0.1540   0.99    1.0
2018/05/21 04:52:47.000   35.676456839  139.482606207    95.3953   2   9   0.1039   0.2066   0.4509   0.0661  -0.2299  -0.1513   0.99    1.1
2018/05/21 04:52:48.000   35.676457515  139.482605886    95.2504   2   9   0.1026   0.2030   0.4426   0.0645  -0.2253  -0.1488   0.99    1.1
2018/05/21 04:52:49.000   35.676458086  139.482605439    95.1400   2   9   0.1012   0.1994   0.4347   0.0630  -0.2210  -0.1463   0.99    1.2
2018/05/21 04:52:50.000   35.676458716  139.482605244    95.0023   2   9   0.1000   0.1961   0.4271   0.0616  -0.2168  -0.1439   0.99    1.2
2018/05/21 04:52:50.999   35.676459023  139.482605311    94.8218   2   8   0.0993   0.1930   0.4204   0.0601  -0.2132  -0.1417   0.99    1.6
2018/05/21 04:52:51.999   35.676459348  139.482605370    94.6539   2   8   0.0985   0.1901   0.4142   0.0585  -0.2099  -0.1393   0.99    1.5
2018/05/21 04:52:53.000   35.676459656  139.482605633    94.4545   2   8   0.0976   0.1873   0.4083   0.0570  -0.2067  -0.1370   0.99    1.4
2018/05/21 04:52:54.000   35.676459955  139.482605858    94.2719   2   8   0.0968   0.1847   0.4026   0.0556  -0.2036  -0.1348   0.99    1.3
2018/05/21 04:52:55.000   35.676460277  139.482606046    94.0976   2   8   0.0960   0.1821   0.3970   0.0541  -0.2006  -0.1326   0.99    1.2
2018/05/21 04:52:56.000   35.676460440  139.482606230    93.9777   2   8   0.0952   0.1796   0.3917   0.0528  -0.1977  -0.1306   0.99    1.1
2018/05/21 04:52:57.000   35.676460679  139.482606480    93.8150   2   8   0.0945   0.1772   0.3865   0.0514  -0.1949  -0.1286   0.99    1.0
2018/05/21 04:52:58.000   35.676460903  139.482606669    93.6981   2   8   0.0937   0.1749   0.3814   0.0501  -0.1921  -0.1266   0.99    1.0
2018/05/21 04:52:59.000   35.676461115  139.482607064    93.5640   2   8   0.0930   0.1726   0.3766   0.0488  -0.1895  -0.1247   0.99    1.1
2018/05/21 04:53:00.000   35.676461289  139.482607456    93.4351   2   8   0.0923   0.1704   0.3718   0.0475  -0.1869  -0.1229   0.99    1.0
2018/05/21 04:53:01.000   35.676461520  139.482607868    93.2826   2   8   0.0916   0.1683   0.3672   0.0463  -0.1844  -0.1211   0.99    1.0
2018/05/21 04:53:02.000   35.676461725  139.482608430    93.1215   2   8   0.0909   0.1663   0.3627   0.0451  -0.1819  -0.1194   0.99    1.1
2018/05/21 04:53:03.000   35.676461949  139.482608905    92.9630   2   8   0.0902   0.1643   0.3584   0.0439  -0.1796  -0.1177   0.99    1.2
2018/05/21 04:53:04.000   35.676462016  139.482609218    92.8544   2   8   0.0896   0.1624   0.3542   0.0427  -0.1772  -0.1160   0.99    1.4
2018/05/21 04:53:05.000   35.676462108  139.482609561    92.7654   2   8   0.0889   0.1605   0.3500   0.0416  -0.1750  -0.1144   0.99    1.5
2018/05/21 04:53:06.000   35.676462127  139.482610041    92.6875   2   8   0.0883   0.1587   0.3460   0.0404  -0.1727  -0.1129   0.99    1.6
2018/05/21 04:53:07.000   35.676462191  139.482610430    92.6294   2   8   0.0877   0.1569   0.3421   0.0393  -0.1706  -0.1113   0.99    1.8
2018/05/21 04:53:08.000   35.676462187  139.482610894    92.5654   2   8   0.0871   0.1551   0.3383   0.0382  -0.1685  -0.1098   0.99    1.9
2018/05/21 04:53:09.000   35.676462155  139.482611197    92.5485   2   8   0.0865   0.1534   0.3345   0.0371  -0.1664  -0.1084   0.99    2.1
2018/05/21 04:53:10.000   35.676462142  139.482611512    92.4942   2   8   0.0859   0.1518   0.3309   0.0360  -0.1644  -0.1070   0.99    2.2
2018/05/21 04:53:11.000   35.676462180  139.482611692    92.4734   2   8   0.0853   0.1502   0.3273   0.0349  -0.1624  -0.1056   0.99    2.4
2018/05/21 04:53:12.000   35.676462099  139.482611758    92.5103   2   8   0.0848   0.1486   0.3239   0.0339  -0.1604  -0.1042   0.99    2.5
2018/05/21 04:53:13.000   35.676462029  139.482611739    92.5404   2   8   0.0842   0.1471   0.3205   0.0328  -0.1585  -0.1029   0.99    2.6
2018/05/21 04:53:14.000   35.676461869  139.482611957    92.5845   2   8   0.0837   0.1456   0.3171   0.0318  -0.1567  -0.1016   0.99    2.7
2018/05/21 04:53:15.000   35.676461739  139.482611957    92.6630   2   8   0.0831   0.1441   0.3139   0.0307  -0.1548  -0.1003   0.99    2.8
2018/05/21 04:53:16.000   35.676461604  139.482612166    92.7109   2   8   0.0826   0.1427   0.3107   0.0297  -0.1530  -0.0990   0.99    2.9
2018/05/21 04:53:17.000   35.676461437  139.482612302    92.7721   2   8   0.0821   0.1413   0.3076   0.0286  -0.1513  -0.0978   0.99    3.0
2018/05/21 04:53:18.000   35.676463481  139.482610378    92.0445   1   8   0.0086   0.0122   0.0268  -0.0016  -0.0140  -0.0078   0.99    3.0
2018/05/21 04:53:19.000   35.676463439  139.482610442    92.0353   1   8   0.0086   0.0122   0.0268  -0.0015  -0.0140  -0.0078   0.99    3.1
2018/05/21 04:53:20.000   35.676463472  139.482610394    92.0366   1   8   0.0086   0.0122   0.0269  -0.0018  -0.0140  -0.0077   0.99    3.2
2018/05/21 04:53:21.000   35.676463490  139.482610415    92.0358   1   8   0.0087   0.0122   0.0268  -0.0016  -0.0140  -0.0078   0.99    3.3
2018/05/21 04:53:22.000   35.676463478  139.482610398    92.0465   1   8   0.0086   0.0122   0.0268  -0.0015  -0.0140  -0.0078   0.99    3.3
2018/05/21 04:53:23.000   35.676460699  139.482612568    93.0794   2   9   0.0789   0.1335   0.2900   0.0227  -0.1412  -0.0911   0.99    1.7
2018/05/21 04:53:24.000   35.676460460  139.482612538    93.1436   2   9   0.0782   0.1322   0.2871   0.0223  -0.1395  -0.0904   0.99    1.8
2018/05/21 04:53:25.000   35.676460243  139.482612544    93.1797   2   9   0.0775   0.1309   0.2843   0.0217  -0.1379  -0.0896   0.99    1.4
2018/05/21 04:53:26.000   35.676460017  139.482612349    93.2699   2   9   0.0768   0.1297   0.2816   0.0211  -0.1363  -0.0887   0.99    1.2
2018/05/21 04:53:27.000   35.676459907  139.482612247    93.3233   2   9   0.0762   0.1285   0.2789   0.0205  -0.1347  -0.0879   0.99    1.1
2018/05/21 04:53:28.000   35.676459765  139.482611872    93.4239   2   9   0.0755   0.1274   0.2763   0.0198  -0.1332  -0.0871   0.99    1.0
2018/05/21 04:53:29.000   35.676459708  139.482611426    93.5247   2   9   0.0749   0.1262   0.2737   0.0192  -0.1316  -0.0863   0.99    1.0
2018/05/21 04:53:30.000   35.676459651  139.482610882    93.6390   2   9   0.0743   0.1251   0.2712   0.0185  -0.1301  -0.0855   0.99    1.1
2018/05/21 04:53:31.000   35.676459535  139.482610348    93.7918   2   9   0.0737   0.1240   0.2687   0.0179  -0.1286  -0.0848   0.99    1.1
2018/05/21 04:53:32.000   35.676459400  139.482609791    93.9430   2   9   0.0731   0.1229   0.2662   0.0172  -0.1272  -0.0840   0.99    1.1
2018/05/21 04:53:33.000   35.676459197  139.482609227    94.1195   2   9   0.0725   0.1219   0.2638   0.0165  -0.1257  -0.0832   0.99    1.1
2018/05/21 04:53:34.000   35.676459035  139.482608698    94.2799   2   9   0.0720   0.1208   0.2614   0.0158  -0.1243  -0.0824   0.99    1.1
2018/05/21 04:53:35.000   35.676458870  139.482608187    94.4697   2   9   0.0714   0.1198   0.2591   0.0150  -0.1229  -0.0817   0.99    1.0
2018/05/21 04:53:36.000   35.676458763  139.482607610    94.6621   2   9   0.0709   0.1188   0.2568   0.0143  -0.1216  -0.0809   0.99    1.0
2018/05/21 04:53:37.000   35.676458534  139.482607179    94.8432   2   9   0.0703   0.1178   0.2545   0.0135  -0.1202  -0.0802   0.99    1.0
2018/05/21 04:53:38.000   35.676458480  139.482606602    95.0097   2   9   0.0698   0.1168   0.2523   0.0126  -0.1189  -0.0795   0.99    1.0
2018/05/21 04:53:39.000   35.676458337  139.482606264    95.1186   2   8   0.0697   0.1159   0.2501   0.0107  -0.1176  -0.0786   0.99    1.5
2018/05/21 04:53:40.000   35.676459787  139.482609108    95.4488   2   8   0.0691   0.1151   0.2500   0.0111  -0.1167  -0.0787   0.99    1.8
2018/05/21 04:53:41.000   35.676459590  139.482609469    95.6105   2   9   0.0685   0.1143   0.2466   0.0105  -0.1154  -0.0776   0.99    1.0
2018/05/21 04:53:42.000   35.676431505  139.482565064   101.9416   2   6   3.0776   9.0492   4.5792   5.1746  -5.7667  -3.4309   0.99    0.0
2018/05/21 04:53:43.000   35.676463035  139.482596919    91.2934   2   7   1.0111   1.2812   4.1838  -0.6030   1.2652  -1.9146   0.99    0.0
2018/05/21 04:53:44.000   35.676451838  139.482605189    95.7104   2   6   0.4637   0.8131   1.8118   0.2133  -0.5963  -0.6571   0.99    0.0
2018/05/21 04:53:45.000   35.676455843  139.482601745    96.2197   2  10   0.3793   0.6493   1.3607   0.1876  -0.5808  -0.5224   0.99    1.1
2018/05/21 04:53:46.000   35.676465003  139.482604701    95.1415   2   9   0.3295   0.5607   1.1978   0.1676  -0.5394  -0.4543   0.99    1.0
2018/05/21 04:53:47.000   35.676475565  139.482607316    94.0468   2   9   0.3014   0.5016   1.0798   0.1395  -0.5062  -0.4085   0.99    1.3
2018/05/21 04:53:48.000   35.676485724  139.482606099    93.7723   2   8   0.2822   0.4595   0.9926   0.1166  -0.4766  -0.3720   0.99    1.4
2018/05/21 04:53:49.000   35.676495883  139.482606146    93.5331   2   8   0.2680   0.4284   0.9391   0.0974  -0.4444  -0.3603   0.99    2.1
2018/05/21 04:53:50.000   35.676506748  139.482606212    93.2490   2   8   0.2546   0.4016   0.8967   0.0844  -0.4162  -0.3484   0.99    1.5
2018/05/21 04:53:51.000   35.676518758  139.482606902    92.8339   2   7   0.2447   0.3804   0.8600   0.0725  -0.3905  -0.3370   0.99    1.1
2018/05/21 04:53:52.000   35.676541448  139.482597961    92.5001   2   5   1.1330   0.5220   0.9415  -0.6462   0.1641  -0.7567   0.99    1.0
2018/05/21 04:53:53.000   35.676537793  139.482607052    92.5636   1   8   0.0307   0.0149   0.0647  -0.0160   0.0178  -0.0421   0.99   17.8
2018/05/21 04:53:54.000   35.676557888  139.482591891    87.9086   2   9   1.3726   0.9867   4.3301   0.4364  -1.1764  -2.3043   0.99    0.0
2018/05/21 04:53:55.000   35.676554919  139.482588752    89.1476   2   9   0.8483   0.6952   2.5618   0.2323  -0.7239  -1.3547   0.99    1.3
2018/05/21 04:53:56.000   35.676543974  139.482598533    93.5586   2   9   0.5776   0.5912   1.8010   0.2044  -0.6500  -0.8977   0.99    0.0
2018/05/21 04:53:57.000   35.676549513  139.482596766    92.1194   2   6   1.9237   1.1103   5.4569  -0.8356  -0.4694  -3.0952   0.99    0.0
2018/05/21 04:53:58.000   35.676553133  139.482603858   103.6122   2   5   1.7668   0.8701   6.5505  -0.8142   1.4457  -3.0256   0.99    3.0
2018/05/21 04:53:59.000   35.676552475  139.482604407    90.2585   2  10   0.6315   0.5550   2.0983   0.0744  -0.6932  -1.0361   0.99    1.1
2018/05/21 04:54:00.000   35.676548436  139.482607596    91.5072   2   8   0.4858   0.4777   1.6768   0.1371  -0.6087  -0.7955   0.99    1.7
2018/05/21 04:54:01.000   35.676540043  139.482617631    94.0036   2   8   0.7934   0.9885   2.8589   0.4678  -1.1840  -1.2406   1.00    0.0
2018/05/21 04:54:02.000   35.676550837  139.482608908    91.9520   2  11   0.4925   0.6996   1.8587   0.3228  -0.8433  -0.7708   0.99  171.4
2018/05/21 04:54:03.000   35.676562714  139.482602564    92.0513   2  10   0.4185   0.5715   1.5302   0.2657  -0.6935  -0.6541   0.99    1.3
2018/05/21 04:54:04.000   35.676573945  139.482592546    92.2480   1  10   0.0386   0.0292   0.1152   0.0319  -0.0559  -0.0659   0.99    4.0
2018/05/21 04:54:05.000   35.676586622  139.482588013    92.5614   2  11   0.3216   0.4604   1.1952   0.2183  -0.5731  -0.5090   0.99    1.1
2018/05/21 04:54:06.000   35.676598203  139.482575735    93.0909   1  11   0.0093   0.0162   0.0425   0.0095  -0.0234  -0.0173   0.99    4.6
2018/05/21 04:54:07.000   35.676606767  139.482568359    93.1381   2  12   0.2599   0.3831   0.9620   0.1775  -0.4667  -0.4062   0.99    1.5
2018/05/21 04:54:08.000   35.676616665  139.482558497    93.7324   2  11   0.2399   0.3603   0.8852   0.1652  -0.4359  -0.3731   0.99    1.8
2018/05/21 04:54:09.000   35.676627456  139.482555340    93.2880   2  11   0.2239   0.3412   0.8245   0.1551  -0.4106  -0.3470   0.99    1.7
2018/05/21 04:54:10.000   35.676638451  139.482549551    93.6404   2   7   0.2143   0.3335   0.7881   0.1559  -0.3957  -0.3299   0.99    2.4
2018/05/21 04:54:11.000   35.676649970  139.482549786    93.2725   2   7   0.2047   0.3191   0.7553   0.1453  -0.3795  -0.3122   0.99    1.9
2018/05/21 04:54:12.000   35.676663201  139.482552207    92.8516   2   7   0.1955   0.3039   0.7249   0.1336  -0.3619  -0.2946   0.99    1.0
2018/05/21 04:54:13.000   35.676675096  139.482554391    92.5871   2   8   0.1880   0.2936   0.6984   0.1261  -0.3489  -0.2808   0.99    1.2
2018/05/21 04:54:14.000   35.676686421  139.482559133    92.6916   2   6   0.1852   0.2851   0.6779   0.1162  -0.3390  -0.2647   0.99    1.9
2018/05/21 04:54:15.000   35.676697009  139.482566367    92.7247   1   6   0.0249   0.0179   0.0521  -0.0176  -0.0279   0.0312   0.99    3.9
2018/05/21 04:54:16.000   35.676707252  139.482573309    92.7902   1   6   0.0249   0.0179   0.0521  -0.0176  -0.0279   0.0312   0.99    5.4
2018/05/21 04:54:17.000   35.676717790  139.482581522    92.4006   2   8   0.1735   0.2618   0.6196   0.0989  -0.3092  -0.2331   0.99    1.6
2018/05/21 04:54:18.000   35.676727100  139.482587353    92.7934   1   6   0.0249   0.0179   0.0521  -0.0176  -0.0279   0.0312   0.99    4.1
2018/05/21 04:54:19.000   35.676736856  139.482594164    92.8606   1   7   0.0249   0.0179   0.0521  -0.0176  -0.0279   0.0312   0.99    3.1
2018/05/21 04:54:20.000   35.676747578  139.482605272    92.0045   2   6   0.1648   0.2438   0.5764   0.0849  -0.2871  -0.2076   0.99    2.5
2018/05/21 04:54:21.000   35.676757107  139.482612596    91.9496   2   6   0.1625   0.2386   0.5642   0.0806  -0.2808  -0.1999   0.99    2.0
2018/05/21 04:54:22.000   35.676767035  139.482620753    92.0405   2   7   0.1595   0.2319   0.5514   0.0798  -0.2730  -0.1945   0.99    1.2
2018/05/21 04:54:23.000   35.676775966  139.482628781    92.0700   2   9   0.1554   0.2256   0.5379   0.0796  -0.2653  -0.1914   0.99    1.3
2018/05/21 04:54:24.000   35.676784669  139.482637229    92.1474   2   9   0.1520   0.2200   0.5257   0.0788  -0.2586  -0.1877   0.99    1.0
2018/05/21 04:54:25.000   35.676792902  139.482646340    92.1583   2   9   0.1489   0.2147   0.5144   0.0778  -0.2524  -0.1840   0.99    1.1
2018/05/21 04:54:26.000   35.676800378  139.482655942    92.2014   2  10   0.1455   0.2098   0.5034   0.0764  -0.2468  -0.1812   0.99    1.3
2018/05/21 04:54:27.000   35.676808764  139.482665502    92.2780   2  10   0.1423   0.2051   0.4931   0.0751  -0.2415  -0.1784   0.99    1.4
2018/05/21 04:54:28.000   35.676817023  139.482674904    92.3609   2  10   0.1394   0.2008   0.4833   0.0738  -0.2365  -0.1757   0.99    1.4
2018/05/21 04:54:29.000   35.676825534  139.482683383    92.4899   2  10   0.1366   0.1967   0.4741   0.0726  -0.2319  -0.1731   0.99    1.2
2018/05/21 04:54:30.000   35.676834538  139.482691844    92.6394   2  10   0.1340   0.1929   0.4654   0.0713  -0.2274  -0.1705   0.99    1.1
2018/05/21 04:54:31.000   35.676843289  139.482701310    92.7411   2  10   0.1315   0.1892   0.4572   0.0702  -0.2232  -0.1680   0.99    1.0
2018/05/21 04:54:32.000   35.676851586  139.482709918    92.8698   2  11   0.1285   0.1857   0.4492   0.0695  -0.2191  -0.1658   0.99    1.0
2018/05/21 04:54:33.000   35.676859916  139.482717236    93.0620   2  11   0.1256   0.1824   0.4417   0.0688  -0.2152  -0.1636   0.99    1.0
2018/05/21 04:54:34.000   35.676867758  139.482722862    93.2872   2  11   0.1230   0.1792   0.4345   0.0680  -0.2114  -0.1615   0.99    1.0
2018/05/21 04:54:35.000   35.676875572  139.482729551    93.4016   2   8   0.1213   0.1762   0.4282   0.0670  -0.2079  -0.1589   0.99    1.2
2018/05/21 04:54:36.000   35.676883863  139.482734997    93.4580   2   8   0.1197   0.1734   0.4221   0.0659  -0.2045  -0.1564   0.99    1.4
2018/05/21 04:54:37.000   35.676891118  139.482740404    93.7190   2   9   0.1175   0.1706   0.4161   0.0653  -0.2012  -0.1542   0.99    1.8
2018/05/21 04:54:38.000   35.676896346  139.482747775    93.8256   2   8   0.1160   0.1681   0.4104   0.0643  -0.1981  -0.1519   0.99    1.6
2018/05/21 04:54:39.000   35.676901872  139.482756648    93.9702   2   7   0.1149   0.1656   0.4052   0.0636  -0.1950  -0.1493   0.99    2.5
2018/05/21 04:54:40.000   35.676906289  139.482764986    94.0415   2   7   0.1137   0.1632   0.4001   0.0628  -0.1920  -0.1468   0.99    2.5
2018/05/21 04:54:41.000   35.676908131  139.482769607    94.2056   2   8   0.1124   0.1610   0.3951   0.0620  -0.1891  -0.1446   0.99    1.6
2018/05/21 04:54:42.000   35.676908723  139.482768788    94.3142   2   9   0.1105   0.1587   0.3902   0.0614  -0.1863  -0.1427   0.99    1.3
2018/05/21 04:54:43.000   35.676908744  139.482768398    94.3707   2   8   0.1089   0.1566   0.3855   0.0609  -0.1836  -0.1407   0.99    1.4
2018/05/21 04:54:44.000   35.676908651  139.482767915    94.4424   2   8   0.1073   0.1545   0.3810   0.0603  -0.1809  -0.1388   0.99    1.3
2018/05/21 04:54:45.000   35.676908668  139.482767492    94.5004   2   8   0.1058   0.1525   0.3766   0.0598  -0.1783  -0.1369   0.99    1.2
2018/05/21 04:54:46.000   35.676908660  139.482767125    94.5340   2   8   0.1044   0.1506   0.3723   0.0592  -0.1759  -0.1351   0.99    1.2
2018/05/21 04:54:47.000   35.676908589  139.482766796    94.6061   2   8   0.1030   0.1487   0.3682   0.0586  -0.1734  -0.1333   0.99    1.1
2018/05/21 04:54:48.000   35.676908579  139.482766754    94.6282   2   9   0.1017   0.1449   0.3625   0.0576  -0.1686  -0.1313   0.99    1.2
2018/05/21 04:54:49.000   35.676908672  139.482766797    94.6145   2   9   0.1004   0.1412   0.3571   0.0565  -0.1640  -0.1293   0.99    1.4
2018/05/21 04:54:50.000   35.676908922  139.482766874    94.5485   2   9   0.0991   0.1378   0.3521   0.0555  -0.1599  -0.1274   0.99    1.5
2018/05/21 04:54:51.000   35.676909130  139.482766625    94.5017   2   8   0.0985   0.1348   0.3473   0.0550  -0.1560  -0.1256   0.99    1.4
2018/05/21 04:54:52.000   35.676909139  139.482766854    94.4751   2   9   0.0971   0.1319   0.3427   0.0539  -0.1523  -0.1238   0.99    1.4
2018/05/21 04:54:53.000   35.676909170  139.482766520    94.5052   2   9   0.0959   0.1291   0.3383   0.0531  -0.1488  -0.1221   0.99    1.3
2018/05/21 04:54:54.000   35.676909161  139.482766521    94.4852   2   9   0.0947   0.1265   0.3341   0.0522  -0.1455  -0.1204   0.99    1.2
2018/05/21 04:54:55.000   35.676909082  139.482766595    94.4426   2   9   0.0937   0.1241   0.3301   0.0514  -0.1424  -0.1188   0.99    1.2
2018/05/21 04:54:56.000   35.676909025  139.482766845    94.4006   2   9   0.0926   0.1218   0.3262   0.0506  -0.1395  -0.1172   0.99    1.1
2018/05/21 04:54:57.000   35.676908920  139.482766899    94.3377   2   9   0.0915   0.1196   0.3225   0.0499  -0.1367  -0.1157   0.99    1.1
2018/05/21 04:54:58.000   35.676908834  139.482767047    94.2659   2   9   0.0905   0.1176   0.3189   0.0491  -0.1340  -0.1142   0.99    1.0
2018/05/21 04:54:59.000   35.676908834  139.482767149    94.1989   2   9   0.0896   0.1156   0.3154   0.0484  -0.1315  -0.1128   0.99    1.0
2018/05/21 04:55:00.000   35.676908694  139.482767189    94.1660   2   9   0.0886   0.1137   0.3120   0.0477  -0.1290  -0.1113   0.99    1.1
2018/05/21 04:55:01.000   35.676908619  139.482767311    94.1410   2   9   0.0877   0.1119   0.3087   0.0470  -0.1267  -0.1100   0.99    1.1
2018/05/21 04:55:02.000   35.676908576  139.482767483    94.1081   2   9   0.0868   0.1102   0.3055   0.0464  -0.1244  -0.1086   0.99    1.1
2018/05/21 04:55:03.000   35.676908480  139.482767667    94.1054   2   9   0.0859   0.1085   0.3025   0.0457  -0.1222  -0.1073   0.99    1.0
2018/05/21 04:55:04.000   35.676908278  139.482767764    94.1005   2   9   0.0850   0.1069   0.2995   0.0451  -0.1201  -0.1060   0.99    1.0
2018/05/21 04:55:05.000   35.676908104  139.482767737    94.1031   2   9   0.0842   0.1054   0.2965   0.0445  -0.1181  -0.1048   0.99    1.0
2018/05/21 04:55:06.000   35.676907939  139.482767544    94.1099   2   9   0.0833   0.1039   0.2937   0.0439  -0.1162  -0.1035   0.99    1.0
2018/05/21 04:55:07.000   35.676907798  139.482767510    94.1101   2   9   0.0825   0.1025   0.2909   0.0433  -0.1143  -0.1023   0.99    1.0
2018/05/21 04:55:08.000   35.676907788  139.482767482    94.1030   2   9   0.0817   0.1012   0.2882   0.0427  -0.1125  -0.1011   0.99    1.0
2018/05/21 04:55:09.000   35.676907797  139.482767464    94.1411   2  10   0.0809   0.0999   0.2856   0.0421  -0.1107  -0.1000   0.99    1.2
2018/05/21 04:55:10.000   35.676907796  139.482767509    94.1643   2  10   0.0801   0.0986   0.2829   0.0415  -0.1091  -0.0990   0.99    1.3
2018/05/21 04:55:11.000   35.676907775  139.482767390    94.1918   2  10   0.0793   0.0974   0.2804   0.0409  -0.1074  -0.0980   0.99    1.4
2018/05/21 04:55:12.000   35.676907774  139.482767390    94.2216   2  10   0.0785   0.0962   0.2778   0.0404  -0.1058  -0.0969   0.99    1.4
2018/05/21 04:55:13.000   35.676907803  139.482767401    94.2499   2  10   0.0778   0.0950   0.2754   0.0398  -0.1043  -0.0959   0.99    1.4
2018/05/21 04:55:14.000   35.676907843  139.482767626    94.2544   2  10   0.0770   0.0939   0.2730   0.0393  -0.1028  -0.0949   0.99    1.5
2018/05/21 04:55:15.000   35.676907909  139.482767935    94.2647   2   9   0.0764   0.0928   0.2707   0.0388  -0.1013  -0.0938   0.99    1.1
2018/05/21 04:55:16.000   35.676907927  139.482768069    94.2884   2   9   0.0757   0.0918   0.2685   0.0383  -0.0999  -0.0928   0.99    1.1
2018/05/21 04:55:17.000   35.676908028  139.482768269    94.3044   2   9   0.0750   0.0908   0.2662   0.0378  -0.0985  -0.0918   0.99    1.2
2018/05/21 04:55:18.000   35.676908013  139.482768301    94.3389   2   9   0.0744   0.0898   0.2641   0.0373  -0.0971  -0.0908   0.99    1.2
2018/05/21 04:55:19.000   35.676907994  139.482768371    94.3485   2  10   0.0737   0.0889   0.2618   0.0368  -0.0958  -0.0899   0.99    1.5
2018/05/21 04:55:20.000   35.676907992  139.482768491    94.3505   2  10   0.0731   0.0879   0.2597   0.0363  -0.0945  -0.0890   0.99    1.5
2018/05/21 04:55:21.000   35.676908124  139.482768829    94.3560   2  10   0.0724   0.0870   0.2576   0.0358  -0.0932  -0.0881   0.99    1.5
2018/05/21 04:55:22.000   35.676908256  139.482769188    94.3210   2  10   0.0718   0.0861   0.2555   0.0354  -0.0920  -0.0873   0.99    1.5
2018/05/21 04:55:23.000   35.676908360  139.482769383    94.2842   2  10   0.0712   0.0853   0.2535   0.0349  -0.0908  -0.0864   0.99    1.5
2018/05/21 04:55:24.000   35.676908430  139.482769576    94.2475   2  10   0.0706   0.0844   0.2515   0.0345  -0.0896  -0.0856   0.99    1.5
2018/05/21 04:55:25.000   35.676908468  139.482769933    94.1954   2  10   0.0700   0.0836   0.2495   0.0340  -0.0885  -0.0847   0.99    1.5
2018/05/21 04:55:26.000   35.676908441  139.482770306    94.1636   2  10   0.0694   0.0828   0.2476   0.0336  -0.0873  -0.0839   0.99    1.4
2018/05/21 04:55:27.000   35.676909892  139.482769169    94.0849   2  10   0.0688   0.0821   0.2457   0.0331  -0.0862  -0.0831   0.99    1.4
2018/05/21 04:55:28.000   35.676909631  139.482769096    93.9859   2  12   0.0682   0.0812   0.2436   0.0326  -0.0853  -0.0824   0.99    1.2
2018/05/21 04:55:29.000   35.676909081  139.482767799    93.9034   2  12   0.0676   0.0805   0.2415   0.0320  -0.0844  -0.0817   0.99    1.1
2018/05/21 04:55:30.000   35.676909037  139.482767703    93.8650   2  12   0.0670   0.0797   0.2394   0.0315  -0.0834  -0.0811   0.99    1.0
2018/05/21 04:55:31.000   35.676908984  139.482767745    93.8431   2  11   0.0664   0.0796   0.2377   0.0312  -0.0833  -0.0805   0.99    1.8
2018/05/21 04:55:32.000   35.676909018  139.482767690    93.8024   2  11   0.0659   0.0792   0.2359   0.0308  -0.0827  -0.0799   0.99    2.0
2018/05/21 04:55:33.000   35.676908905  139.482767732    93.7916   2  11   0.0653   0.0788   0.2341   0.0304  -0.0822  -0.0793   0.99    2.2
2018/05/21 04:55:34.000   35.676908718  139.482767900    93.7854   2  11   0.0648   0.0784   0.2323   0.0300  -0.0816  -0.0787   0.99    2.3
2018/05/21 04:55:35.000   35.676908679  139.482768043    93.7485   2  11   0.0643   0.0781   0.2305   0.0296  -0.0810  -0.0781   0.99    2.5
2018/05/21 04:55:36.000   35.676908753  139.482768216    93.7032   2  11   0.0637   0.0777   0.2288   0.0292  -0.0805  -0.0775   0.99    2.6
2018/05/21 04:55:37.000   35.676908822  139.482768454    93.6794   2  11   0.0632   0.0773   0.2270   0.0288  -0.0799  -0.0768   0.99    2.7
2018/05/21 04:55:38.000   35.676908812  139.482768661    93.6487   2  11   0.0627   0.0769   0.2253   0.0284  -0.0793  -0.0762   0.99    2.8
2018/05/21 04:55:39.000   35.676908774  139.482768766    93.6124   2  11   0.0622   0.0765   0.2236   0.0279  -0.0788  -0.0756   0.99    2.9
2018/05/21 04:55:40.000   35.676908748  139.482768839    93.5583   2  11   0.0617   0.0762   0.2220   0.0276  -0.0782  -0.0750   0.99    2.9
2018/05/21 04:55:41.000   35.676908901  139.482768894    93.5021   2  11   0.0613   0.0758   0.2203   0.0272  -0.0776  -0.0744   0.99    2.9
2018/05/21 04:55:42.000   35.676909020  139.482769095    93.4377   2  11   0.0608   0.0754   0.2187   0.0268  -0.0770  -0.0738   0.99    2.8
2018/05/21 04:55:43.000   35.676909125  139.482769118    93.3840   2  11   0.0603   0.0751   0.2171   0.0264  -0.0765  -0.0732   0.99    2.8
2018/05/21 04:55:44.000   35.676909136  139.482769262    93.3595   2  11   0.0599   0.0747   0.2155   0.0260  -0.0759  -0.0726   0.99    2.7
2018/05/21 04:55:45.000   35.676909254  139.482769272    93.3320   2  11   0.0594   0.0744   0.2139   0.0256  -0.0753  -0.0720   0.99    2.7
