% (lat/lon/height=WGS84/ellipsoidal,Q=1:fix,2:float,3:sbas,4:dgps,5:single,6:ppp,ns=# of satellites)
%  GPST                  latitude(deg) longitude(deg)  height(m)   Q  ns   sdn(m)   sde(m)   sdu(m)  sdne(m)  sdeu(m)  sdun(m) age(s)  ratio
2018/05/21 05:17:22.000   35.676422002  139.482581097    99.4754   5  15   2.5420   2.3985   6.2511   0.8934  -0.6806  -2.2172   0.00    0.0
2018/05/21 05:17:23.000   35.676405984  139.482596287   103.3412   2  15   0.5302   0.4890   1.3516   0.1918  -0.1746  -0.5395   0.99    1.2
2018/05/21 05:17:24.000   35.676406106  139.482595147   103.3343   2  15   0.3775   0.3478   0.9630   0.1373  -0.1257  -0.3855   0.99    1.5
2018/05/21 05:17:25.000   35.676406231  139.482595865   103.0574   2  15   0.3089   0.2846   0.7883   0.1125  -0.1031  -0.3159   0.99    1.5
2018/05/21 05:17:26.000   35.676406207  139.482596944   102.9689   2  15   0.2679   0.2468   0.6835   0.0976  -0.0895  -0.2741   0.99    1.5
2018/05/21 05:17:27.000   35.676405934  139.482597742   102.7979   2  15   0.2397   0.2209   0.6118   0.0873  -0.0801  -0.2454   0.99    1.5
2018/05/21 05:17:28.000   35.676405734  139.482598224   102.6858   2  15   0.2189   0.2017   0.5587   0.0797  -0.0731  -0.2241   0.99    1.5
2018/05/21 05:17:29.000   35.676405255  139.482598683   102.5415   2  15   0.2028   0.1868   0.5174   0.0738  -0.0676  -0.2076   0.99    1.5
2018/05/21 05:17:30.000   35.676404794  139.482599064   102.4638   2  15   0.1897   0.1748   0.4841   0.0690  -0.0631  -0.1942   0.99    1.4
2018/05/21 05:17:31.000   35.676402329  139.482596587   102.3379   2  16   0.1773   0.1631   0.4564   0.0606  -0.0596  -0.1832   0.99    1.3
2018/05/21 05:17:32.000   35.676401196  139.482595912   102.1470   2  15   0.1671   0.1535   0.4330   0.0542  -0.0566  -0.1738   0.99    1.4
2018/05/21 05:17:33.000   35.676400897  139.482596186   101.9691   2  16   0.1585   0.1455   0.4128   0.0489  -0.0539  -0.1657   0.99    1.5
2018/05/21 05:17:34.000   35.676400958  139.482596677   101.8772   2  15   0.1520   0.1396   0.3952   0.0476  -0.0514  -0.1587   0.99    1.3
2018/05/21 05:17:35.000   35.676401002  139.482597232   101.7620   2  15   0.1462   0.1343   0.3797   0.0463  -0.0493  -0.1524   0.99    1.3
2018/05/21 05:17:36.000   35.676401231  139.482597786   101.6042   2  15   0.1410   0.1296   0.3658   0.0451  -0.0474  -0.1468   0.99    1.3
2018/05/21 05:17:37.000   35.676401362  139.482598479   101.4633   2  15   0.1364   0.1254   0.3533   0.0439  -0.0456  -0.1418   0.99    1.3
2018/05/21 05:17:38.000   35.676401480  139.482599430   101.3189   2  15   0.1321   0.1216   0.3420   0.0428  -0.0440  -0.1373   0.99    1.4
2018/05/21 05:17:39.000   35.676401565  139.482600286   101.1531   2  15   0.1282   0.1181   0.3318   0.0418  -0.0426  -0.1332   0.99    1.3
2018/05/21 05:17:40.000   35.676401744  139.482601291   100.9783   2  15   0.1247   0.1148   0.3223   0.0409  -0.0412  -0.1294   0.99    1.2
2018/05/21 05:17:41.000   35.676402265  139.482602601   100.8209   2  15   0.1210   0.1114   0.3136   0.0385  -0.0400  -0.1259   0.99    1.3
2018/05/21 05:17:42.000   35.676401888  139.482602632   100.4934   2  16   0.1175   0.1082   0.3056   0.0363  -0.0389  -0.1227   0.99    1.3
2018/05/21 05:17:43.000   35.676401685  139.482602907   100.1035   2  16   0.1143   0.1052   0.2981   0.0344  -0.0378  -0.1197   0.99    1.2
2018/05/21 05:17:44.000   35.676400950  139.482602449    99.8051   2  16   0.1114   0.1025   0.2912   0.0327  -0.0368  -0.1169   0.99    1.1
2018/05/21 05:17:45.000   35.676400277  139.482602050    99.5093   2  16   0.1087   0.1000   0.2846   0.0312  -0.0358  -0.1143   0.99    1.0
2018/05/21 05:17:46.000   35.676399935  139.482602107    99.2584   2  16   0.1062   0.0977   0.2785   0.0297  -0.0350  -0.1118   0.99    1.0
2018/05/21 05:17:47.000   35.676399611  139.482602172    98.9982   2  16   0.1038   0.0955   0.2728   0.0284  -0.0341  -0.1095   0.99    1.0
2018/05/21 05:17:48.000   35.676399204  139.482601959    98.8295   2  16   0.1016   0.0935   0.2674   0.0272  -0.0333  -0.1073   0.99    1.0
2018/05/21 05:17:49.000   35.676398848  139.482601681    98.7024   2  16   0.0995   0.0916   0.2622   0.0261  -0.0325  -0.1053   0.99    1.1
2018/05/21 05:17:50.000   35.676398448  139.482601418    98.5801   2  16   0.0976   0.0898   0.2574   0.0251  -0.0317  -0.1033   0.99    1.1
2018/05/21 05:17:51.000   35.676398194  139.482601086    98.4613   2  16   0.0957   0.0881   0.2528   0.0241  -0.0310  -0.1015   0.99    1.1
2018/05/21 05:17:52.000   35.676397895  139.482600653    98.3561   2  16   0.0940   0.0865   0.2484   0.0232  -0.0303  -0.0997   0.99    1.1
2018/05/21 05:17:53.000   35.676397724  139.482600300    98.2539   2  16   0.0923   0.0850   0.2442   0.0223  -0.0296  -0.0980   0.99    1.0
2018/05/21 05:17:54.000   35.676397666  139.482600029    98.1434   2  16   0.0907   0.0835   0.2402   0.0215  -0.0290  -0.0964   0.99    1.0
2018/05/21 05:17:55.000   35.676397569  139.482599680    98.0538   2  15   0.0892   0.0822   0.2364   0.0207  -0.0284  -0.0949   0.99    1.0
2018/05/21 05:17:56.000   35.676397593  139.482599498    97.9849   2  16   0.0878   0.0809   0.2327   0.0199  -0.0278  -0.0934   0.99    1.0
2018/05/21 05:17:57.000   35.676397611  139.482599337    97.9328   2  16   0.0864   0.0796   0.2292   0.0192  -0.0272  -0.0920   0.99    1.0
2018/05/21 05:17:58.000   35.676397658  139.482599146    97.8951   2  16   0.0850   0.0784   0.2259   0.0186  -0.0266  -0.0907   0.99    1.0
2018/05/21 05:17:59.000   35.676397817  139.482599125    97.8460   2  16   0.0838   0.0773   0.2226   0.0179  -0.0261  -0.0893   0.99    1.0
2018/05/21 05:18:00.000   35.676397880  139.482598992    97.8526   2  16   0.0826   0.0762   0.2195   0.0173  -0.0256  -0.0881   0.99    1.0
2018/05/21 05:18:01.000   35.676398038  139.482598927    97.8487   2  16   0.0814   0.0752   0.2165   0.0167  -0.0250  -0.0869   0.99    1.0
2018/05/21 05:18:02.000   35.676398251  139.482598950    97.8300   2  16   0.0803   0.0742   0.2136   0.0162  -0.0245  -0.0857   0.99    1.1
2018/05/21 05:18:03.000   35.676398474  139.482598965    97.8135   2  16   0.0792   0.0732   0.2108   0.0157  -0.0239  -0.0846   0.99    1.1
2018/05/21 05:18:04.000   35.676398654  139.482599050    97.8050   2  16   0.0781   0.0722   0.2081   0.0152  -0.0234  -0.0835   0.99    1.1
2018/05/21 05:18:05.000   35.676398903  139.482598969    97.7671   2  16   0.0771   0.0713   0.2055   0.0147  -0.0229  -0.0825   0.99    1.1
2018/05/21 05:18:06.000   35.676399099  139.482598975    97.7310   2  16   0.0761   0.0704   0.2030   0.0142  -0.0225  -0.0815   0.99    1.1
2018/05/21 05:18:07.000   35.676366842  139.482669494    95.3659   2  16   0.0752   0.0696   0.2006   0.0137  -0.0220  -0.0805   0.99    1.1
2018/05/21 05:18:08.000   35.676397591  139.482599367    98.6503   2  16   0.0743   0.0689   0.1982   0.0131  -0.0216  -0.0795   0.99    1.0
2018/05/21 05:18:09.000   35.676397874  139.482599267    98.5864   2  16   0.0735   0.0681   0.1959   0.0126  -0.0211  -0.0786   0.99    1.0
2018/05/21 05:18:10.000   35.676398111  139.482599168    98.5354   2  16   0.0726   0.0673   0.1937   0.0122  -0.0207  -0.0777   0.99    1.0
2018/05/21 05:18:11.000   35.676398380  139.482599088    98.4785   2  16   0.0717   0.0666   0.1915   0.0118  -0.0202  -0.0768   0.99    1.0
2018/05/21 05:18:12.000   35.676398616  139.482599080    98.4202   2  16   0.0709   0.0659   0.1894   0.0113  -0.0197  -0.0760   0.99    1.0
2018/05/21 05:18:13.000   35.676398851  139.482599069    98.3802   2  16   0.0702   0.0652   0.1873   0.0109  -0.0193  -0.0751   0.99    1.0
2018/05/21 05:18:14.000   35.676399113  139.482599110    98.3447   2  16   0.0694   0.0645   0.1853   0.0105  -0.0188  -0.0743   0.99    1.0
2018/05/21 05:18:15.000   35.676399294  139.482599155    98.3133   2  15   0.0686   0.0639   0.1833   0.0101  -0.0185  -0.0735   0.99    1.0
2018/05/21 05:18:16.000   35.676399432  139.482599224    98.2850   2  16   0.0679   0.0632   0.1814   0.0096  -0.0180  -0.0728   0.99    1.0
2018/05/21 05:18:17.000   35.676399547  139.482599191    98.2602   2  16   0.0672   0.0626   0.1796   0.0091  -0.0176  -0.0720   0.99    1.1
2018/05/21 05:18:18.000   35.676399655  139.482599139    98.2328   2  16   0.0665   0.0620   0.1778   0.0088  -0.0172  -0.0713   0.99    1.1
2018/05/21 05:18:19.000   35.676399781  139.482599013    98.2264   2  16   0.0659   0.0614   0.1760   0.0083  -0.0168  -0.0706   0.99    1.1
2018/05/21 05:18:20.000   35.676399782  139.482598851    98.2538   2  16   0.0652   0.0609   0.1743   0.0079  -0.0163  -0.0699   0.99    1.1
2018/05/21 05:18:21.000   35.676399797  139.482598712    98.2629   2  16   0.0645   0.0603   0.1726   0.0074  -0.0159  -0.0692   0.99    1.1
2018/05/21 05:18:22.000   35.676399782  139.482598559    98.2839   2  16   0.0640   0.0598   0.1709   0.0070  -0.0155  -0.0686   0.99    1.1
2018/05/21 05:18:23.000   35.676399880  139.482598427    98.3077   2  16   0.0633   0.0593   0.1693   0.0066  -0.0150  -0.0679   0.99    1.1
2018/05/21 05:18:24.000   35.676399875  139.482598384    98.3629   2  16   0.0628   0.0588   0.1677   0.0062  -0.0146  -0.0673   0.99    1.1
2018/05/21 05:18:25.000   35.676399875  139.482598299    98.4217   2  16   0.0622   0.0583   0.1662   0.0056  -0.0142  -0.0667   0.99    1.1
2018/05/21 05:18:26.000   35.676399806  139.482598212    98.4936   2  16   0.0616   0.0578   0.1647   0.0051  -0.0137  -0.0661   0.99    1.1
2018/05/21 05:18:27.000   35.676399812  139.482598228    98.5539   2  16   0.0610   0.0573   0.1632   0.0045  -0.0133  -0.0655   0.99    1.0
2018/05/21 05:18:28.000   35.676399780  139.482598185    98.6133   2  16   0.0605   0.0568   0.1617   0.0038  -0.0129  -0.0649   0.99    1.0
2018/05/21 05:18:29.000   35.676399735  139.482598232    98.6862   2  16   0.0600   0.0564   0.1603   0.0030  -0.0125  -0.0643   0.99    1.0
2018/05/21 05:18:30.000   35.676399680  139.482598228    98.7545   2  16   0.0595   0.0559   0.1589   0.0021  -0.0120  -0.0637   0.99    1.0
2018/05/21 05:18:31.000   35.676399604  139.482598188    98.8347   2  16   0.0590   0.0555   0.1576   0.0010  -0.0116  -0.0632   0.99    1.0
2018/05/21 05:18:32.000   35.676399610  139.482598184    98.8909   2  16   0.0584   0.0551   0.1562  -0.0022  -0.0111  -0.0627   0.99    1.0
2018/05/21 05:18:33.000   35.676399630  139.482598121    98.9615   2  16   0.0580   0.0547   0.1549  -0.0030  -0.0107  -0.0621   0.99    1.0
2018/05/21 05:18:34.000   35.676399685  139.482598188    99.0234   2  16   0.0575   0.0543   0.1536  -0.0035  -0.0102  -0.0616   0.99    1.0
2018/05/21 05:18:35.000   35.676399769  139.482598271    99.0785   2  16   0.0570   0.0539   0.1523  -0.0041  -0.0097  -0.0611   0.99    1.0
2018/05/21 05:18:36.000   35.676399873  139.482598369    99.1320   2  16   0.0566   0.0535   0.1511  -0.0046  -0.0090  -0.0606   0.99    1.0
2018/05/21 05:18:37.000   35.676399974  139.482598462    99.2009   2  16   0.0561   0.0531   0.1498  -0.0047  -0.0086  -0.0601   0.99    1.0
2018/05/21 05:18:38.000   35.676400078  139.482598543    99.2646   2  16   0.0557   0.0527   0.1486  -0.0052  -0.0080  -0.0596   0.99    1.0
2018/05/21 05:18:39.000   35.676400177  139.482598619    99.3406   2  16   0.0552   0.0523   0.1474  -0.0055  -0.0075  -0.0591   0.99    1.0
2018/05/21 05:18:40.000   35.676400267  139.482598763    99.4038   2  16   0.0548   0.0519   0.1463  -0.0057  -0.0068  -0.0587   0.99    1.0
2018/05/21 05:18:41.000   35.676400360  139.482598902    99.4669   2  16   0.0544   0.0516   0.1451  -0.0061  -0.0062  -0.0582   0.99    1.0
2018/05/21 05:18:42.000   35.676400427  139.482599132    99.5476   2  16   0.0539   0.0512   0.1440  -0.0062  -0.0054  -0.0578   0.99    1.0
2018/05/21 05:18:43.000   35.676400542  139.482599302    99.6155   2  15   0.0536   0.0509   0.1428  -0.0067  -0.0050  -0.0573   0.99    1.1
2018/05/21 05:18:44.000   35.676400644  139.482599477    99.6937   2  16   0.0531   0.0506   0.1417  -0.0070  -0.0041  -0.0568   0.99    1.1
2018/05/21 05:18:45.000   35.676400698  139.482599718    99.7628   2  16   0.0527   0.0503   0.1406  -0.0072  -0.0032  -0.0564   0.99    1.1
2018/05/21 05:18:46.000   35.676400730  139.482599917    99.8479   2  16   0.0523   0.0500   0.1396  -0.0074  -0.0016  -0.0560   0.99    1.1
2018/05/21 05:18:47.000   35.676400779  139.482600123    99.9205   2  16   0.0520   0.0496   0.1385  -0.0076   0.0024  -0.0555   0.99    1.1
2018/05/21 05:18:48.000   35.676400812  139.482600285    99.9950   2  16   0.0516   0.0494   0.1375  -0.0078   0.0035  -0.0551   0.99    1.1
2018/05/21 05:18:49.000   35.676400848  139.482600516   100.0651   2  16   0.0512   0.0490   0.1365  -0.0079   0.0045  -0.0547   0.99    1.1
2018/05/21 05:18:50.000   35.676400889  139.482600639   100.1311   2  16   0.0508   0.0487   0.1355  -0.0080   0.0052  -0.0543   0.99    1.1
2018/05/21 05:18:51.000   35.676400944  139.482600858   100.1902   2  16   0.0505   0.0484   0.1345  -0.0082   0.0059  -0.0539   0.99    1.2
2018/05/21 05:18:52.000   35.676401008  139.482601046   100.2592   2  16   0.0501   0.0482   0.1335  -0.0084   0.0064  -0.0535   0.99    1.2
2018/05/21 05:18:53.000   35.676401063  139.482601233   100.3134   2  16   0.0498   0.0479   0.1326  -0.0086   0.0069  -0.0532   0.99    1.2
2018/05/21 05:18:54.000   35.676401112  139.482601350   100.3596   2  16   0.0494   0.0476   0.1316  -0.0087   0.0074  -0.0528   0.99    1.2
2018/05/21 05:18:55.000   35.676401127  139.482601491   100.4136   2  16   0.0491   0.0473   0.1307  -0.0089   0.0077  -0.0524   0.99    1.2
2018/05/21 05:18:56.000   35.676401179  139.482601604   100.4754   2  16   0.0487   0.0470   0.1298  -0.0090   0.0081  -0.0521   0.99    1.2
2018/05/21 05:18:57.000   35.676401173  139.482601723   100.5193   2  16   0.0485   0.0468   0.1289  -0.0093   0.0085  -0.0517   0.99    1.0
2018/05/21 05:18:58.000   35.676401179  139.482601877   100.5676   2  16   0.0481   0.0465   0.1280  -0.0091   0.0090  -0.0513   0.99    1.0
2018/05/21 05:18:59.000   35.676401175  139.482602087   100.6168   2  16   0.0478   0.0462   0.1271  -0.0093   0.0093  -0.0510   0.99    1.0
2018/05/21 05:19:00.000   35.676401152  139.482602262   100.6509   2  16   0.0475   0.0459   0.1262  -0.0094   0.0096  -0.0506   0.99    1.0
2018/05/21 05:19:01.000   35.676401090  139.482602465   100.6926   2  16   0.0471   0.0457   0.1254  -0.0096   0.0098  -0.0503   0.99    1.0
2018/05/21 05:19:02.000   35.676401063  139.482602615   100.7114   2  16   0.0468   0.0454   0.1245  -0.0095   0.0101  -0.0500   0.99    1.0
2018/05/21 05:19:03.000   35.676401056  139.482602744   100.7336   2  16   0.0465   0.0452   0.1237  -0.0097   0.0104  -0.0496   0.99    1.0
2018/05/21 05:19:04.000   35.676401046  139.482602900   100.7478   2  16   0.0461   0.0449   0.1228  -0.0096   0.0108  -0.0493   0.99    1.0
2018/05/21 05:19:05.000   35.676401029  139.482602991   100.7605   2  16   0.0460   0.0447   0.1220  -0.0098   0.0110  -0.0490   0.99    1.0
2018/05/21 05:19:06.000   35.676401049  139.482603182   100.7585   2  15   0.0457   0.0445   0.1212  -0.0100   0.0110  -0.0486   0.99    1.3
2018/05/21 05:19:07.000   35.676401034  139.482603350   100.7560   2  16   0.0453   0.0443   0.1204  -0.0102   0.0112  -0.0483   0.99    1.3
2018/05/21 05:19:08.000   35.676401083  139.482603475   100.7598   2  16   0.0451   0.0441   0.1196  -0.0102   0.0115  -0.0480   0.99    1.3
2018/05/21 05:19:09.000   35.676401070  139.482603609   100.7629   2  16   0.0447   0.0438   0.1188  -0.0104   0.0116  -0.0477   0.99    1.3
2018/05/21 05:19:10.000   35.676401174  139.482603692   100.7402   2  16   0.0445   0.0436   0.1180  -0.0105   0.0118  -0.0474   0.99    1.4
2018/05/21 05:19:11.000   35.676401205  139.482603830   100.7517   2  16   0.0442   0.0434   0.1173  -0.0104   0.0121  -0.0470   0.99    1.4
2018/05/21 05:19:12.000   35.676401251  139.482603924   100.7455   2  16   0.0440   0.0432   0.1165  -0.0105   0.0122  -0.0467   0.99    1.4
2018/05/21 05:19:13.000   35.676401352  139.482604011   100.7497   2  16   0.0436   0.0430   0.1158  -0.0107   0.0124  -0.0465   0.99    1.0
2018/05/21 05:19:14.000   35.676401404  139.482604124   100.7731   2  16   0.0434   0.0427   0.1150  -0.0106   0.0127  -0.0462   0.99    1.0
2018/05/21 05:19:15.000   35.676401444  139.482604233   100.7914   2  16   0.0431   0.0425   0.1143  -0.0108   0.0128  -0.0459   0.99    1.0
2018/05/21 05:19:16.000   35.676401501  139.482604381   100.7947   2  16   0.0428   0.0423   0.1136  -0.0108   0.0130  -0.0456   0.99    1.0
2018/05/21 05:19:17.000   35.676401535  139.482604513   100.8131   2  16   0.0426   0.0421   0.1129  -0.0108   0.0132  -0.0453   0.99    1.0
2018/05/21 05:19:18.000   35.676401508  139.482604636   100.8266   2  16   0.0424   0.0419   0.1122  -0.0108   0.0134  -0.0451   0.99    1.0
2018/05/21 05:19:19.000   35.676401530  139.482604664   100.8407   2  16   0.0421   0.0417   0.1115  -0.0109   0.0135  -0.0448   0.99    1.0
2018/05/21 05:19:20.000   35.676401527  139.482604749   100.8563   2  16   0.0418   0.0415   0.1108  -0.0110   0.0136  -0.0445   0.99    1.0
2018/05/21 05:19:21.000   35.676401545  139.482604876   100.8684   2  16   0.0416   0.0413   0.1101  -0.0110   0.0138  -0.0442   0.99    1.0
2018/05/21 05:19:22.000   35.676401528  139.482605003   100.8831   2  16   0.0414   0.0411   0.1094  -0.0112   0.0139  -0.0440   0.99    1.0
2018/05/21 05:19:23.000   35.676401550  139.482605095   100.8926   2  16   0.0411   0.0409   0.1088  -0.0112   0.0140  -0.0437   0.99    1.0
2018/05/21 05:19:24.000   35.676401506  139.482605210   100.8940   2  16   0.0408   0.0408   0.1081  -0.0111   0.0142  -0.0435   0.99    1.0
2018/05/21 05:19:25.000   35.676401514  139.482605315   100.8966   2  16   0.0406   0.0406   0.1074  -0.0112   0.0143  -0.0432   0.99    1.0
2018/05/21 05:19:26.000   35.676401486  139.482605390   100.8790   2  16   0.0404   0.0404   0.1068  -0.0113   0.0145  -0.0430   0.99    1.0
2018/05/21 05:19:27.000   35.676401504  139.482605455   100.8718   2  16   0.0402   0.0402   0.1062  -0.0112   0.0146  -0.0427   0.99    1.0
2018/05/21 05:19:28.000   35.676401504  139.482605685   100.8580   2  16   0.0400   0.0401   0.1055  -0.0114   0.0146  -0.0424   0.99    1.0
2018/05/21 05:19:29.000   35.676401487  139.482605794   100.8714   2  16   0.0397   0.0398   0.1049  -0.0115   0.0148  -0.0422   0.99    1.0
2018/05/21 05:19:30.000   35.676401422  139.482605869   100.8888   2  16   0.0394   0.0397   0.1043  -0.0115   0.0149  -0.0420   0.99    1.0
2018/05/21 05:19:31.000   35.676401413  139.482605972   100.8848   2  15   0.0393   0.0396   0.1036  -0.0117   0.0148  -0.0417   0.99    1.3
2018/05/21 05:19:32.000   35.676401322  139.482606100   100.9032   2  16   0.0391   0.0394   0.1030  -0.0117   0.0149  -0.0414   0.99    1.3
2018/05/21 05:19:38.000   35.676401459  139.482606455   100.8610   2  15   0.0389   0.0393   0.1025  -0.0115   0.0148  -0.0413   0.99    1.0
2018/05/21 05:19:47.000   35.676401651  139.482606548   100.8344   2  15   0.0388   0.0392   0.1021  -0.0119   0.0154  -0.0412   0.99    1.1
2018/05/21 05:19:49.000   35.676401813  139.482606549   100.7884   2  16   0.0385   0.0390   0.1013  -0.0120   0.0159  -0.0408   0.99    1.2
2018/05/21 05:19:50.000   35.676401938  139.482606778   100.8020   2  16   0.0383   0.0388   0.1007  -0.0121   0.0155  -0.0404   0.99    1.0
2018/05/21 05:19:51.000   35.676402013  139.482606858   100.7847   2  16   0.0379   0.0386   0.1000  -0.0121   0.0156  -0.0400   0.99    1.1
2018/05/21 05:19:52.000   35.676402186  139.482606906   100.7568   2  14   0.0379   0.0384   0.0996  -0.0124   0.0163  -0.0399   0.99    1.2
2018/05/21 05:19:53.000   35.676402284  139.482606974   100.7144   2  16   0.0377   0.0382   0.0989  -0.0125   0.0165  -0.0396   0.99    1.2
2018/05/21 05:19:54.000   35.676402509  139.482607155   100.6781   2  15   0.0373   0.0382   0.0984  -0.0124   0.0159  -0.0392   0.99    1.1
2018/05/21 05:19:55.000   35.676402695  139.482607261   100.5918   2  15   0.0372   0.0380   0.0981  -0.0125   0.0160  -0.0391   0.99    1.0
2018/05/21 05:19:56.000   35.676402897  139.482607437   100.5397   2  15   0.0369   0.0379   0.0974  -0.0125   0.0159  -0.0387   0.99    1.0
2018/05/21 05:19:57.000   35.676402969  139.482607447   100.5006   2  15   0.0368   0.0377   0.0972  -0.0127   0.0162  -0.0386   0.99    1.1
2018/05/21 05:19:58.000   35.676403119  139.482607480   100.4499   2  15   0.0366   0.0376   0.0965  -0.0128   0.0166  -0.0383   0.99    1.1
2018/05/21 05:19:59.000   35.676403120  139.482607624   100.4520   2  16   0.0364   0.0374   0.0959  -0.0130   0.0168  -0.0380   0.99    1.0
2018/05/21 05:20:00.000   35.676403109  139.482607799   100.4368   2  16   0.0361   0.0372   0.0951  -0.0129   0.0168  -0.0375   0.99    1.0
2018/05/21 05:20:01.000   35.676403094  139.482607871   100.4326   2  16   0.0359   0.0370   0.0948  -0.0130   0.0170  -0.0374   0.99    1.0
2018/05/21 05:20:02.000   35.676403058  139.482607914   100.4290   2  16   0.0357   0.0369   0.0943  -0.0129   0.0166  -0.0371   0.99    1.0
2018/05/21 05:20:03.000   35.676403131  139.482607954   100.4031   2  16   0.0355   0.0367   0.0936  -0.0129   0.0168  -0.0367   0.99    1.0
2018/05/21 05:20:04.000   35.676403157  139.482608042   100.3721   2  16   0.0352   0.0365   0.0930  -0.0130   0.0169  -0.0365   0.99    1.0
2018/05/21 05:20:05.000   35.676403237  139.482608015   100.3115   2  16   0.0351   0.0364   0.0925  -0.0130   0.0170  -0.0362   0.99    1.0
2018/05/21 05:20:06.000   35.676403266  139.482608024   100.2819   2  16   0.0349   0.0363   0.0920  -0.0131   0.0171  -0.0359   0.99    1.0
2018/05/21 05:20:07.000   35.676418245  139.482574468   101.7020   2  16   0.0346   0.0361   0.0915  -0.0132   0.0171  -0.0356   0.99    1.0
2018/05/21 05:20:08.000   35.676403607  139.482607454   100.0815   2  16   0.0345   0.0361   0.0910  -0.0133   0.0171  -0.0353   0.99    1.0
2018/05/21 05:20:09.000   35.676403633  139.482607487   100.0353   2  16   0.0343   0.0359   0.0905  -0.0134   0.0171  -0.0351   0.99    1.1
2018/05/21 05:20:10.000   35.676403635  139.482607647   100.0101   2  16   0.0341   0.0358   0.0901  -0.0134   0.0172  -0.0348   0.99    1.0
2018/05/21 05:20:11.000   35.676403674  139.482607712    99.9631   2  16   0.0339   0.0356   0.0896  -0.0135   0.0172  -0.0346   0.99    1.0
2018/05/21 05:20:12.000   35.676403692  139.482607784    99.9126   2  16   0.0338   0.0355   0.0892  -0.0135   0.0172  -0.0344   0.99    1.0
2018/05/21 05:20:13.000   35.676403729  139.482607848    99.8544   2  16   0.0336   0.0354   0.0887  -0.0135   0.0173  -0.0341   0.99    1.0
2018/05/21 05:20:14.000   35.676403763  139.482607853    99.8085   2  16   0.0334   0.0353   0.0883  -0.0135   0.0172  -0.0339   0.99    1.1
2018/05/21 05:20:15.000   35.676403859  139.482607867    99.7404   2  16   0.0332   0.0351   0.0878  -0.0136   0.0173  -0.0337   0.99    1.1
2018/05/21 05:20:16.000   35.676403959  139.482607799    99.6762   2  16   0.0331   0.0350   0.0874  -0.0136   0.0173  -0.0335   0.99    1.1
2018/05/21 05:20:17.000   35.676404109  139.482607869    99.6255   2  16   0.0330   0.0348   0.0870  -0.0136   0.0174  -0.0332   0.99    1.1
2018/05/21 05:20:18.000   35.676404191  139.482607864    99.5674   2  16   0.0328   0.0347   0.0865  -0.0136   0.0174  -0.0330   0.99    1.2
2018/05/21 05:20:19.000   35.676404258  139.482607962    99.5181   2  16   0.0326   0.0346   0.0861  -0.0137   0.0174  -0.0328   0.99    1.1
2018/05/21 05:20:20.000   35.676404454  139.482607957    99.4453   2  16   0.0324   0.0345   0.0857  -0.0138   0.0174  -0.0326   0.99    1.2
2018/05/21 05:20:21.000   35.676404625  139.482607956    99.3694   2  16   0.0322   0.0344   0.0853  -0.0137   0.0174  -0.0324   0.99    1.1
2018/05/21 05:20:22.000   35.676404780  139.482607983    99.2915   2  16   0.0321   0.0343   0.0849  -0.0138   0.0175  -0.0322   0.99    1.2
2018/05/21 05:20:23.000   35.676404911  139.482607967    99.2393   2  16   0.0320   0.0341   0.0845  -0.0138   0.0175  -0.0320   0.99    1.2
2018/05/21 05:20:24.000   35.676405011  139.482608018    99.1871   2  16   0.0318   0.0340   0.0841  -0.0138   0.0175  -0.0318   0.99    1.2
2018/05/21 05:20:25.000   35.676405126  139.482608019    99.1371   2  16   0.0316   0.0339   0.0837  -0.0138   0.0175  -0.0316   0.99    1.1
2018/05/21 05:20:26.000   35.676405244  139.482608008    99.0897   2  16   0.0316   0.0338   0.0833  -0.0138   0.0175  -0.0314   0.99    1.2
2018/05/21 05:20:27.000   35.676405307  139.482608229    99.0471   2  15   0.0315   0.0337   0.0833  -0.0140   0.0179  -0.0316   0.99    1.2
2018/05/21 05:20:30.000   35.676405563  139.482608169    98.9743   2  16   0.0314   0.0336   0.0829  -0.0140   0.0179  -0.0314   0.99    1.1
2018/05/21 05:20:31.000   35.676405695  139.482608287    98.9540   2  15   0.0312   0.0335   0.0825  -0.0142   0.0179  -0.0312   0.99    1.1
2018/05/21 05:20:32.000   35.676405805  139.482608346    98.9230   2  15   0.0310   0.0334   0.0822  -0.0141   0.0180  -0.0311   0.99    1.1
2018/05/21 05:20:33.000   35.676411593  139.482604873    97.1405   2  16   0.0309   0.0333   0.0816  -0.0141   0.0179  -0.0307   0.99    1.1
2018/05/21 05:20:35.000   35.676406180  139.482608378    98.8220   2  15   0.0307   0.0332   0.0814  -0.0142   0.0181  -0.0308   0.99    1.1
2018/05/21 05:20:36.000   35.676406261  139.482608557    98.8327   2  15   0.0307   0.0331   0.0811  -0.0142   0.0181  -0.0305   0.99    1.1
2018/05/21 05:20:37.000   35.676406442  139.482608722    98.7864   2  15   0.0305   0.0330   0.0807  -0.0143   0.0182  -0.0304   0.99    1.1
2018/05/21 05:20:38.000   35.676406499  139.482609106    98.8115   2  16   0.0304   0.0329   0.0803  -0.0142   0.0182  -0.0302   0.99    1.0
2018/05/21 05:20:39.000   35.676406571  139.482609237    98.8285   2  16   0.0302   0.0328   0.0798  -0.0142   0.0180  -0.0299   0.99    1.0
2018/05/21 05:20:41.000   35.676406549  139.482609391    98.8608   2  16   0.0300   0.0326   0.0794  -0.0142   0.0180  -0.0297   0.99    1.0
2018/05/21 05:20:46.000   35.676406627  139.482609572    98.8532   2  16   0.0299   0.0326   0.0792  -0.0142   0.0183  -0.0297   0.99    1.0
2018/05/21 05:20:47.000   35.676406687  139.482609788    98.8745   2  16   0.0297   0.0324   0.0786  -0.0142   0.0181  -0.0293   0.99    1.0
2018/05/21 05:20:48.000   35.676406596  139.482609834    98.8965   2  16   0.0296   0.0323   0.0782  -0.0142   0.0181  -0.0291   0.99    1.0
2018/05/21 05:20:49.000   35.676406625  139.482609931    98.9095   2  16   0.0294   0.0322   0.0778  -0.0142   0.0181  -0.0289   0.99    1.0
2018/05/21 05:20:50.000   35.676406703  139.482610063    98.9210   2  16   0.0293   0.0320   0.0774  -0.0142   0.0181  -0.0287   0.99    1.1
2018/05/21 05:20:51.000   35.676406759  139.482610160    98.9133   2  16   0.0291   0.0320   0.0770  -0.0142   0.0181  -0.0286   0.99    1.1
2018/05/21 05:20:52.000   35.676406799  139.482610275    98.9065   2  16   0.0290   0.0319   0.0766  -0.0142   0.0181  -0.0284   0.99    1.1
2018/05/21 05:20:53.000   35.676406827  139.482610346    98.8930   2  16   0.0289   0.0317   0.0763  -0.0141   0.0181  -0.0282   0.99    1.1
2018/05/21 05:20:54.000   35.676406882  139.482610473    98.8681   2  16   0.0287   0.0316   0.0759  -0.0142   0.0181  -0.0280   0.99    1.1
2018/05/21 05:20:55.000   35.676384076  139.482660354    96.7173   2  16   0.0285   0.0316   0.0756  -0.0142   0.0181  -0.0279   0.99    1.1
2018/05/21 05:20:56.000   35.676406674  139.482610846    99.0091   2  16   0.0285   0.0316   0.0752  -0.0143   0.0180  -0.0277   0.99    1.1
2018/05/21 05:20:57.000   35.676406731  139.482610828    99.0005   2  16   0.0283   0.0315   0.0749  -0.0144   0.0180  -0.0275   0.99    1.1
2018/05/21 05:20:58.000   35.676406844  139.482610873    98.9667   2  16   0.0282   0.0313   0.0745  -0.0143   0.0180  -0.0274   0.99    1.1
2018/05/21 05:20:59.000   35.676406949  139.482610860    98.9349   2  16   0.0281   0.0313   0.0742  -0.0143   0.0180  -0.0272   0.99    1.0
2018/05/21 05:21:00.000   35.676406951  139.482610880    98.9148   2  16   0.0280   0.0312   0.0738  -0.0143   0.0180  -0.0271   0.99    1.1
2018/05/21 05:21:01.000   35.676406609  139.482609332    99.0504   2  16   0.0304   0.0484   0.0878   0.0061  -0.0354  -0.0346   0.99    1.1
2018/05/21 05:21:02.000   35.676406621  139.482609303    99.0487   2  16   0.0293   0.0408   0.0813  -0.0078  -0.0224  -0.0315   0.99    1.1
2018/05/21 05:21:03.000   35.676406536  139.482609124    99.0627   2  16   0.0288   0.0379   0.0790  -0.0096  -0.0158  -0.0305   0.99    1.1
2018/05/21 05:21:04.000   35.676406488  139.482609051    99.0653   2  16   0.0285   0.0363   0.0777  -0.0104  -0.0112  -0.0299   0.99    1.1
2018/05/21 05:21:05.000   35.676406449  139.482609035    99.0558   2  16   0.0283   0.0353   0.0769  -0.0108  -0.0072  -0.0296   0.99    1.1
2018/05/21 05:21:06.000   35.676401512  139.482583337    98.1883   5  16  30.0000  30.0000  30.0000   0.0000   0.0000   0.0000   0.99    0.0
2018/05/21 05:21:07.000   35.676412354  139.482591506    99.0446   5  15  30.0000  30.0000  30.0000   0.0000   0.0000  -0.0000   0.99    0.0
2018/05/21 05:21:08.000   35.676407473  139.482597794    99.5756   5  16  30.0000  30.0000  30.0000   0.0000   0.0000   0.0000   0.99    0.0
2018/05/21 05:21:09.000   35.676408611  139.482644605    98.9548   2  16   0.4921   0.4495   1.3345  -0.0225  -0.1255  -0.5197   0.99    1.9
2018/05/21 05:21:10.000   35.676402885  139.482632368    98.5961   2  16   0.3500   0.3195   0.9505  -0.0133  -0.0895  -0.3709   0.99    1.1
2018/05/21 05:21:11.000   35.676404949  139.482630624    98.1425   2  16   0.2864   0.2614   0.7780  -0.0107  -0.0731  -0.3037   0.99    1.3
2018/05/21 05:21:12.000   35.676406320  139.482631423    97.9427   2  16   0.2482   0.2266   0.6745  -0.0096  -0.0632  -0.2634   0.99    1.4
2018/05/21 05:21:13.000   35.676407769  139.482630780    97.4995   2  16   0.2220   0.2028   0.6030  -0.0048  -0.0573  -0.2354   0.99    1.2
2018/05/21 05:21:14.000   35.676409496  139.482629965    97.2246   2  16   0.2027   0.1851   0.5507  -0.0070  -0.0520  -0.2150   0.99    1.2
2018/05/21 05:21:15.000   35.676408675  139.482626785    97.0385   2  15   0.1892   0.1732   0.5101   0.0227  -0.0486  -0.1993   0.99    1.1
2018/05/21 05:21:16.000   35.676409648  139.482625864    96.9028   2  15   0.1768   0.1617   0.4774   0.0201  -0.0454  -0.1865   0.99    1.2
2018/05/21 05:21:17.000   35.676410058  139.482624625    96.8302   2  16   0.1666   0.1524   0.4502   0.0175  -0.0426  -0.1759   0.99    1.0
2018/05/21 05:21:18.000   35.676410276  139.482623543    96.8626   2  16   0.1580   0.1445   0.4272   0.0154  -0.0402  -0.1669   0.99    1.1
2018/05/21 05:21:19.000   35.676410178  139.482622735    96.9367   2  16   0.1506   0.1377   0.4074   0.0137  -0.0381  -0.1591   0.99    1.1
2018/05/21 05:21:20.000   35.676410145  139.482622195    96.9331   2  16   0.1442   0.1318   0.3901   0.0122  -0.0363  -0.1524   0.99    1.1
2018/05/21 05:21:21.000   35.676409668  139.482621228    96.9351   2  15   0.1391   0.1273   0.3748   0.0171  -0.0350  -0.1465   0.99    1.2
2018/05/21 05:21:22.000   35.676409672  139.482621075    96.8588   2  16   0.1339   0.1226   0.3612   0.0156  -0.0336  -0.1411   0.99    1.2
2018/05/21 05:21:23.000   35.676409392  139.482620708    96.7871   2  15   0.1298   0.1189   0.3489   0.0183  -0.0325  -0.1364   0.99    1.0
2018/05/21 05:21:24.000   35.676409096  139.482620336    96.6996   2  15   0.1261   0.1156   0.3378   0.0201  -0.0315  -0.1321   0.99    1.0
2018/05/21 05:21:25.000   35.676409990  139.482621214    96.5979   2  16   0.1222   0.1120   0.3277   0.0188  -0.0304  -0.1281   0.99    1.0
2018/05/21 05:21:26.000   35.676409855  139.482620426    96.4054   2  15   0.1190   0.1092   0.3184   0.0201  -0.0295  -0.1245   0.99    1.0
2018/05/21 05:21:27.000   35.676400301  139.482608464    96.8200   2  16   0.1157   0.1062   0.3099   0.0188  -0.0285  -0.1212   0.99    1.0
2018/05/21 05:21:28.000   35.676402408  139.482610749    96.9829   2  16   0.1127   0.1034   0.3020   0.0176  -0.0276  -0.1181   0.99    1.1
2018/05/21 05:21:29.000   35.676403312  139.482611490    97.1310   2  16   0.1099   0.1008   0.2947   0.0166  -0.0267  -0.1152   0.99    1.1
2018/05/21 05:21:30.000   35.676403910  139.482612020    97.2794   2  16   0.1072   0.0984   0.2878   0.0156  -0.0259  -0.1125   0.99    1.1
2018/05/21 05:21:31.000   35.676407225  139.482615789    97.2023   2  15   0.1051   0.0965   0.2814   0.0168  -0.0253  -0.1101   0.99    1.1
2018/05/21 05:21:32.000   35.676407296  139.482615432    97.1190   2  15   0.1030   0.0947   0.2754   0.0174  -0.0247  -0.1077   0.99    1.1
2018/05/21 05:21:33.000   35.676407554  139.482615191    97.0638   2   9   0.1021   0.0935   0.2741   0.0199  -0.0231  -0.1068   0.99    1.2
2018/05/21 05:21:34.000   35.676408361  139.482614589    96.7300   2  15   0.1006   0.0926   0.2692   0.0221  -0.0266  -0.1054   0.99    1.0
2018/05/21 05:21:35.000   35.676409326  139.482613957    96.3291   2  15   0.0986   0.0906   0.2635   0.0212  -0.0244  -0.1030   0.99    1.1
2018/05/21 05:21:36.000   35.676410224  139.482613506    95.9932   2  16   0.0966   0.0887   0.2585   0.0199  -0.0233  -0.1009   0.99    1.1
2018/05/21 05:21:37.000   35.676410544  139.482612987    95.8116   2  15   0.0952   0.0875   0.2544   0.0206  -0.0246  -0.0996   0.99    1.1
2018/05/21 05:21:38.000   35.676411724  139.482612389    95.3017   2  15   0.0935   0.0860   0.2497   0.0203  -0.0230  -0.0976   0.99    1.6
2018/05/21 05:21:39.000   35.676411940  139.482612268    95.1547   2  14   0.0924   0.0846   0.2465   0.0199  -0.0210  -0.0967   0.99    1.1
2018/05/21 05:21:40.000   35.676411910  139.482611588    95.1062   2  13   0.0912   0.0835   0.2433   0.0194  -0.0200  -0.0958   0.99    1.2
2018/05/21 05:21:41.000   35.676405092  139.482616757    97.9048   2  15   0.0899   0.0823   0.2394   0.0196  -0.0198  -0.0942   0.99    1.3
2018/05/21 05:21:43.000   35.676415884  139.482612608    95.1883   2  15   0.0886   0.0812   0.2357   0.0195  -0.0194  -0.0927   0.99    1.2
2018/05/21 05:21:44.000   35.676416563  139.482609473    95.3707   2  15   0.0873   0.0801   0.2321   0.0196  -0.0192  -0.0912   0.99    1.6
2018/05/21 05:21:45.000   35.676415861  139.482608926    95.2099   2  16   0.0860   0.0789   0.2289   0.0189  -0.0188  -0.0898   0.99    1.2
2018/05/21 05:21:46.000   35.676414768  139.482608891    95.3355   2  16   0.0847   0.0777   0.2256   0.0182  -0.0184  -0.0885   0.99    1.7
2018/05/21 05:21:47.000   35.676414462  139.482609065    95.2984   2  16   0.0835   0.0766   0.2225   0.0176  -0.0180  -0.0873   0.99    1.6
2018/05/21 05:21:48.000   35.676414390  139.482608235    95.3678   2  16   0.0823   0.0755   0.2195   0.0169  -0.0177  -0.0861   0.99    1.5
2018/05/21 05:21:49.000   35.676414158  139.482606381    95.3723   2  15   0.0812   0.0745   0.2171   0.0164  -0.0165  -0.0849   0.99    1.1
2018/05/21 05:21:50.000   35.676416640  139.482602545    95.7767   2  15   0.0802   0.0737   0.2149   0.0166  -0.0188  -0.0841   0.99    1.6
2018/05/21 05:21:51.000   35.676415460  139.482599716    95.8633   2  15   0.0792   0.0729   0.2127   0.0163  -0.0198  -0.0833   0.99    1.2
2018/05/21 05:21:52.000   35.676412455  139.482605223    95.8530   2  15   0.0784   0.0719   0.2108   0.0154  -0.0183  -0.0828   0.99    1.0
2018/05/21 05:21:53.000   35.676406920  139.482603828    96.0826   2  15   0.0775   0.0712   0.2081   0.0156  -0.0178  -0.0817   0.99    1.1
2018/05/21 05:21:54.000   35.676398045  139.482600534    95.9582   2  13   0.0768   0.0704   0.2070   0.0152  -0.0160  -0.0812   0.99    1.3
2018/05/21 05:21:55.000   35.676386992  139.482598834    94.1073   2  15   0.0760   0.0696   0.2049   0.0141  -0.0145  -0.0805   0.99    1.5
2018/05/21 05:21:56.000   35.676377375  139.482597846    94.3356   2  14   0.0753   0.0689   0.2030   0.0129  -0.0135  -0.0798   0.99    1.0
2018/05/21 05:21:57.000   35.676367903  139.482592536    94.9091   2  12   0.0747   0.0684   0.2022   0.0123  -0.0147  -0.0795   0.99    1.2
2018/05/21 05:21:58.000   35.676360207  139.482587414    94.8078   2  13   0.0740   0.0682   0.2009   0.0121  -0.0174  -0.0793   0.99    1.3
2018/05/21 05:21:59.000   35.676353931  139.482579271    94.8128   2  15   0.0731   0.0677   0.1986   0.0117  -0.0175  -0.0783   0.99    1.2
2018/05/21 05:22:00.000   35.676346621  139.482573591    94.9338   2  13   0.0725   0.0671   0.1966   0.0114  -0.0168  -0.0775   0.99    1.5
2018/05/21 05:22:01.000   35.676341257  139.482565002    95.1866   2  12   0.0721   0.0669   0.1954   0.0103  -0.0190  -0.0766   0.99    1.0
2018/05/21 05:22:02.000   35.676333934  139.482556355    95.2648   2  12   0.0715   0.0663   0.1938   0.0108  -0.0199  -0.0761   0.99    1.4
2018/05/21 05:22:03.000   35.676341799  139.482542741    97.2330   2  13   0.0718   0.0656   0.1929   0.0132  -0.0194  -0.0749   0.99    1.9
2018/05/21 05:22:04.000   35.676331176  139.482529869    97.0872   2  14   0.0707   0.0648   0.1911   0.0121  -0.0186  -0.0740   0.99    1.2
2018/05/21 05:22:05.000   35.676325144  139.482517666    96.9436   2  12   0.0702   0.0642   0.1899   0.0115  -0.0187  -0.0737   0.99    1.1
2018/05/21 05:22:06.000   35.676317933  139.482503601    97.5358   2  13   0.0694   0.0636   0.1884   0.0112  -0.0174  -0.0728   0.99    1.1
2018/05/21 05:22:07.000   35.676307017  139.482493084    96.2651   2  14   0.0791   0.0640   0.1897  -0.0129  -0.0246  -0.0631   0.99    1.0
2018/05/21 05:22:08.000   35.676301586  139.482477950    96.4715   2  12   0.0769   0.0633   0.1873  -0.0128  -0.0211  -0.0663   0.99    1.2
2018/05/21 05:22:09.000   35.676299103  139.482465947    96.3008   2  14   0.0745   0.0629   0.1855  -0.0112  -0.0216  -0.0667   0.99    1.3
2018/05/21 05:22:10.000   35.676300034  139.482451964    96.1546   2  13   0.0727   0.0624   0.1835  -0.0099  -0.0202  -0.0666   0.99    2.5
2018/05/21 05:22:11.000   35.676299594  139.482443348    94.5905   2  12   0.0714   0.0619   0.1837  -0.0088  -0.0195  -0.0668   0.99    1.6
2018/05/21 05:22:12.000   35.676302461  139.482429133    94.9316   1  14   0.0070   0.0072   0.0221  -0.0020  -0.0058  -0.0077   0.99    3.1
2018/05/21 05:22:13.000   35.676305277  139.482411317    95.5629   2  13   0.0690   0.0612   0.1806  -0.0081  -0.0211  -0.0668   0.99    1.2
2018/05/21 05:22:14.000   35.676305988  139.482399301    96.8773   2  13   0.0680   0.0610   0.1790  -0.0082  -0.0220  -0.0664   0.99    1.2
2018/05/21 05:22:15.000   35.676310157  139.482386978    96.8311   2  14   0.0671   0.0605   0.1777  -0.0080  -0.0218  -0.0661   0.99    1.2
2018/05/21 05:22:16.000   35.676312766  139.482372223    96.9588   2  10   0.0666   0.0606   0.1769   0.0031  -0.0225  -0.0658   0.99    1.0
2018/05/21 05:22:17.000   35.676315477  139.482358212    96.8158   2  13   0.0658   0.0601   0.1756   0.0049  -0.0225  -0.0655   0.99    1.3
2018/05/21 05:22:18.000   35.676318675  139.482344044    96.3827   2  11   0.0660   0.0602   0.1765   0.0081  -0.0245  -0.0665   0.99    1.2
2018/05/21 05:22:19.000   35.676319649  139.482330339    96.4535   2  14   0.0653   0.0598   0.1753   0.0092  -0.0244  -0.0659   0.99    1.4
2018/05/21 05:22:20.000   35.676319857  139.482317456    96.4645   2  11   0.0647   0.0603   0.1755   0.0072  -0.0241  -0.0653   0.99    1.1
2018/05/21 05:22:21.000   35.676319784  139.482303548    96.3608   2  10   0.0645   0.0598   0.1752   0.0071  -0.0240  -0.0654   0.99    1.5
2018/05/21 05:22:22.000   35.676319295  139.482289449    96.3361   2  11   0.0643   0.0597   0.1777   0.0052  -0.0231  -0.0654   0.99    1.0
2018/05/21 05:22:23.000   35.676319707  139.482277104    96.2126   2  11   0.0639   0.0600   0.1799   0.0022  -0.0307  -0.0636   0.99    1.6
2018/05/21 05:22:24.000   35.676321388  139.482263006    95.7463   2  10   0.0640   0.0604   0.1791  -0.0080  -0.0312  -0.0631   0.99    1.8
2018/05/21 05:22:25.000   35.676320506  139.482249654    95.8398   2  11   0.0657   0.0612   0.1808  -0.0151  -0.0305  -0.0655   0.99    1.3
2018/05/21 05:22:26.000   35.676323405  139.482239533    94.9274   2   9   0.0797   0.0920   0.2502   0.0552  -0.1142  -0.1106   0.99    1.3
2018/05/21 05:22:27.000   35.676323992  139.482221904    95.7887   2  12   0.0683   0.0701   0.1970   0.0283  -0.0641  -0.0784   0.99    1.1
2018/05/21 05:22:28.000   35.676328575  139.482214528    94.8542   1  10   0.0208   0.0121   0.0502   0.0115  -0.0137  -0.0293   0.99    4.3
2018/05/21 05:22:29.000   35.676334495  139.482200779    94.5047   2   7   0.0664   0.0650   0.1972   0.0219  -0.0503  -0.0736   0.99    1.0
2018/05/21 05:22:30.000   35.676335701  139.482189063    94.2531   2   8   0.0662   0.0645   0.1973   0.0214  -0.0495  -0.0729   0.99   10.2
2018/05/21 05:22:31.000   35.676352936  139.482211154    85.2363   2   9   0.0806   0.0842   0.2283   0.0243  -0.0948  -0.0572   0.99    2.6
2018/05/21 05:22:32.000   35.676352240  139.482187437    88.6547   1  12   0.0696   0.0874   0.2170   0.0746  -0.1355  -0.1213   0.99    3.2
2018/05/21 05:22:33.000   35.676351055  139.482172996    88.5670   1  14   0.0375   0.0501   0.1249   0.0394  -0.0759  -0.0667   0.99    4.6
2018/05/21 05:22:34.000   35.676348675  139.482155912    88.9611   2  14   0.0934   0.0882   0.2362   0.0689  -0.1080  -0.1254   0.99    1.6
2018/05/21 05:22:35.000   35.676349100  139.482143065    89.1499   1  13   0.0440   0.0707   0.1963   0.0539  -0.1165  -0.0915   0.99    3.7
2018/05/21 05:22:36.000   35.676348980  139.482129131    89.3009   1  11   0.0433   0.0694   0.1945   0.0531  -0.1148  -0.0904   0.99    4.4
2018/05/21 05:22:37.000   35.676346720  139.482115061    88.9585   2  12   0.0902   0.0843   0.2331   0.0633  -0.1030  -0.1191   0.99    1.3
2018/05/21 05:22:38.000   35.676344362  139.482100119    89.0711   2  13   0.0890   0.0900   0.2360   0.0644  -0.1103  -0.1193   0.99    1.2
2018/05/21 05:22:39.000   35.676343387  139.482086086    89.0723   2  11   0.0881   0.0862   0.2341   0.0632  -0.1067  -0.1185   0.99    1.2
2018/05/21 05:22:40.000   35.676343856  139.482071545    89.2358   2  11   0.0879   0.0845   0.2330   0.0624  -0.1044  -0.1185   0.99    1.4
2018/05/21 05:22:41.000   35.676355913  139.482068747    85.1852   2  13   0.0855   0.0820   0.2240   0.0597  -0.0991  -0.1136   0.99    1.7
2018/05/21 05:22:42.000   35.676353477  139.482055765    86.3556   1  12   0.0258   0.0456   0.1291   0.0312  -0.0743  -0.0561   0.99   11.1
2018/05/21 05:22:43.000   35.676356212  139.482041976    86.1656   2  11   0.0841   0.0794   0.2215   0.0580  -0.0957  -0.1118   0.99    1.1
2018/05/21 05:22:44.000   35.676357384  139.482027667    85.9089   2  11   0.0863   0.0795   0.2391   0.0579  -0.0958  -0.1200   0.99    2.2
2018/05/21 05:22:45.000   35.676335659  139.481916561   106.9756   2  12   0.0846   0.0784   0.2325   0.0570  -0.0942  -0.1164   0.99    1.2
2018/05/21 05:22:46.000   35.676338710  139.481926784    97.9868   2  12   0.0827   0.0779   0.2219   0.0564  -0.0930  -0.1114   0.99    1.2
2018/05/21 05:22:47.000   35.676335481  139.481914093   100.4893   2  11   0.0818   0.0773   0.2195   0.0554  -0.0911  -0.1098   0.99    1.0
2018/05/21 05:22:48.000   35.676335145  139.481898193    98.9409   2  11   0.0810   0.0765   0.2196   0.0548  -0.0895  -0.1089   0.99    1.4
2018/05/21 05:22:49.000   35.676333952  139.481882483    98.1283   2  11   0.0809   0.0761   0.2210   0.0536  -0.0871  -0.1095   0.99    1.4
2018/05/21 05:22:50.000   35.676330341  139.481865540    96.2507   2  13   0.0796   0.0748   0.2171   0.0527  -0.0863  -0.1074   0.99    1.1
2018/05/21 05:22:51.000   35.676328385  139.481850995    95.3932   2  14   0.0787   0.0739   0.2158   0.0516  -0.0843  -0.1063   0.99    1.0
2018/05/21 05:22:52.000   35.676322661  139.481843167    95.4654   2  14   0.0776   0.0727   0.2127   0.0503  -0.0820  -0.1043   0.99    1.4
2018/05/21 05:22:53.000   35.676313920  139.481838845    95.3846   2  13   0.0765   0.0716   0.2103   0.0490  -0.0798  -0.1026   0.99    1.0
2018/05/21 05:22:54.000   35.676303153  139.481837460    95.4205   2  12   0.0761   0.0706   0.2089   0.0480  -0.0780  -0.1018   0.99    1.1
2018/05/21 05:22:55.000   35.676291565  139.481837237    95.2418   2  10   0.0757   0.0703   0.2073   0.0472  -0.0754  -0.1005   0.99    1.4
2018/05/21 05:22:56.000   35.676271190  139.481854627   104.2562   2   8   0.3110   0.5450   2.5361  -0.4007   1.1664  -0.8785   0.99    1.1
2018/05/21 05:22:57.000   35.676275134  139.481819618    91.2803   2  13   0.0757   0.0694   0.2086   0.0463  -0.0704  -0.0990   0.99    1.0
2018/05/21 05:22:58.000   35.676265273  139.481815417    91.2147   2  13   0.0747   0.0684   0.2056   0.0451  -0.0688  -0.0978   0.99    1.2
2018/05/21 05:22:59.000   35.676254316  139.481812472    91.0981   1  12   0.0172   0.0315   0.1387  -0.0199   0.0650  -0.0438   0.99    3.5
2018/05/21 05:23:00.000   35.676243946  139.481809842    91.2482   2  12   0.0731   0.0669   0.2017   0.0431  -0.0661  -0.0952   0.99    1.1
2018/05/21 05:23:01.000   35.676232616  139.481807741    91.4792   1  11   0.0078   0.0062   0.0450   0.0025   0.0101  -0.0053   0.99    3.3
2018/05/21 05:23:02.000   35.676222838  139.481803587    91.4005   1  11   0.0085   0.0078   0.0327  -0.0032   0.0068   0.0084   0.99    3.2
2018/05/21 05:23:03.000   35.676210555  139.481804407    91.5406   1   9   0.0122   0.0143   0.0761  -0.0105  -0.0292   0.0260   0.99    3.4
2018/05/21 05:23:04.000   35.676199558  139.481801596    91.6435   2   7   0.0727   0.0706   0.2163   0.0395  -0.0555  -0.0954   0.99    1.4
2018/05/21 05:23:05.000   35.676197039  139.481822849    85.3641   2   5   0.3192   0.7043   2.0711   0.4684  -1.2027  -0.8059   0.99    5.6
2018/05/21 05:23:06.000   35.676160805  139.481903978   109.7659   2   7   0.2887   0.8730   2.3799  -0.3504   1.1296  -0.8159   0.99    0.0
2018/05/21 05:23:07.000   35.676162277  139.481788080    94.9538   2   9   0.3889   0.0931   0.5456  -0.1471  -0.1835   0.4268   0.99    1.0
2018/05/21 05:23:08.000   35.676153463  139.481789891    94.6306   2  11   0.2949   0.0827   0.4259  -0.1076  -0.1411   0.3119   0.99    1.3
2018/05/21 05:23:09.000   35.676144658  139.481790307    94.9143   2  11   0.2456   0.0782   0.3671  -0.0868  -0.1202   0.2497   0.99    2.8
2018/05/21 05:23:10.000   35.676131307  139.481791381    94.3482   2   9   0.2208   0.0755   0.3359  -0.0746  -0.1084   0.2163   0.99    1.8
2018/05/21 05:23:11.000   35.676096077  139.481795776    90.8119   1  11   0.0119   0.0094   0.0281   0.0061  -0.0064  -0.0158   0.99    3.5
2018/05/21 05:23:12.000   35.676084061  139.481795648    90.8795   2  13   0.0712   0.0664   0.2054   0.0363  -0.0523  -0.0878   0.99    1.5
2018/05/21 05:23:13.000   35.676073699  139.481796583    90.7877   2  10   0.0707   0.0661   0.2050   0.0358  -0.0516  -0.0873   0.99    1.5
2018/05/21 05:23:14.000   35.676079042  139.481834878    90.0187   2   9   0.0712   0.0837   0.2274   0.0424  -0.0882  -0.0926   0.99    1.2
2018/05/21 05:23:15.000   35.676057764  139.481817212    91.1812   2  12   0.0704   0.0663   0.2030   0.0335  -0.0479  -0.0869   0.99    1.6
2018/05/21 05:23:16.000   35.676039541  139.481815691    93.2578   2  12   0.0702   0.0658   0.2026   0.0336  -0.0486  -0.0872   0.99    1.0
2018/05/21 05:23:17.000   35.676023644  139.481821499    94.9717   2  13   0.0693   0.0649   0.1997   0.0338  -0.0488  -0.0854   0.99    1.2
2018/05/21 05:23:18.000   35.676012667  139.481823391    95.0001   2  14   0.0686   0.0641   0.1977   0.0330  -0.0475  -0.0844   0.99    1.2
2018/05/21 05:23:19.000   35.676001787  139.481823708    94.8401   2  13   0.0681   0.0639   0.1979   0.0323  -0.0462  -0.0840   0.99    1.1
2018/05/21 05:23:20.000   35.675990086  139.481821469    94.6938   2  10   0.0677   0.0635   0.1970   0.0322  -0.0451  -0.0833   0.99    1.0
2018/05/21 05:23:21.000   35.675978247  139.481819936    94.7408   2  12   0.0671   0.0630   0.1956   0.0317  -0.0436  -0.0823   0.99    1.1
2018/05/21 05:23:22.000   35.675965131  139.481819777    94.5701   1  11   0.0067   0.0066   0.0232   0.0034   0.0065  -0.0053   0.99    4.2
2018/05/21 05:23:23.000   35.675954993  139.481817373    94.6236   2   9   0.0668   0.0628   0.1956   0.0287  -0.0369  -0.0822   0.99    2.5
2018/05/21 05:23:24.000   35.675944036  139.481816231    94.4292   2  10   0.0664   0.0627   0.1947   0.0278  -0.0350  -0.0817   0.99    1.1
2018/05/21 05:23:25.000   35.675932322  139.481817487    94.4086   2  11   0.0660   0.0622   0.1949   0.0273  -0.0339  -0.0815   0.99    2.9
2018/05/21 05:23:26.000   35.675920752  139.481821899    94.5806   2  11   0.0655   0.0623   0.1933   0.0264  -0.0337  -0.0799   0.99    2.0
2018/05/21 05:23:27.000   35.675907534  139.481825264    94.5803   2  10   0.0652   0.0622   0.1940   0.0259  -0.0308  -0.0790   0.99    1.3
2018/05/21 05:23:28.000   35.675894262  139.481825748    94.6237   2  10   0.0647   0.0618   0.1926   0.0256  -0.0303  -0.0784   0.99    1.7
2018/05/21 05:23:29.000   35.675881080  139.481825962    94.7180   2   7   0.0646   0.0628   0.1955   0.0243  -0.0281  -0.0786   0.99    1.6
2018/05/21 05:23:30.000   35.675868012  139.481827405    95.9903   1   6   0.0101   0.0144   0.0578  -0.0086   0.0190  -0.0146   0.99    3.9
2018/05/21 05:23:31.000   35.675855085  139.481823989    94.3774   1   8   0.0101   0.0140   0.0498  -0.0086   0.0161  -0.0145   0.99    6.4
2018/05/21 05:23:32.000   35.675843309  139.481823916    94.7551   2  10   0.0641   0.0628   0.1962   0.0222  -0.0226  -0.0790   0.99    1.5
2018/05/21 05:23:33.000   35.675831805  139.481829702    94.5522   2  11   0.0656   0.0707   0.2064   0.0311  -0.0529  -0.0850   0.99    1.1
2018/05/21 05:23:34.000   35.675819235  139.481831047    94.6703   2  10   0.0653   0.0703   0.2053   0.0307  -0.0532  -0.0847   0.99    2.0
2018/05/21 05:23:35.000   35.675806863  139.481830947    94.8508   2  12   0.0644   0.0695   0.2031   0.0297  -0.0519  -0.0833   0.99    1.5
2018/05/21 05:23:36.000   35.675798171  139.481842252    92.6388   2  12   0.0636   0.0662   0.2011   0.0276  -0.0471  -0.0817   0.99    1.1
2018/05/21 05:23:37.000   35.675787043  139.481836888    93.0844   2  12   0.0633   0.0662   0.2006   0.0270  -0.0467  -0.0813   0.99    1.0
2018/05/21 05:23:38.000   35.675775314  139.481834564    93.0937   2  11   0.0629   0.0657   0.1999   0.0274  -0.0474  -0.0810   0.99    1.0
2018/05/21 05:23:39.000   35.675763476  139.481833254    93.2478   2  10   0.0629   0.0650   0.1998   0.0265  -0.0461  -0.0813   0.99    1.5
2018/05/21 05:23:40.000   35.675751637  139.481832494    93.2338   2  10   0.0625   0.0646   0.2004   0.0263  -0.0446  -0.0807   0.99    1.0
2018/05/21 05:23:41.000   35.675740140  139.481831557    93.2518   2   7   0.0621   0.0643   0.2008   0.0261  -0.0434  -0.0799   0.99    1.3
2018/05/21 05:23:42.000   35.675727515  139.481835357    94.2877   1   8   0.0150   0.0492   0.0860   0.0241  -0.0615  -0.0305   0.99   13.1
2018/05/21 05:23:43.000   35.675705228  139.481808038    90.3242   1   7   0.4113   0.6331   1.1137   0.5101   0.8388   0.6752   0.99    3.7
2018/05/21 05:23:44.000   35.675707539  139.481867375   105.5076   2   5   1.1402   1.1552   4.9236  -0.4426   2.2493  -1.8010   0.99    0.0
2018/05/21 05:23:45.000   35.675698022  139.481919579   121.4867   2   9   0.5388   0.4971   1.6428   0.3231   0.8008  -0.4467   0.99    1.1
2018/05/21 05:23:46.000   35.675688135  139.481908869   117.8599   1   8   0.2400   0.1445   0.2636   0.1858  -0.1926  -0.2500   0.99    8.6
2018/05/21 05:23:47.000   35.675675293  139.481899676   115.4380   2   7   0.6641   1.0702   4.8040  -0.7271   2.2447  -1.6486   0.99    0.0
2018/05/21 05:23:48.000   35.675673628  139.481860308   100.8283   2   7   0.4874   0.5631   2.6342  -0.4029   1.1840  -1.0128   0.99    0.0
2018/05/21 05:23:49.000   35.675674629  139.481822416    95.9464   2   7   0.9446   1.6741   4.8163  -0.9678   2.7090  -1.7500   0.99    2.3
2018/05/21 05:23:50.000   35.675660070  139.481832811    98.4981   2   7   0.6712   1.1884   3.4302  -0.6877   1.9255  -1.2458   0.99    1.8
2018/05/21 05:23:51.000   35.675646976  139.481840301    99.4724   1   7   0.2378   0.4920   2.0761  -0.3419   1.0105  -0.7024   0.99    4.0
2018/05/21 05:23:52.000   35.675644464  139.481810933    95.5372   1   7   0.0103   0.0109   0.0302  -0.0075   0.0097  -0.0131   0.99    8.1
2018/05/21 05:23:53.000   35.675636733  139.481793238    94.2776   1   8   0.1614   0.2665   0.0649  -0.2072  -0.1233   0.0953   0.99   18.5
2018/05/21 05:23:54.000   35.675624783  139.481792544    95.3794   2   9   0.3569   0.3405   1.0484  -0.2303   0.4527  -0.4626   0.99    1.7
2018/05/21 05:23:55.000   35.675599849  139.481815427    95.0247   2   9   0.4237   0.5703   0.9866  -0.4161   0.2310  -0.3586   0.99    1.9
2018/05/21 05:23:56.000   35.675598483  139.481790863    95.9639   1  10   0.0098   0.0083   0.0287  -0.0061   0.0061  -0.0125   0.99   10.2
2018/05/21 05:23:57.000   35.675591462  139.481783832    96.3263   2  10   0.3013   0.3220   0.8663  -0.2241   0.2609  -0.3611   0.99    1.2
2018/05/21 05:23:58.000   35.675577221  139.481790525    98.3772   2  11   0.2680   0.2687   0.8024  -0.1770   0.2163  -0.3294   0.99    1.4
2018/05/21 05:23:59.000   35.675573554  139.481793664   103.2789   2  13   0.2449   0.2347   0.7270  -0.1473   0.1753  -0.3040   0.99    1.7
2018/05/21 05:24:00.000   35.675572702  139.481795817   103.1659   2  16   0.2159   0.2058   0.6344  -0.1173   0.1332  -0.2589   0.99    1.6
2018/05/21 05:24:01.000   35.675570746  139.481799328   104.4662   2  16   0.1963   0.1862   0.5724  -0.0983   0.1082  -0.2304   0.99    1.1
2018/05/21 05:24:02.000   35.675566704  139.481802074   105.5509   2  15   0.1818   0.1726   0.5309  -0.0833   0.0814  -0.2115   0.99    1.2
2018/05/21 05:24:03.000   35.675564794  139.481802308   105.9315   2  16   0.1701   0.1608   0.4929  -0.0734   0.0701  -0.1952   0.99    1.3
2018/05/21 05:24:04.000   35.675564078  139.481802281   106.0750   2  16   0.1604   0.1513   0.4624  -0.0657   0.0615  -0.1822   0.99    1.1
2018/05/21 05:24:05.000   35.675563735  139.481802741   106.1998   2  16   0.1524   0.1433   0.4370  -0.0595   0.0548  -0.1716   0.99    1.2
2018/05/21 05:24:06.000   35.675562730  139.481802568   106.5647   2  16   0.1454   0.1365   0.4154  -0.0545   0.0493  -0.1627   0.99    1.2
2018/05/21 05:24:07.000   35.675562194  139.481802535   107.0969   2  16   0.1394   0.1306   0.3967  -0.0503   0.0448  -0.1550   0.99    1.1
2018/05/21 05:24:08.000   35.675562149  139.481802417   107.7943   2  15   0.1343   0.1259   0.3825  -0.0457   0.0343  -0.1492   0.99    1.1
2018/05/21 05:24:09.000   35.675562056  139.481802493   108.3126   2  16   0.1294   0.1212   0.3676  -0.0428   0.0318  -0.1432   0.99    1.1
2018/05/21 05:24:10.000   35.675563123  139.481803289   108.4452   2  13   0.1263   0.1173   0.3612  -0.0402   0.0284  -0.1401   0.99    1.0
2018/05/21 05:24:11.000   35.675563537  139.481803532   108.6762   2  15   0.1223   0.1135   0.3505  -0.0379   0.0291  -0.1352   0.99    1.0
2018/05/21 05:24:12.000   35.675562268  139.481802946   109.0911   2  17   0.1183   0.1099   0.3388  -0.0352   0.0266  -0.1304   0.99    1.4
2018/05/21 05:24:13.000   35.675561042  139.481801459   109.3180   2  17   0.1148   0.1067   0.3284  -0.0328   0.0243  -0.1261   0.99    1.8
2018/05/21 05:24:14.000   35.675560916  139.481801063   109.5481   2  17   0.1115   0.1037   0.3187  -0.0306   0.0224  -0.1222   0.99    1.0
2018/05/21 05:24:15.000   35.675560874  139.481800170   109.7680   2  17   0.1084   0.1010   0.3099  -0.0288   0.0208  -0.1186   0.99    1.1
2018/05/21 05:24:16.000   35.675561525  139.481799931   109.7171   2  17   0.1057   0.0984   0.3018  -0.0270   0.0193  -0.1153   0.99    1.1
2018/05/21 05:24:17.000   35.675562012  139.481799847   109.7387   2  17   0.1031   0.0961   0.2943  -0.0255   0.0179  -0.1123   0.99    1.1
2018/05/21 05:24:18.000   35.675562428  139.481799635   109.7566   2  17   0.1007   0.0939   0.2874  -0.0241   0.0167  -0.1095   0.99    1.1
2018/05/21 05:24:19.000   35.675562770  139.481799243   109.7784   2  16   0.0984   0.0918   0.2809  -0.0226   0.0160  -0.1070   0.99    1.1
2018/05/21 05:24:20.000   35.675557869  139.481795063   109.4712   2  13   0.0974   0.0902   0.2777  -0.0220   0.0152  -0.1064   0.99    1.0
2018/05/21 05:24:21.000   35.675547750  139.481790067   109.1154   2  12   0.0963   0.0888   0.2756  -0.0216   0.0170  -0.1058   0.99    2.1
2018/05/21 05:24:22.000   35.675536203  139.481786622   109.1859   2  12   0.0948   0.0874   0.2739  -0.0204   0.0188  -0.1047   0.99    2.5
2018/05/21 05:24:23.000   35.675523607  139.481784907   109.2485   2  13   0.0933   0.0860   0.2707  -0.0198   0.0229  -0.1031   0.99    2.5
2018/05/21 05:24:24.000   35.675511266  139.481781146   109.1760   2  10   0.0929   0.0849   0.2686  -0.0171   0.0257  -0.1026   0.99    1.6
2018/05/21 05:24:25.000   35.675500463  139.481776524   108.9009   1  10   0.0116   0.0072   0.0225   0.0063   0.0064  -0.0090   0.99    3.1
2018/05/21 05:24:26.000   35.675488250  139.481770435   109.2611   2   9   0.0916   0.0829   0.2658  -0.0119   0.0251  -0.1008   0.99    1.8
2018/05/21 05:24:27.000   35.675555148  139.481759928    93.8083   2   6   1.5130   0.2400   3.2910  -0.2682  -0.6787  -1.7734   0.99  999.9
2018/05/21 05:24:28.000   35.675450575  139.481708765   108.0705   2   8   1.0708   0.6249   0.8579   0.6691   0.4489   0.8994   0.99    0.0
2018/05/21 05:24:29.000   35.675445465  139.481687549   107.5871   2   7   0.9477   0.5540   0.7434   0.6142   0.4200   0.7778   0.99    0.0
2018/05/21 05:24:30.000   35.675463842  139.481652913   114.4579   5   3   8.8309   5.9247  28.0686  -7.1723 -12.8592  15.7159   0.99    0.0
2018/05/21 05:24:31.000   35.675320957  139.481667476    92.6816   2   7   0.9988   0.6606   1.6309   0.7296  -0.8162  -0.7649   0.99    0.0
2018/05/21 05:24:32.000   35.675342529  139.481675922    90.2321   2   7   0.7809   0.4815   1.2976   0.5063  -0.5538  -0.3495   0.99    0.0
2018/05/21 05:24:33.000   35.675351983  139.481663974    90.4710   1   7   0.2791   0.1863   0.8788  -0.2220  -0.4006   0.4926   0.99    9.3
2018/05/21 05:24:34.000   35.675361650  139.481657142    89.1117   1   5   0.2801   0.1799   0.8673  -0.2184  -0.3908   0.4903   0.99    8.3
2018/05/21 05:24:35.000   35.675474473  139.481592104   115.4203   2   4  12.7829   4.3881  26.8593  -7.3284 -10.8039  18.4046   0.99    5.3
2018/05/21 05:24:36.000   35.675574102  139.481618803   112.9039   2   7   0.7907   0.7154   2.4648  -0.2912  -1.2366   0.9268   0.99    1.0
2018/05/21 05:24:37.000   35.675242423  139.481584454    81.6764   2   4  15.8670  11.6453  23.1335  13.4258 -16.3256 -18.5200   0.99    2.0
2018/05/21 05:24:38.000   35.675558655  139.481644872    94.4245   2   5   1.8924   1.3196   5.7692  -1.4178  -2.7055   3.1463   0.99    2.9
2018/05/21 05:24:39.000   35.675320413  139.481575550    83.8191   2   5   5.0538   0.8569   6.8144  -1.3061  -2.0120   5.6377   0.99    1.1
2018/05/21 05:24:40.000   35.675583407  139.481584049   106.0629   2   5   5.4612   0.8105   3.9039   1.7411   0.9848   4.3414   0.99  270.9
2018/05/21 05:24:41.000   35.675541967  139.481565851   102.6021   2   6   2.9463   0.5199   2.5802   0.7781  -0.3464   2.5152   0.99    9.2
2018/05/21 05:24:42.000   35.675489426  139.481545942    97.6038   2   7   1.9046   0.4146   1.9404   0.3488  -0.5380   1.6986   0.99  694.9
2018/05/21 05:24:44.000   35.675454883  139.481528168    90.0360   1   7   0.7922   0.0405   0.8854  -0.1403  -0.1504   0.8369   0.99   12.8
2018/05/21 05:24:45.000   35.675490711  139.481514817    93.3569   2   7   0.5852   0.6529   2.0171   0.1774  -1.0777   0.4944   0.99    1.0
2018/05/21 05:24:46.000   35.675539063  139.481503684    97.5968   2   7   0.7428   0.5252   1.4368   0.3676  -0.7757   0.2260   0.99    1.2
2018/05/21 05:24:47.000   35.675536749  139.481481622    99.0120   2   6   0.7225   0.4417   1.2450   0.2978  -0.6314   0.4224   0.99    1.4
2018/05/21 05:24:48.000   35.675541249  139.481467134   100.2104   2   7   0.6879   0.3835   1.1256   0.2312  -0.5429   0.4791   0.99  408.9
