% (lat/lon/height=WGS84/ellipsoidal,Q=1:fix,2:float,3:sbas,4:dgps,5:single,6:ppp,ns=# of satellites)
%  GPST                  latitude(deg) longitude(deg)  height(m)   Q  ns   sdn(m)   sde(m)   sdu(m)  sdne(m)  sdeu(m)  sdun(m) age(s)  ratio
2018/05/16 03:29:42.000   35.673271553  139.481054753   116.4973   5   3  28.1765   7.4881   7.8548  14.3975  -7.4266 -14.1790   1.00    0.0
2018/05/16 03:29:43.000   35.673259704  139.481040469   119.2458   5   3  28.1659   7.4405   7.5657  14.4117  -7.3751 -14.2358   1.00    0.0
2018/05/16 03:29:44.000   35.673261986  139.481034297   120.6814   5   3  28.1607   7.4249   7.4704  14.4167  -7.3610 -14.2601   1.00    0.0
2018/05/16 03:29:45.000   35.673284055  139.481037358   120.4650   5   3  28.1569   7.4175   7.4261  14.4192  -7.3563 -14.2761   1.00    0.0
2018/05/16 03:29:46.000   35.673311588  139.481031228   122.8066   5   3  28.1537   7.4134   7.4026  14.4209  -7.3554 -14.2888   1.00    0.0
2018/05/16 03:29:47.000   35.673345005  139.481045794   120.4642   5   3  28.1507   7.4109   7.3896  14.4221  -7.3563 -14.2998   1.00    0.0
2018/05/16 03:29:52.000   35.673481051  139.481099418   116.8536   5   3  28.1382   7.4129   7.4157  14.4239  -7.3769 -14.3404   1.00    0.0
2018/05/16 03:29:53.000   35.673494676  139.481118888   115.0729   5   3  28.1355   7.4119   7.4126  14.4246  -7.3796 -14.3498   1.00    0.0
2018/05/16 03:29:54.000   35.673444844  139.481114751   115.1911   5   3  28.1329   7.4114   7.4121  14.4252  -7.3827 -14.3589   1.00    0.0
2018/05/16 03:29:55.000   35.673239743  139.481061115   119.4864   5   3  28.1302   7.4111   7.4135  14.4257  -7.3861 -14.3677   1.00    0.0
2018/05/16 03:29:56.000   35.672974393  139.481152094   121.5395   5   4  30.0000  30.0000  30.0000   0.0000  -0.0000   0.0000   1.00    0.0
2018/05/16 03:29:57.000   35.673094620  139.481109766   104.0056   5   4  30.0000  30.0000  30.0000  -0.0000   0.0000   0.0000   1.00    0.0
2018/05/16 03:29:58.000   35.673018662  139.481146155    98.5594   5   4  30.0000  30.0000  30.0000   0.0000  -0.0000  -0.0000   1.00    0.0
2018/05/16 03:29:59.000   35.672995648  139.481142652   105.2470   5   4  30.0000  30.0000  30.0000   0.0000   0.0000  -0.0000   1.00    0.0
2018/05/16 03:30:00.000   35.673042081  139.481042710   133.7520   5   4  30.0000  30.0000  30.0000   0.0000   0.0000   0.0000   1.00    0.0
2018/05/16 03:30:01.000   35.673031028  139.480984369   148.5306   5   4  30.0000  30.0000  30.0000   0.0000   0.0000   0.0000   1.00    0.0
2018/05/16 03:30:02.000   35.673037507  139.480981808   147.6680   5   4  30.0000  30.0000  30.0000   0.0000  -0.0000  -0.0000   1.00    0.0
2018/05/16 03:30:03.000   35.672957108  139.481039838   137.9054   5   4  30.0000  30.0000  30.0000   0.0000   0.0000   0.0000   1.00    0.0
2018/05/16 03:30:04.000   35.672911075  139.481032555   129.2965   5   4  30.0000  30.0000  30.0000   0.0000  -0.0000   0.0000   1.00    0.0
2018/05/16 03:30:35.000   35.673093153  139.480898840   102.5976   5   4  30.0000  30.0000  30.0000   0.0000   0.0000   0.0000   1.00    0.0
2018/05/16 03:30:36.000   35.672914276  139.481044312    84.4340   5   4  30.0000  30.0000  30.0000   0.0000   0.0000   0.0000   1.00    0.0
2018/05/16 03:30:37.000   35.672984875  139.480876829   112.9383   5   4  30.0000  30.0000  30.0000  -0.0000   0.0000   0.0000   1.00    0.0
2018/05/16 03:30:38.000   35.672984927  139.480866746   117.3138   5   4  30.0000  30.0000  30.0000   0.0000  -0.0000   0.0000   1.00    0.0
2018/05/16 03:30:39.000   35.673031033  139.480787083   129.8081   5   4  30.0000  30.0000  30.0000   0.0000   0.0000   0.0000   1.00    0.0
2018/05/16 03:30:40.000   35.672996761  139.480784736   139.0476   5   4  30.0000  30.0000  30.0000   0.0000   0.0000  -0.0000   1.00    0.0
2018/05/16 03:30:41.000   35.673024394  139.480763622   148.6443   5   4  30.0000  30.0000  30.0000   0.0000  -0.0000   0.0000   1.00    0.0
2018/05/16 03:30:42.000   35.673061814  139.480752718   151.3881   5   4  30.0000  30.0000  30.0000   0.0000   0.0000  -0.0000  -0.00    0.0
2018/05/16 03:30:43.000   35.673065469  139.480762451   151.2608   5   4  30.0000  30.0000  30.0000   0.0000   0.0000  -0.0000   1.00    0.0
2018/05/16 03:30:44.000   35.673091572  139.480800344   147.1839   5   4  30.0000  30.0000  30.0000   0.0000   0.0000   0.0000   1.00    0.0
2018/05/16 03:30:45.000   35.673148592  139.480799010   145.2460   5   4  30.0000  30.0000  30.0000   0.0000  -0.0000   0.0000   1.00    0.0
2018/05/16 03:30:46.000   35.673215029  139.480793229   140.1017   5   4  30.0000  30.0000  30.0000   0.0000  -0.0000   0.0000   1.00    0.0
2018/05/16 03:30:47.000   35.673266777  139.480792227   133.6548   5   4  30.0000  30.0000  30.0000   0.0000   0.0000   0.0000   1.00    0.0
2018/05/16 03:31:04.000   35.673065020  139.481147468    86.1040   5   4  30.0000  30.0000  30.0000   0.0000  -0.0000   0.0000   1.00    0.0
2018/05/16 03:31:05.000   35.673026994  139.481090197   101.2416   5   4  30.0000  30.0000  30.0000   0.0000   0.0000   0.0000   1.00    0.0
2018/05/16 03:31:06.000   35.673054145  139.481017612   113.2787   5   4  30.0000  30.0000  30.0000   0.0000   0.0000  -0.0000   1.00    0.0
2018/05/16 03:31:07.000   35.673095374  139.480970759   128.0066   5   4  30.0000  30.0000  30.0000  -0.0000   0.0000  -0.0000   1.00    0.0
2018/05/16 03:31:09.000   35.673725586  139.480172898   355.9726   5   4  30.0000  30.0000  30.0000   0.0000   0.0000   0.0000   1.00    0.0
2018/05/16 03:31:10.000   35.673089679  139.480852551   161.7661   5   4  30.0000  30.0000  30.0000   0.0000   0.0000  -0.0000   1.00    0.0
2018/05/16 03:31:11.000   35.673070850  139.480838279   163.6791   5   4  30.0000  30.0000  30.0000   0.0000   0.0000   0.0000   1.00    0.0
2018/05/16 03:31:14.000   35.672944472  139.480890235   166.2424   5   4  30.0000  30.0000  30.0000  -0.0000  -0.0000   0.0000   1.00    0.0
2018/05/16 03:31:15.000   35.672986584  139.480845250   172.6202   5   4  30.0000  30.0000  30.0000   0.0000  -0.0000   0.0000   1.00    0.0
2018/05/16 03:31:17.000   35.673191741  139.480783993   182.5602   5   4  30.0000  30.0000  30.0000   0.0000   0.0000   0.0000   1.00    0.0
2018/05/16 03:31:18.000   35.673214326  139.480691372   200.2484   5   4  30.0000  30.0000  30.0000   0.0000   0.0000   0.0000   1.00    0.0
2018/05/16 03:31:19.000   35.673269345  139.480642156   205.1688   5   4  30.0000  30.0000  30.0000   0.0000   0.0000   0.0000   1.00    0.0
2018/05/16 03:31:20.000   35.673356837  139.480590463   210.6004   5   4  30.0000  30.0000  30.0000   0.0000   0.0000   0.0000   1.00    0.0
2018/05/16 03:31:32.000   35.673338318  139.479998794   227.8715   5   4  30.0000  30.0000  30.0000  -0.0000   0.0000  -0.0000   1.00    0.0
2018/05/16 03:31:33.000   35.673311324  139.480008490   226.8467   5   4  30.0000  30.0000  30.0000   0.0000  -0.0000   0.0000   1.00    0.0
2018/05/16 03:31:34.000   35.673282156  139.480073591   215.0938   5   4  30.0000  30.0000  30.0000  -0.0000   0.0000  -0.0000   1.00    0.0
2018/05/16 03:31:35.000   35.673307696  139.480124465   204.8674   5   4  30.0000  30.0000  30.0000  -0.0000  -0.0000   0.0000   1.00    0.0
2018/05/16 03:31:36.000   35.673337511  139.480139646   202.8868   5   4  30.0000  30.0000  30.0000   0.0000  -0.0000   0.0000   1.00    0.0
2018/05/16 03:31:37.000   35.673323444  139.480200092   193.0691   5   4  30.0000  30.0000  30.0000   0.0000   0.0000   0.0000   1.00    0.0
2018/05/16 03:31:50.000   35.676129669  139.481468114   108.4125   5   4  30.0000  30.0000  30.0000   0.0000  -0.0000   0.0000   1.00    0.0
2018/05/16 03:31:51.000   35.675720412  139.481371846   118.2614   5   4  30.0000  30.0000  30.0000  -0.0000  -0.0000  -0.0000   1.00    0.0
2018/05/16 03:31:52.000   35.675645092  139.481347930   122.6176   5   4  30.0000  30.0000  30.0000   0.0000   0.0000  -0.0000   1.00    0.0
2018/05/16 03:31:53.000   35.675614410  139.481352635   121.3482   5   4  30.0000  30.0000  30.0000   0.0000   0.0000   0.0000   1.00    0.0
2018/05/16 03:31:54.000   35.675472871  139.481357710   117.0508   5   4  30.0000  30.0000  30.0000  -0.0000  -0.0000   0.0000   1.00    0.0
2018/05/16 03:31:55.000   35.675215700  139.481317547   114.5556   5   4  30.0000  30.0000  30.0000   0.0000   0.0000   0.0000   1.00    0.0
2018/05/16 03:31:58.000   35.674863904  139.481316712   112.0736   5   4  30.0000  30.0000  30.0000  -0.0000  -0.0000   0.0000   1.00    0.0
2018/05/16 03:32:00.000   35.673081944  139.481083401   112.2693   5   5  30.0000  30.0000  30.0000   0.0000  -0.0000   0.0000   1.00    0.0
2018/05/16 03:32:02.000   35.672911416  139.481158807   108.3784   5   4  30.0000  30.0000  30.0000   0.0000   0.0000   0.0000   1.00    0.0
2018/05/16 03:32:05.000   35.672844950  139.481065265   121.6877   5   5  30.0000  30.0000  30.0000   0.0000   0.0000   0.0000   1.00    0.0
2018/05/16 03:32:06.000   35.674223404  139.481293591   122.1919   5   4  30.0000  30.0000  30.0000   0.0000   0.0000  -0.0000   1.00    0.0
2018/05/16 03:32:07.000   35.674158919  139.481266243   130.4281   5   4  30.0000  30.0000  30.0000   0.0000  -0.0000   0.0000   1.00    0.0
2018/05/16 03:32:08.000   35.674012054  139.481238112   130.9001   5   4  30.0000  30.0000  30.0000   0.0000   0.0000   0.0000   1.00    0.0
2018/05/16 03:32:09.000   35.674067960  139.481230875   134.8322   5   4  30.0000  30.0000  30.0000   0.0000   0.0000   0.0000   1.00    0.0
2018/05/16 03:32:10.000   35.674071146  139.481222774   137.4821   5   4  30.0000  30.0000  30.0000   0.0000   0.0000  -0.0000   1.00    0.0
2018/05/16 03:32:11.000   35.674047660  139.481185519   146.6716   5   4  30.0000  30.0000  30.0000   0.0000   0.0000  -0.0000   1.00    0.0
2018/05/16 03:32:12.000   35.673947081  139.481172349   143.8366   5   4  30.0000  30.0000  30.0000   0.0000   0.0000  -0.0000   1.00    0.0
2018/05/16 03:32:13.000   35.674216352  139.481212749   138.2823   5   4  30.0000  30.0000  30.0000  -0.0000   0.0000   0.0000   2.00    0.0
2018/05/16 03:32:14.000   35.673999116  139.481184831   133.5899   5   4  30.0000  30.0000  30.0000   0.0000   0.0000   0.0000   3.00    0.0
2018/05/16 03:32:15.000   35.673668124  139.481153972   125.2607   5   4  30.0000  30.0000  30.0000   0.0000   0.0000  -0.0000   4.00    0.0
2018/05/16 03:32:16.000   35.673630632  139.481133294   127.3071   5   4  30.0000  30.0000  30.0000  -0.0000   0.0000   0.0000   5.00    0.0
2018/05/16 03:32:17.000   35.673238371  139.481105820   117.0198   5   4  30.0000  30.0000  30.0000   0.0000   0.0000   0.0000   6.00    0.0
2018/05/16 03:32:18.000   35.672707321  139.481005550   118.3669   5   4  30.0000  30.0000  30.0000   0.0000  -0.0000  -0.0000   7.00    0.0
2018/05/16 03:32:19.000   35.672354944  139.480934822   117.2860   5   4  30.0000  30.0000  30.0000   0.0000   0.0000   0.0000   8.00    0.0
2018/05/16 03:32:20.000   35.672212769  139.480924749   110.7896   5   4  30.0000  30.0000  30.0000   0.0000   0.0000   0.0000   9.00    0.0
2018/05/16 03:32:21.000   35.671803206  139.480898506   107.5775   5   4  30.0000  30.0000  30.0000   0.0000  -0.0000   0.0000  10.00    0.0
2018/05/16 03:32:22.000   35.671295467  139.480808021   106.1383   5   4  30.0000  30.0000  30.0000   0.0000   0.0000   0.0000  11.00    0.0
2018/05/16 03:32:23.000   35.670730154  139.480732798   105.7936   5   4  30.0000  30.0000  30.0000  -0.0000  -0.0000  -0.0000  12.00    0.0
2018/05/16 03:32:24.000   35.670318247  139.480644103   106.1014   5   4  30.0000  30.0000  30.0000   0.0000   0.0000   0.0000  13.00    0.0
2018/05/16 03:32:25.000   35.670084956  139.480590301   106.5765   5   4  30.0000  30.0000  30.0000  -0.0000  -0.0000   0.0000  14.00    0.0
2018/05/16 03:32:26.000   35.670249145  139.480607935   105.1829   5   4  30.0000  30.0000  30.0000   0.0000   0.0000   0.0000  15.00    0.0
2018/05/16 03:32:27.000   35.670153580  139.480580697   109.3048   5   4  30.0000  30.0000  30.0000   0.0000   0.0000  -0.0000  16.00    0.0
2018/05/16 03:32:28.000   35.670244421  139.480565091   112.3499   5   4  30.0000  30.0000  30.0000   0.0000   0.0000   0.0000  17.00    0.0
2018/05/16 03:32:29.000   35.670595033  139.480611451   111.6516   5   4  30.0000  30.0000  30.0000   0.0000   0.0000   0.0000  18.00    0.0
2018/05/16 03:32:30.000   35.670836886  139.480618357   115.7756   5   4  30.0000  30.0000  30.0000   0.0000   0.0000  -0.0000  19.00    0.0
2018/05/16 03:32:31.000   35.670925636  139.480618472   117.7381   5   4  30.0000  30.0000  30.0000   0.0000   0.0000   0.0000  20.00    0.0
2018/05/16 03:32:32.000   35.671071779  139.480627647   114.1657   5   4  30.0000  30.0000  30.0000   0.0000   0.0000   0.0000  21.00    0.0
2018/05/16 03:32:33.000   35.671218430  139.480643572   116.1213   5   4  30.0000  30.0000  30.0000   0.0000   0.0000   0.0000  22.00    0.0
2018/05/16 03:32:34.000   35.671308716  139.480648339   117.0260   5   4  30.0000  30.0000  30.0000  -0.0000   0.0000   0.0000  23.00    0.0
2018/05/16 03:32:35.000   35.671403369  139.480689745   104.8672   5   4  30.0000  30.0000  30.0000   0.0000  -0.0000   0.0000  24.00    0.0
2018/05/16 03:32:36.000   35.670971866  139.480636369    99.9532   5   4  30.0000  30.0000  30.0000   0.0000   0.0000   0.0000  25.00    0.0
2018/05/16 03:32:37.000   35.671090112  139.480660090    97.0916   5   4  30.0000  30.0000  30.0000   0.0000   0.0000  -0.0000  26.00    0.0
2018/05/16 03:32:38.000   35.670949922  139.480628270    93.5117   5   4  30.0000  30.0000  30.0000   0.0000  -0.0000   0.0000  27.00    0.0
2018/05/16 03:32:39.000   35.670856368  139.480657098    95.3620   5   4  30.0000  30.0000  30.0000   0.0000   0.0000   0.0000  28.00    0.0
2018/05/16 03:32:40.000   35.670887915  139.480739726    99.0841   5   4  30.0000  30.0000  30.0000   0.0000  -0.0000   0.0000  29.00    0.0
2018/05/16 03:32:41.000   35.672189048  139.481523786   206.8444   5   4  30.0000  30.0000  30.0000   0.0000   0.0000   0.0000  30.00    0.0
2018/05/16 03:32:46.000   35.670914563  139.480841123    89.0153   5   4  42.8764   7.2841  10.4673  15.9763  -5.2436  -8.6935  35.00    0.0
2018/05/16 03:32:47.000   35.670921220  139.480815956    85.6700   5   4  42.8245   7.2749  10.4674  15.9516  -5.2401  -8.6800  36.00    0.0
2018/05/16 03:32:48.000   35.671183129  139.480815834    90.4978   5   4  42.7727   7.2658  10.4674  15.9269  -5.2365  -8.6659  37.00    0.0
2018/05/16 03:32:57.000   35.671870874  139.480827986    90.0177   5   4  42.3124   7.1850  10.4677  15.7073  -5.2059  -8.5440  46.00    0.0
2018/05/16 03:32:58.000   35.672088169  139.480834503    96.9891   5   4  42.2618   7.1761  10.4677  15.6832  -5.2024  -8.5303  47.00    0.0
2018/05/16 03:32:59.000   35.672285441  139.480839994   102.7291   5   4  42.2113   7.1673  10.4678  15.6591  -5.1991  -8.5167  48.00    0.0
2018/05/16 03:33:00.000   35.672394473  139.480860957   100.4467   5   4  42.1610   7.1585  10.4678  15.6351  -5.1957  -8.5032  49.00    0.0
2018/05/16 03:33:01.000   35.672421563  139.480865503   103.4766   5   4  42.1108   7.1498  10.4679  15.6111  -5.1924  -8.4900  50.00    0.0
2018/05/16 03:33:02.000   35.672507322  139.480892049   107.1290   5   4  42.0608   7.1410  10.4679  15.5873  -5.1891  -8.4766  51.00    0.0
2018/05/16 03:33:03.000   35.672668778  139.480912405   110.6196   5   4  42.0108   7.1323  10.4680  15.5634  -5.1858  -8.4631  52.00    0.0
2018/05/16 03:33:04.000   35.672969155  139.480959615   124.2616   5   4  41.9608   7.1237  10.4680  15.5396  -5.1824  -8.4494  53.00    0.0
2018/05/16 03:33:05.000   35.673265305  139.480995826   126.0192   5   4  41.9110   7.1150  10.4680  15.5159  -5.1791  -8.4357  54.00    0.0
2018/05/16 03:33:06.000   35.673571201  139.481002451   133.8136   5   4  41.8613   7.1063  10.4680  15.4922  -5.1757  -8.4221  55.00    0.0
2018/05/16 03:33:07.000   35.673930478  139.481042173   140.4036   5   4  41.8117   7.0977  10.4680  15.4685  -5.1723  -8.4083  56.00    0.0
2018/05/16 03:33:08.000   35.674444657  139.481076670   146.0387   5   4  41.7621   7.0891  10.4679  15.4449  -5.1689  -8.3943  57.00    0.0
2018/05/16 03:33:09.000   35.675075742  139.481118599   148.1530   5   4  41.7126   7.0805  10.4678  15.4213  -5.1654  -8.3801  58.00    0.0
2018/05/16 03:33:10.000   35.674695480  139.481060169   157.1880   5   4  41.6638   7.0720  10.4680  15.3979  -5.1624  -8.3679  59.00    0.0
2018/05/16 03:33:11.000   35.674956886  139.481057489   159.5387   5   4  41.6147   7.0635  10.4680  15.3745  -5.1592  -8.3544  60.00    0.0
2018/05/16 03:33:12.000   35.675092218  139.481065300   163.3125   5   4  41.5658   7.0551  10.4681  15.3511  -5.1559  -8.3412  61.00    0.0
2018/05/16 03:33:13.000   35.675094229  139.481050103   169.0422   5   4  41.5170   7.0466  10.4682  15.3278  -5.1528  -8.3283  62.00    0.0
2018/05/16 03:33:14.000   35.674585387  139.480990662   178.2813   5   4  41.4687   7.0382  10.4684  15.3047  -5.1499  -8.3164  63.00    0.0
2018/05/16 03:33:15.000   35.674930594  139.481035973   180.8807   5   4  41.4200   7.0298  10.4684  15.2815  -5.1467  -8.3029  64.00    0.0
2018/05/16 03:33:16.000   35.674768339  139.480995531   185.0081   5   4  41.3717   7.0215  10.4686  15.2583  -5.1436  -8.2904  65.00    0.0
2018/05/16 03:33:17.000   35.674815104  139.480983918   193.2783   5   4  41.3234   7.0131  10.4687  15.2353  -5.1405  -8.2775  66.00    0.0
2018/05/16 03:33:18.000   35.674960471  139.480984401   195.8084   5   4  41.2752   7.0048  10.4687  15.2122  -5.1374  -8.2644  67.00    0.0
2018/05/16 03:33:19.000   35.674981449  139.481003031   194.0011   5   4  41.2272   6.9965  10.4688  15.1893  -5.1343  -8.2516  68.00    0.0
2018/05/16 03:33:20.000   35.674895087  139.481011898   198.4545   5   4  41.1793   6.9883  10.4690  15.1664  -5.1313  -8.2390  69.00    0.0
2018/05/16 03:33:21.000   35.674783456  139.480961777   198.7740   5   4  41.1315   6.9801  10.4691  15.1435  -5.1283  -8.2265  70.00    0.0
2018/05/16 03:33:22.000   35.674838904  139.480947560   203.3555   5   4  41.0838   6.9718  10.4692  15.1207  -5.1253  -8.2137  71.00    0.0
2018/05/16 03:33:23.000   35.674987152  139.480960541   205.9554   5   4  41.0361   6.9636  10.4693  15.0979  -5.1222  -8.2007  72.00    0.0
2018/05/16 03:33:24.000   35.674697370  139.480915354   203.9726   5   4  40.9888   6.9555  10.4694  15.0752  -5.1193  -8.1886  73.00    0.0
2018/05/16 03:33:25.000   35.674623679  139.480938878   198.0840   5   4  40.9414   6.9474  10.4696  15.0526  -5.1163  -8.1760  74.00    0.0
2018/05/16 03:33:26.000   35.674895509  139.480994961   191.5549   5   4  30.0000  30.0000  30.0000   0.0000  -0.0000  -0.0000   1.00    0.0
2018/05/16 03:33:27.000   35.674785868  139.480962663   197.2398   5   4  30.0000  30.0000  30.0000  -0.0000   0.0000   0.0000   1.00    0.0
2018/05/16 03:33:28.000   35.674816834  139.480949668   199.5916   5   4  30.0000  30.0000  30.0000   0.0000   0.0000   0.0000   1.00    0.0
2018/05/16 03:33:29.000   35.674798790  139.480954225   197.7581   5   4  30.0000  30.0000  30.0000   0.0000  -0.0000   0.0000   1.00    0.0
2018/05/16 03:33:30.000   35.674680886  139.480950603   189.0081   5   4  30.0000  30.0000  30.0000   0.0000  -0.0000  -0.0000   1.00    0.0
2018/05/16 03:33:31.000   35.674514524  139.480892915   189.7912   5   4  30.0000  30.0000  30.0000   0.0000  -0.0000  -0.0000   1.00    0.0
2018/05/16 03:33:32.000   35.674338611  139.480938293   186.8326   5   2  28.4671  11.1366  29.4707  16.2393  12.5015  -7.2880   1.00    0.0
2018/05/16 03:33:33.000   35.673841082  139.480793938   187.2663   5   2  28.4634  11.0842  29.4694  16.2548  12.5141  -7.2968   1.00    0.0
2018/05/16 03:33:34.000   35.673412288  139.480686033   190.6868   5   2  28.4615  11.0693  29.4686  16.2616  12.5200  -7.3017   2.00    0.0
2018/05/16 03:33:35.000   35.673422492  139.480714222   185.2871   5   2  28.4599  11.0639  29.4679  16.2662  12.5242  -7.3057   3.00    0.0
2018/05/16 03:33:36.000   35.673193167  139.480664142   188.9324   5   2  28.4586  11.0623  29.4674  16.2699  12.5277  -7.3092   2.00    0.0
2018/05/16 03:33:37.000   35.673182294  139.480842541   186.4141   5   2  28.4615  11.1567  29.4683  16.2513  12.5140  -7.3027   1.00    0.0
2018/05/16 03:33:38.000   35.673362305  139.480883802   179.5350   5   2  28.4579  11.1049  29.4669  16.2667  12.5266  -7.3116   1.00    0.0
2018/05/16 03:33:39.000   35.673435113  139.480864460   168.5955   5   2  28.4559  11.0901  29.4661  16.2735  12.5325  -7.3165   1.00    0.0
2018/05/16 03:33:40.000   35.673608300  139.480922988   169.1929   5   2  28.4544  11.0847  29.4655  16.2780  12.5367  -7.3205   1.00    0.0
2018/05/16 03:33:41.000   35.673914521  139.481006731   162.1699   5   2  28.4530  11.0832  29.4649  16.2817  12.5403  -7.3241   1.00    0.0
2018/05/16 03:33:42.000   35.674103052  139.481059596   161.0667   5   2  28.4517  11.0835  29.4643  16.2850  12.5435  -7.3274   1.00    0.0
2018/05/16 03:33:43.000   35.673142320  139.480652372   168.3479   5   2  28.4505  11.0849  29.4638  16.2879  12.5465  -7.3307   1.00    0.0
2018/05/16 03:33:54.000   35.673464294  139.480723161   179.6644   5   7  30.0000  30.0000  30.0000   0.0000   0.0000  -0.0000   1.00    0.0
2018/05/16 03:33:55.000   35.673444601  139.480718848   184.3558   5   7  30.0000  30.0000  30.0000   0.0000  -0.0000   0.0000   1.00    0.0
2018/05/16 03:33:56.000   35.673457173  139.480724984   178.7783   5   7  30.0000  30.0000  30.0000  -0.0000   0.0000   0.0000   1.00    0.0
2018/05/16 03:33:57.000   35.673424426  139.480756201   179.4572   5   7  30.0000  30.0000  30.0000   0.0000   0.0000   0.0000   1.00    0.0
2018/05/16 03:33:58.000   35.673324388  139.480839721   156.0626   5   6  30.0000  30.0000  30.0000   0.0000   0.0000   0.0000   1.00    0.0
2018/05/16 03:33:59.000   35.673325059  139.480855765   157.3740   5   6  30.0000  30.0000  30.0000   0.0000  -0.0000   0.0000   1.00    0.0
2018/05/16 03:34:00.000   35.673291911  139.480871619   152.9359   5   6  30.0000  30.0000  30.0000   0.0000   0.0000   0.0000   1.00    0.0
2018/05/16 03:34:01.000   35.673224200  139.480926005   144.9493   5   6  30.0000  30.0000  30.0000  -0.0000   0.0000  -0.0000   1.00    0.0
2018/05/16 03:34:02.000   35.673216037  139.480939529   133.3235   5   6  30.0000  30.0000  30.0000   0.0000  -0.0000  -0.0000   1.00    0.0
2018/05/16 03:34:03.000   35.673263963  139.480931412   129.8818   5   6  30.0000  30.0000  30.0000   0.0000  -0.0000   0.0000   1.00    0.0
2018/05/16 03:34:04.000   35.673255353  139.480911862   127.0302   5   6  30.0000  30.0000  30.0000   0.0000   0.0000   0.0000   1.00    0.0
2018/05/16 03:34:05.000   35.673256308  139.480880923   124.0012   5   6  30.0000  30.0000  30.0000   0.0000   0.0000   0.0000   1.00    0.0
2018/05/16 03:34:06.000   35.673231441  139.480892730   121.6906   5   6  30.0000  30.0000  30.0000   0.0000   0.0000   0.0000   1.00    0.0
2018/05/16 03:34:07.000   35.673216374  139.480908628   120.0441   5   6  30.0000  30.0000  30.0000   0.0000   0.0000  -0.0000   1.00    0.0
2018/05/16 03:34:08.000   35.673212636  139.480905749   117.9818   5   6  30.0000  30.0000  30.0000   0.0000   0.0000  -0.0000   1.00    0.0
2018/05/16 03:34:09.000   35.673199921  139.480919171   111.7932   5   6  30.0000  30.0000  30.0000   0.0000   0.0000   0.0000   1.00    0.0
2018/05/16 03:34:10.000   35.673193882  139.480921404   109.5753   5   6  30.0000  30.0000  30.0000   0.0000   0.0000   0.0000   1.00    0.0
2018/05/16 03:34:11.000   35.673175583  139.480940609   106.7243   5   6  30.0000  30.0000  30.0000   0.0000  -0.0000   0.0000   1.00    0.0
2018/05/16 03:34:12.000   35.673166169  139.480921121   115.3443   5   6  30.0000  30.0000  30.0000   0.0000   0.0000   0.0000   1.00    0.0
2018/05/16 03:34:13.000   35.673191633  139.480932880   109.9243   5   6  30.0000  30.0000  30.0000   0.0000   0.0000  -0.0000   1.00    0.0
2018/05/16 03:34:14.000   35.673168670  139.480962348   104.1929   5   6  30.0000  30.0000  30.0000   0.0000   0.0000   0.0000   1.00    0.0
2018/05/16 03:34:15.000   35.673175880  139.480970397   102.0893   5   6  30.0000  30.0000  30.0000   0.0000   0.0000  -0.0000   1.00    0.0
2018/05/16 03:34:16.000   35.673192718  139.480979269   105.4505   5   6  30.0000  30.0000  30.0000   0.0000   0.0000   0.0000   1.00    0.0
2018/05/16 03:34:17.000   35.673199142  139.480983857   106.2777   5   6  30.0000  30.0000  30.0000   0.0000   0.0000   0.0000   1.00    0.0
2018/05/16 03:34:18.000   35.673259078  139.480980780   113.7546   5   6  30.0000  30.0000  30.0000   0.0000   0.0000   0.0000   1.00    0.0
2018/05/16 03:34:19.000   35.673273964  139.480900707   146.9123   5   5  30.0000  30.0000  30.0000   0.0000   0.0000  -0.0000   1.00    0.0
2018/05/16 03:34:20.000   35.673182956  139.480974066   133.3413   5   6  30.0000  30.0000  30.0000   0.0000   0.0000   0.0000   1.00    0.0
2018/05/16 03:34:21.000   35.673197122  139.480969603   132.1152   5   6  30.0000  30.0000  30.0000   0.0000  -0.0000  -0.0000   1.00    0.0
2018/05/16 03:34:22.000   35.673214504  139.480978438   131.6626   5   5  30.0000  30.0000  30.0000   0.0000   0.0000  -0.0000   1.00    0.0
2018/05/16 03:34:23.000   35.672977055  139.480934351   131.7516   5   4  30.0000  30.0000  30.0000  -0.0000   0.0000   0.0000   1.00    0.0
2018/05/16 03:34:24.000   35.673258149  139.481000575   121.2296   5   4  30.0000  30.0000  30.0000  -0.0000   0.0000   0.0000   1.00    0.0
2018/05/16 03:34:25.000   35.673228315  139.480993970   120.9955   5   4  30.0000  30.0000  30.0000   0.0000   0.0000   0.0000   1.00    0.0
2018/05/16 03:34:26.000   35.673426096  139.481029279   117.1854   5   4  30.0000  30.0000  30.0000   0.0000   0.0000   0.0000   1.00    0.0
2018/05/16 03:34:34.000   35.673583978  139.481095020   130.4075   5   4  30.0000  30.0000  30.0000   0.0000   0.0000  -0.0000   1.00    0.0
2018/05/16 03:34:40.000   35.674048410  139.481298932    98.7216   5   4  30.0000  30.0000  30.0000  -0.0000   0.0000  -0.0000   1.00    0.0
2018/05/16 03:34:41.000   35.673739612  139.481246630   103.6212   5   4  30.0000  30.0000  30.0000   0.0000   0.0000   0.0000   1.00    0.0
2018/05/16 03:34:42.000   35.673498446  139.481211272    99.2148   5   4  30.0000  30.0000  30.0000   0.0000  -0.0000  -0.0000   1.00    0.0
2018/05/16 03:34:43.000   35.673184639  139.481082755   117.0281   5   4  30.0000  30.0000  30.0000   0.0000   0.0000   0.0000   1.00    0.0
2018/05/16 03:34:44.000   35.673280937  139.481131643   114.3078   5   4  30.0000  30.0000  30.0000   0.0000   0.0000  -0.0000   1.00    0.0
2018/05/16 03:34:45.000   35.673151098  139.481131586   107.8486   5   4  30.0000  30.0000  30.0000   0.0000  -0.0000  -0.0000   1.00    0.0
2018/05/16 03:34:46.000   35.673405505  139.481174976   102.8205   5   4  30.0000  30.0000  30.0000   0.0000   0.0000   0.0000   1.00    0.0
2018/05/16 03:34:47.000   35.673415522  139.481201040   100.8551   5   4  30.0000  30.0000  30.0000   0.0000   0.0000   0.0000   1.00    0.0
2018/05/16 03:36:09.000   35.672514853  139.479745571   215.4472   5   5  30.0000  30.0000  30.0000   0.0000   0.0000   0.0000   1.00    0.0
2018/05/16 03:36:10.000   35.672537833  139.479843331   201.6676   5   4  30.0000  30.0000  30.0000   0.0000   0.0000   0.0000   1.00    0.0
2018/05/16 03:36:11.000   35.672390460  139.480445586    23.9421   5   5  30.0000  30.0000  30.0000  -0.0000  -0.0000   0.0000   1.00    0.0
2018/05/16 03:36:16.000   35.672933823  139.480033470   250.7201   5   2  29.9921  16.6499  25.0086   4.1418 -20.3351   3.3749   1.00    0.0
2018/05/16 03:36:17.000   35.672779999  139.480403267   211.2405   5   5  30.0000  30.0000  30.0000  -0.0000   0.0000  -0.0000   1.00    0.0
2018/05/16 03:36:18.000   35.672737679  139.480299082   224.7508   5   3  10.8321   1.7252  27.9558   3.8068  -6.1416 -17.3726   1.00    0.0
2018/05/16 03:36:19.000   35.672760248  139.480376158   228.4777   5   2  14.1853  28.1722  28.3814  16.5099  10.0118 -16.0302   1.00    0.0
2018/05/16 03:36:21.000   35.672636449  139.481104941   137.5167   5   4  30.0000  30.0000  30.0000   0.0000  -0.0000   0.0000   1.00    0.0
2018/05/16 03:36:22.000   35.672662390  139.480654640   205.2142   5   4  30.0000  30.0000  30.0000  -0.0000   0.0000   0.0000   1.00    0.0
2018/05/16 03:36:23.000   35.672767865  139.480213345   266.0207   5   4  30.0000  30.0000  30.0000   0.0000   0.0000   0.0000   1.00    0.0
2018/05/16 03:36:33.000   35.673050109  139.480749973   124.1226   2   6   1.7350   0.9503   1.8084  -1.1439   0.5508  -1.0299   1.00    0.0
2018/05/16 03:36:34.000   35.673083090  139.480726427   122.5841   2   7   1.1399   0.6462   1.3548  -0.7256  -0.1787  -0.6332   1.00    1.9
2018/05/16 03:36:38.000   35.673129931  139.480710594   128.0336   2   6   1.7985   0.8237   2.3258  -1.0010  -1.0709   0.6135   1.00   12.1
2018/05/16 03:36:40.000   35.673121084  139.480683283   111.4968   2   5   2.3413   4.9159  22.8775  -3.2955  10.5593  -7.1240   1.00    1.1
2018/05/16 03:36:42.000   35.673102788  139.480700952   128.2109   2   6   0.6268   0.5192   2.0073  -0.2875   0.6657  -0.7571   1.00    2.7
2018/05/16 03:37:37.000   35.672815924  139.480503754   205.9091   5   3   2.8515   6.0499  29.3420  -3.6651  13.1689  -7.6550   1.00    0.0
2018/05/16 03:37:38.000   35.672804721  139.480497467   207.4914   5   3   2.4775   5.9905  29.3404  -3.5660  13.1789  -7.6760   1.00    0.0
2018/05/16 03:37:39.000   35.672796048  139.480496129   210.6657   5   3   2.3374   5.9718  29.3395  -3.5327  13.1839  -7.6848   1.00    0.0
2018/05/16 03:37:40.000   35.672798305  139.480455910   196.1759   5   3   2.2640   5.9635  29.3388  -3.5167  13.1877  -7.6904   1.00    0.0
2018/05/16 03:37:41.000   35.672764679  139.480526763   230.8542   1   4   0.1324   0.3841   1.8987  -0.2244   0.8538  -0.4981   1.00    5.3
2018/05/16 03:37:42.000   35.672691123  139.480490781   201.1293   5   3   2.8678   5.9955  29.3387  -3.6764  13.1870  -7.6665   1.00    0.0
2018/05/16 03:37:44.000   35.672224560  139.480614235   160.3706   5   2  28.0188  11.8018  29.6062 -17.1962  11.5596   7.2071   1.00    0.0
2018/05/16 03:38:10.000   35.672305687  139.480360532   229.4003   5   7  30.0000  30.0000  30.0000   0.0000  -0.0000   0.0000   1.00    0.0
2018/05/16 03:38:11.000   35.672736981  139.479995695   172.0958   5   6  30.0000  30.0000  30.0000   0.0000   0.0000   0.0000   1.00    0.0
2018/05/16 03:38:26.000   35.672682330  139.480314664   151.3206   5   5  30.0000  30.0000  30.0000  -0.0000  -0.0000  -0.0000   1.00    0.0
2018/05/16 03:38:28.000   35.673171619  139.480131247   108.7898   5   5  30.0000  30.0000  30.0000   0.0000  -0.0000   0.0000   1.00    0.0
2018/05/16 03:38:29.000   35.672785387  139.480625838   181.9969   5   4  30.0000  30.0000  30.0000   0.0000   0.0000   0.0000   1.00    0.0
2018/05/16 03:38:33.000   35.672232983  139.480581729   171.3434   5   2   7.7401  29.9115  29.2106  -8.1691   3.9676  14.0771   1.00    0.0
2018/05/16 03:40:51.000   35.672541534  139.480349074   227.9507   5   9  30.0000  30.0000  30.0000   0.0000   0.0000   0.0000   1.00    0.0
2018/05/16 03:40:52.000   35.672704417  139.480266922   197.2317   5   6  30.0000  30.0000  30.0000  -0.0000  -0.0000   0.0000   1.00    0.0
2018/05/16 03:40:55.000   35.672563146  139.480387618   245.1958   5   2  30.0000  15.9073  25.4744   0.7407 -20.0753   0.5846   1.00    0.0
2018/05/16 03:41:09.000   35.672647494  139.480860716   207.9108   5   8  30.0000  30.0000  30.0000   0.0000  -0.0000   0.0000   1.00    0.0
2018/05/16 03:41:31.000   35.673327423  139.479915010   101.8008   2   5   1.3829   0.8128   1.8954  -0.7183  -0.8216  -0.3758   1.00    0.0
2018/05/16 03:41:32.000   35.673332001  139.479910139    99.9155   2   5   1.4419   0.8347   2.2474  -0.7799  -0.6662  -0.8293   1.00    2.4
2018/05/16 03:41:59.000   35.673336186  139.479991135   129.4449   5   2  29.6538  20.4975  22.4277  -9.9771 -20.8917  -9.5154   1.00    0.0
2018/05/16 03:42:02.000   35.673161266  139.479758115    99.6127   5   6  30.0000  30.0000  30.0000   0.0000   0.0000   0.0000   1.00    0.0
2018/05/16 03:42:03.000   35.673389059  139.479651258   102.5254   5   7  30.0000  30.0000  30.0000   0.0000  -0.0000  -0.0000   1.00    0.0
2018/05/16 03:42:07.000   35.673314255  139.479491391   114.7203   5   9  30.0000  30.0000  30.0000   0.0000   0.0000  -0.0000   1.00    0.0
2018/05/16 03:43:01.000   35.673307996  139.479264412   129.0439   5   9  30.0000  30.0000  30.0000   0.0000   0.0000  -0.0000   1.00    0.0
2018/05/16 03:43:05.000   35.673237404  139.479074579   119.3604   5   3   5.2526  19.7588  22.4385   7.6037 -20.9552  -8.6854   1.00    0.0
2018/05/16 03:43:06.000   35.673127355  139.479006392   114.2674   5   8  30.0000  30.0000  30.0000   0.0000   0.0000   0.0000   1.00    0.0
2018/05/16 03:43:07.000   35.673219200  139.478935260   130.5946   5   7  30.0000  30.0000  30.0000   0.0000   0.0000   0.0000   1.00    0.0
2018/05/16 03:43:08.000   35.673226399  139.478885064   147.0292   5   8  30.0000  30.0000  30.0000   0.0000  -0.0000   0.0000   1.00    0.0
2018/05/16 03:43:09.000   35.673366742  139.478887279   143.3168   5   7  30.0000  30.0000  30.0000   0.0000   0.0000   0.0000   1.00    0.0
2018/05/16 03:43:11.000   35.673488333  139.478987822   126.5853   5   8  30.0000  30.0000  30.0000   0.0000   0.0000  -0.0000   1.00    0.0
2018/05/16 03:43:12.000   35.673494735  139.479029421   126.9979   5   8  30.0000  30.0000  30.0000   0.0000   0.0000   0.0000   1.00    0.0
2018/05/16 03:43:16.000   35.673750582  139.479032659   119.7547   5   9  30.0000  30.0000  30.0000   0.0000   0.0000  -0.0000   1.00    0.0
2018/05/16 03:43:19.000   35.673736687  139.479057031   142.6583   5  10  30.0000  30.0000  30.0000   0.0000   0.0000   0.0000   1.00    0.0
2018/05/16 03:43:20.000   35.673782177  139.479051387   137.0531   5   8  30.0000  30.0000  30.0000   0.0000  -0.0000   0.0000   1.00    0.0
2018/05/16 03:43:22.000   35.673778021  139.478887289   134.6407   5   2  29.5285  20.6344  22.4665 -10.7412 -20.8073 -10.2630   1.00    0.0
2018/05/16 03:43:23.000   35.673752005  139.478938581   130.3031   5   3  20.2437   3.2885  21.9717   7.8882  -8.1611 -21.0446   1.00    0.0
2018/05/16 03:43:24.000   35.673812337  139.478965715   139.6093   5   3  20.2419   3.1855  21.9734   7.8852  -8.1662 -21.0445   1.00    0.0
2018/05/16 03:43:26.000   35.674002238  139.478942862   123.9984   5   3  20.2382   3.2850  21.9777   7.8821  -8.1568 -21.0443   1.00    0.0
2018/05/16 03:43:27.000   35.674279568  139.478813215   138.4644   5   5  30.0000  30.0000  30.0000  -0.0000   0.0000   0.0000   1.00    0.0
2018/05/16 03:43:31.000   35.674145786  139.479214539    94.0058   5   2   6.7842  29.9596  29.3997  -6.7438   3.0485  13.2099   1.00    0.0
2018/05/16 03:43:32.000   35.674243041  139.478977008   110.1872   5   2   6.5017  29.9596  29.3977  -6.7528   3.0517  13.2355   1.00    0.0
2018/05/16 03:43:33.000   35.674307333  139.478889291   115.9485   5   2   6.3994  29.9596  29.3973  -6.7523   3.0507  13.2423   1.00    0.0
2018/05/16 03:43:34.000   35.674260987  139.479205870    97.6846   5   5  30.0000  30.0000  30.0000   0.0000   0.0000  -0.0000   1.00    0.0
2018/05/16 03:43:35.000   35.674309265  139.478961269   112.7400   5   6  30.0000  30.0000  30.0000   0.0000   0.0000  -0.0000   1.00    0.0
2018/05/16 03:43:36.000   35.674361777  139.479117927   113.2368   5   7  30.0000  30.0000  30.0000   0.0000  -0.0000  -0.0000   1.00    0.0
2018/05/16 03:43:37.000   35.674341726  139.479152361   117.1664   5   7  30.0000  30.0000  30.0000   0.0000   0.0000   0.0000   1.00    0.0
2018/05/16 03:43:38.000   35.674445363  139.479051802   111.6668   5   6  30.0000  30.0000  30.0000  -0.0000   0.0000  -0.0000   1.00    0.0
2018/05/16 03:43:39.000   35.674573242  139.479020437   109.8146   5   8  30.0000  30.0000  30.0000   0.0000   0.0000  -0.0000   1.00    0.0
2018/05/16 03:43:40.000   35.674719050  139.479341654    90.2397   5   2   6.7563  29.9608  29.4050  -6.6947   3.0193  13.1825   1.00    0.0
2018/05/16 03:43:41.000   35.674732498  139.479068916   123.1016   5   2  29.4978  20.6666  22.4765 -10.9025 -20.7867 -10.4216   1.00    0.0
2018/05/16 03:43:42.000   35.674824276  139.479137973   112.1402   5   2  29.4955  20.6531  22.4654 -10.9181 -20.7994 -10.4367   1.00    0.0
2018/05/16 03:43:43.000   35.674857765  139.478897797   130.8481   5   8  30.0000  30.0000  30.0000   0.0000   0.0000  -0.0000   1.00    0.0
2018/05/16 03:43:44.000   35.674915784  139.478956176   124.5653   5   2  18.8277  25.9083  28.1734  18.7952 -12.4864  15.5165   1.00    0.0
2018/05/16 03:43:45.000   35.674842567  139.479307063   156.5283   5   7  30.0000  30.0000  30.0000   0.0000  -0.0000   0.0000   1.00    0.0
2018/05/16 03:43:46.000   35.675076796  139.479171678   114.9613   5   9  30.0000  30.0000  30.0000   0.0000   0.0000   0.0000   1.00    0.0
2018/05/16 03:43:47.000   35.675170932  139.479153828   134.6142   5   8  30.0000  30.0000  30.0000  -0.0000   0.0000   0.0000   1.00    0.0
2018/05/16 03:43:48.000   35.675347519  139.479118141   101.8237   5   9  30.0000  30.0000  30.0000   0.0000  -0.0000   0.0000   1.00    0.0
2018/05/16 03:43:49.000   35.675392244  139.479059945   117.2149   5   9  30.0000  30.0000  30.0000   0.0000  -0.0000   0.0000   1.00    0.0
2018/05/16 03:43:50.000   35.675406917  139.479140334   115.7969   5   9  30.0000  30.0000  30.0000   0.0000   0.0000   0.0000   1.00    0.0
2018/05/16 03:43:52.000   35.675663375  139.479232559   120.3915   5   8  30.0000  30.0000  30.0000  -0.0000  -0.0000   0.0000   1.00    0.0
2018/05/16 03:43:53.000   35.675740820  139.479260422   119.0922   5   9  30.0000  30.0000  30.0000   0.0000   0.0000   0.0000   1.00    0.0
2018/05/16 03:43:54.000   35.675932483  139.479211032   101.1643   5   3   6.0187  20.6843  21.1184 -10.4014 -20.8558  10.5747   1.00    0.0
2018/05/16 03:43:55.000   35.675832391  139.479218303   107.4828   5   3   5.0814  19.8411  22.4307   6.9994 -20.9893  -8.1171   1.00    0.0
2018/05/16 03:43:56.000   35.675921313  139.479107161   118.4909   5   2  29.4725  20.6773  22.4732 -11.0339 -20.7838 -10.5506   1.00    0.0
2018/05/16 03:43:57.000   35.676084851  139.479167074   112.8965   2   4   8.1773  18.3717  22.3484  12.1626 -20.1929 -13.4719   1.00    0.0
2018/05/16 03:43:58.000   35.676151727  139.479194217   110.1398   5   8  30.0000  30.0000  30.0000   0.0000   0.0000   0.0000   1.00    0.0
2018/05/16 03:43:59.000   35.676168855  139.479251008   119.8254   5   8  30.0000  30.0000  30.0000  -0.0000  -0.0000   0.0000   1.00    0.0
2018/05/16 03:44:00.000   35.676390150  139.479191383   101.4072   5   8  30.0000  30.0000  30.0000   0.0000   0.0000   0.0000   1.00    0.0
2018/05/16 03:44:01.000   35.676393691  139.479207588   105.6506   5   7  30.0000  30.0000  30.0000   0.0000  -0.0000  -0.0000   1.00    0.0
2018/05/16 03:44:02.000   35.676442839  139.479173311   106.7722   5   8  30.0000  30.0000  30.0000   0.0000  -0.0000  -0.0000   1.00    0.0
2018/05/16 03:44:03.000   35.676506086  139.479187688   103.6816   5   8  30.0000  30.0000  30.0000   0.0000   0.0000   0.0000   1.00    0.0
2018/05/16 03:44:04.000   35.676630989  139.479142256   110.3910   5   7  30.0000  30.0000  30.0000   0.0000   0.0000  -0.0000   1.00    0.0
2018/05/16 03:44:05.000   35.676674069  139.479030500   107.2904   5   2  26.2892  24.8258  22.2525  15.6020 -18.4088  17.0526   1.00    0.0
2018/05/16 03:44:06.000   35.676906453  139.479110524   115.9285   5   3   5.9759  20.7023  21.1122 -10.3588 -20.8625  10.5243   1.00    0.0
2018/05/16 03:44:07.000   35.676845970  139.479122430   115.5852   5   8  30.0000  30.0000  30.0000   0.0000   0.0000  -0.0000   1.00    0.0
2018/05/16 03:44:08.000   35.676929568  139.479290253    96.5230   5   8  30.0000  30.0000  30.0000   0.0000  -0.0000   0.0000   1.00    0.0
2018/05/16 03:44:09.000   35.677000947  139.479336005    98.5118   5   8  30.0000  30.0000  30.0000  -0.0000  -0.0000   0.0000   1.00    0.0
2018/05/16 03:44:10.000   35.677088223  139.479334162    93.5818   5   9  30.0000  30.0000  30.0000  -0.0000  -0.0000   0.0000   1.00    0.0
2018/05/16 03:44:11.000   35.677098714  139.479276770   108.0898   5  10  30.0000  30.0000  30.0000   0.0000   0.0000   0.0000   1.00    0.0
2018/05/16 03:44:12.000   35.677116781  139.479275513   105.2208   5   2  19.2685  25.8013  27.9810  18.7606 -12.8689  15.7729   1.00    0.0
2018/05/16 03:44:13.000   35.677188651  139.479294027   106.2850   5   9  30.0000  30.0000  30.0000   0.0000  -0.0000   0.0000   1.00    0.0
2018/05/16 03:44:14.000   35.677281066  139.479287709   101.2453   5   9  30.0000  30.0000  30.0000   0.0000   0.0000   0.0000   1.00    0.0
2018/05/16 03:44:15.000   35.677401730  139.479381529    98.1858   5   3   5.9444  20.7160  21.1079 -10.3273 -20.8671  10.4861   1.00    0.0
2018/05/16 03:44:16.000   35.677384435  139.479358511   105.3136   5   3   4.9903  19.8773  22.4221   6.7262 -21.0043  -7.8493   1.00    0.0
2018/05/16 03:44:17.000   35.677385480  139.479363337   107.3511   5   3   3.9983  19.8402  22.4059   6.9346 -21.0291  -7.7300   0.99    0.0
2018/05/16 03:44:18.000   35.677373508  139.479371568    99.7645   5   2  19.1583  25.7095  27.9058  18.8922 -13.0480  15.9444   0.99    0.0
2018/05/16 03:44:19.000   35.677482225  139.479418402    96.6818   5  10  30.0000  30.0000  30.0000   0.0000   0.0000   0.0000   0.99    0.0
2018/05/16 03:44:20.000   35.677469987  139.479396883   101.2940   5  10  30.0000  30.0000  30.0000  -0.0000  -0.0000   0.0000   0.99    0.0
2018/05/16 03:44:21.000   35.677341370  139.479496884   108.4588   5   3   5.0023  19.8884  22.4204   6.6455 -21.0065  -7.7898   0.99    0.0
2018/05/16 03:44:22.000   35.677557130  139.479382837   111.7797   5   9  30.0000  30.0000  30.0000   0.0000   0.0000  -0.0000   0.99    0.0
2018/05/16 03:44:23.000   35.677561607  139.479382724   104.9355   5   2  29.4277  20.7394  22.5006 -11.2433 -20.7393 -10.7571   0.99    0.0
2018/05/16 03:44:24.000   35.677615605  139.479400295   107.4521   5   3   4.1643  19.8579  22.4032   6.7928 -21.0317  -7.6598   0.99    0.0
2018/05/16 03:44:25.000   35.677633475  139.479363990   109.3283   5   9  30.0000  30.0000  30.0000   0.0000  -0.0000   0.0000   0.99    0.0
2018/05/16 03:44:26.000   35.677670554  139.479396101    99.5086   5   9  30.0000  30.0000  30.0000   0.0000  -0.0000   0.0000   0.99    0.0
2018/05/16 03:44:27.000   35.677738883  139.479442855    95.9450   5   9  30.0000  30.0000  30.0000  -0.0000   0.0000   0.0000   0.99    0.0
2018/05/16 03:44:28.000   35.677764913  139.479407251   106.7643   5   9  30.0000  30.0000  30.0000   0.0000   0.0000   0.0000   0.99    0.0
2018/05/16 03:44:29.000   35.677791001  139.479391692   107.4987   5   2  26.3819  24.7550  22.2217  15.5578 -18.4810  16.9664   0.99    0.0
2018/05/16 03:44:30.000   35.677837891  139.479435451   104.1784   5  10  30.0000  30.0000  30.0000   0.0000   0.0000   0.0000   0.99    0.0
2018/05/16 03:44:31.000   35.677857429  139.479456507   110.1726   5   9  30.0000  30.0000  30.0000   0.0000  -0.0000   0.0000   0.99    0.0
2018/05/16 03:44:32.000   35.677885622  139.479465825   111.4493   5   2  19.5873  25.7251  27.8353  18.7274 -13.1414  15.9452   0.99    0.0
2018/05/16 03:44:33.000   35.677951210  139.479531480   106.3569   5   2  24.9622  24.2061  24.3569 -17.1724 -17.6176 -17.0714   0.99    0.0
2018/05/16 03:44:34.000   35.678063092  139.479476061    97.6861   5   2  26.4008  24.7399  22.2149  15.5488 -18.4965  16.9487   0.99    0.0
2018/05/16 03:44:35.000   35.678081696  139.479509644    99.4833   5   9  30.0000  30.0000  30.0000   0.0000  -0.0000   0.0000   0.99    0.0
2018/05/16 03:44:36.000   35.677976091  139.479535050   115.2575   5   2  24.9609  24.2013  24.3637 -17.1765 -17.6161 -17.0677   0.99    0.0
2018/05/16 03:44:37.000   35.678131535  139.479591149   102.2558   5   2  24.9604  24.1995  24.3658 -17.1781 -17.6159 -17.0668   0.99    0.0
2018/05/16 03:44:38.000   35.678251360  139.479659342   105.0697   5   7  30.0000  30.0000  30.0000   0.0000   0.0000   0.0000   0.99    0.0
2018/05/16 03:44:39.000   35.677315549  139.480794498   418.0171   5   2  28.8921  10.0419  29.4159 -15.1110  12.9047   6.8980   0.99    0.0
2018/05/16 03:44:40.000   35.678354934  139.479805653   118.7392   5  10  30.0000  30.0000  30.0000   0.0000  -0.0000   0.0000   0.99    0.0
2018/05/16 03:44:41.000   35.678523318  139.479732306   101.2188   5   2  28.8957  10.0350  29.4149 -15.0999  12.9109   6.8956   0.99    0.0
2018/05/16 03:44:42.000   35.678610625  139.479807418   101.6184   5   2  23.2496  28.1436  21.8931 -14.0347  14.5977  19.7198   0.99    0.0
2018/05/16 03:44:43.000   35.678672297  139.479794579   102.4546   5   8  30.0000  30.0000  30.0000  -0.0000   0.0000  -0.0000   0.99    0.0
2018/05/16 03:44:44.000   35.678708951  139.479797093   104.9258   5   8  30.0000  30.0000  30.0000   0.0000   0.0000  -0.0000   0.99    0.0
2018/05/16 03:44:45.000   35.678737152  139.479902758   120.9713   5   7  30.0000  30.0000  30.0000   0.0000   0.0000   0.0000   0.99    0.0
2018/05/16 03:44:46.000   35.678970341  139.479843091   104.8034   5   8  30.0000  30.0000  30.0000   0.0000   0.0000   0.0000   0.99    0.0
2018/05/16 03:44:47.000   35.679132213  139.479735760    86.4943   5   7  30.0000  30.0000  30.0000   0.0000  -0.0000   0.0000   0.99    0.0
2018/05/16 03:44:48.000   35.679083277  139.479773966   105.0626   5   9  30.0000  30.0000  30.0000  -0.0000   0.0000   0.0000   0.99    0.0
2018/05/16 03:44:49.000   35.679210152  139.479746928   106.1566   5   8  30.0000  30.0000  30.0000   0.0000   0.0000   0.0000   0.99    0.0
2018/05/16 03:44:50.000   35.679272962  139.479763010   114.6987   5   2  10.2900  29.9998  28.1946  -1.7399  -1.0494 -16.9955   0.99    0.0
2018/05/16 03:44:51.000   35.679410163  139.479613796   106.5740   2   4   8.7849  15.6813  24.1558  11.5739 -19.3132 -14.5236   0.99   66.9
2018/05/16 03:44:52.000   35.679360004  139.479827539   108.4653   5   3   4.4640  19.9478  22.4023   6.2089 -21.0257  -7.3727   0.99    0.0
2018/05/16 03:44:53.000   35.679513682  139.479685026   113.6922   5   2  24.9431  24.1612  24.3898 -17.2168 -17.6249 -17.0637   0.99    0.0
2018/05/16 03:44:54.000   35.679636976  139.479678187   101.9929   5   2  19.9370  25.6401  27.6663  18.6855 -13.4419  16.1261   0.99    0.0
2018/05/16 03:44:55.000   35.679899568  139.479716040    92.3965   5   3   4.8780  19.9525  22.3994   6.1445 -21.0291  -7.3151   0.99    0.0
2018/05/16 03:44:56.000   35.679804643  139.479725127   116.5027   5   8  30.0000  30.0000  30.0000   0.0000   0.0000   0.0000   0.99    0.0
2018/05/16 03:44:57.000   35.679898799  139.479752295   121.2270   5   9  30.0000  30.0000  30.0000   0.0000   0.0000   0.0000   0.99    0.0
2018/05/16 03:44:58.000   35.680039644  139.479715511   101.6960   5   7  30.0000  30.0000  30.0000   0.0000   0.0000  -0.0000   0.99    0.0
2018/05/16 03:44:59.000   35.680094752  139.479695193   115.4829   5   7  30.0000  30.0000  30.0000   0.0000   0.0000   0.0000   0.99    0.0
2018/05/16 03:45:00.000   35.680174172  139.479764344   129.1569   5   2  10.2873  29.9998  28.1957  -1.8558  -1.1191 -16.9934   0.99    0.0
2018/05/16 03:45:01.000   35.680350593  139.479614605   102.3041   5   2  10.2699  29.9997  28.1949  -1.8673  -1.1260 -16.9970   0.99    0.0
2018/05/16 03:45:02.000   35.680463022  139.479659207    94.5846   2   4   8.1277  18.2975  22.4285  12.0983 -20.1867 -13.4547   0.99    0.0
2018/05/16 03:45:03.000   35.680549590  139.479735567    90.6660   2   5   4.6129  10.2951  13.0442   6.7566 -11.5289  -7.6763   0.99    2.8
2018/05/16 03:45:04.000   35.680647940  139.479576060    86.1783   5   2  10.2689  29.9997  28.1952  -1.9004  -1.1459 -16.9965   0.99    0.0
2018/05/16 03:45:05.000   35.680719045  139.479686057   108.0766   5   6  30.0000  30.0000  30.0000   0.0000  -0.0000  -0.0000   0.99    0.0
2018/05/16 03:45:06.000   35.680823285  139.479586831   105.3276   5   8  30.0000  30.0000  30.0000   0.0000   0.0000   0.0000   0.99    0.0
2018/05/16 03:45:07.000   35.680897550  139.479650778   105.4179   5   8  30.0000  30.0000  30.0000   0.0000   0.0000  -0.0000   0.99    0.0
2018/05/16 03:45:08.000   35.680999049  139.479620144    99.3290   5   8  30.0000  30.0000  30.0000   0.0000   0.0000  -0.0000   0.99    0.0
2018/05/16 03:45:09.000   35.681102291  139.479534799   100.2999   5   2  24.9451  24.1451  24.4353 -17.2258 -17.6035 -17.0310   0.99    0.0
2018/05/16 03:45:10.000   35.681201769  139.479519719   103.5547   5   2  24.9375  24.1350  24.4295 -17.2384 -17.6145 -17.0409   0.99    0.0
2018/05/16 03:45:11.000   35.681318117  139.479520703   104.1273   5   9  30.0000  30.0000  30.0000   0.0000   0.0000   0.0000   0.99    0.0
2018/05/16 03:45:12.000   35.681353253  139.479639754   123.0434   5   8  30.0000  30.0000  30.0000   0.0000  -0.0000   0.0000   0.99    0.0
2018/05/16 03:45:13.000   35.681485529  139.479496391   108.8141   5   7  30.0000  30.0000  30.0000   0.0000   0.0000   0.0000   0.99    0.0
2018/05/16 03:45:14.000   35.681541632  139.479514747   125.5755   5   8  30.0000  30.0000  30.0000   0.0000   0.0000   0.0000   0.99    0.0
2018/05/16 03:45:16.000   35.681858328  139.479269735    87.6310   5   6  30.0000  30.0000  30.0000   0.0000   0.0000   0.0000   0.99    0.0
2018/05/16 03:45:17.000   35.681916543  139.479309475    95.0815   5   5  30.0000  30.0000  30.0000   0.0000   0.0000   0.0000   0.99    0.0
2018/05/16 03:45:18.000   35.681995679  139.479345602    99.3026   5   9  30.0000  30.0000  30.0000   0.0000   0.0000  -0.0000   0.99    0.0
2018/05/16 03:45:19.000   35.682105757  139.479405288    97.4670   5   2  29.3295  20.8390  22.5367 -11.6667 -20.6720 -11.1753   0.99    0.0
2018/05/16 03:45:20.000   35.682176532  139.479275418   104.7350   5   3   4.5925  19.9734  22.3630   5.8633 -21.0665  -6.8457   0.99    0.0
2018/05/16 03:45:21.000   35.682266424  139.479372248   109.7928   5   9  30.0000  30.0000  30.0000   0.0000   0.0000  -0.0000   0.99    0.0
2018/05/16 03:45:22.000   35.682320095  139.479490024   137.7650   5   8  30.0000  30.0000  30.0000   0.0000  -0.0000   0.0000   0.99    0.0
2018/05/16 03:45:23.000   35.682439292  139.479323775   106.3843   5   9  30.0000  30.0000  30.0000   0.0000   0.0000  -0.0000   0.99    0.0
2018/05/16 03:45:24.000   35.682509011  139.479425781   128.0476   5   6  30.0000  30.0000  30.0000   0.0000   0.0000   0.0000   0.99    0.0
2018/05/16 03:45:25.000   35.682549403  139.479454369   137.7531   5   7  30.0000  30.0000  30.0000   0.0000   0.0000   0.0000   0.99    0.0
2018/05/16 03:45:26.000   35.682815354  139.479380042   100.3118   5   8  30.0000  30.0000  30.0000   0.0000   0.0000   0.0000   0.99    0.0
2018/05/16 03:45:27.000   35.682716638  139.479295095   134.1057   5  10  30.0000  30.0000  30.0000   0.0000  -0.0000  -0.0000   0.99    0.0
2018/05/16 03:45:28.000   35.682980643  139.479395588   105.9537   5   8  30.0000  30.0000  30.0000   0.0000  -0.0000   0.0000   0.99    0.0
2018/05/16 03:45:29.000   35.683078260  139.479276337   100.4200   2   4   3.1074   1.0355   2.3001  -1.4722  -1.1785   1.9233   0.99    0.0
2018/05/16 03:45:30.000   35.683169059  139.479456996    88.0753   2   7   1.1095   3.4281   3.3593   1.6737  -3.2800  -1.6913   0.99    0.0
2018/05/16 03:45:31.000   35.683258335  139.479478651    86.3117   2   6   1.5719   5.2021   5.1545   2.7314  -5.0986  -2.6970   0.99    0.0
2018/05/16 03:45:32.000   35.683280207  139.479373505   109.1254   5   2  28.9862   9.8318  29.3896 -14.8047  13.0632   6.8234   0.99    0.0
2018/05/16 03:45:33.000   35.683421945  139.479327384    87.6728   5  10  30.0000  30.0000  30.0000   0.0000  -0.0000  -0.0000   0.99    0.0
2018/05/16 03:45:34.000   35.683469712  139.479368813   101.4877   5  10  30.0000  30.0000  30.0000   0.0000  -0.0000   0.0000   0.99    0.0
2018/05/16 03:45:35.000   35.683611111  139.479560346    81.3115   2   6   1.4049   4.3533   4.2596   2.0730  -4.1319  -2.1773   0.99    0.0
2018/05/16 03:45:36.000   35.683664341  139.479331518   103.5033   5   3   2.1113  19.9717  22.3340   5.9818 -21.0977  -6.3585   0.99    0.0
2018/05/16 03:45:37.000   35.683701142  139.479345083   105.2374   5   2  24.9212  24.0843  24.4838 -17.2840 -17.6094 -17.0158   0.99    0.0
2018/05/16 03:45:38.000   35.683729572  139.479321510   103.5689   5  10  30.0000  30.0000  30.0000   0.0000   0.0000  -0.0000   0.99    0.0
2018/05/16 03:45:39.000   35.683778916  139.479300698   101.4584   5   2  26.6463  24.5459  22.1365  15.4186 -18.6879  16.7057   0.99    0.0
2018/05/16 03:45:40.000   35.683839096  139.479321163   102.0930   2   5   1.7515   0.9242   1.7735  -0.9971  -1.0119   1.1787   0.99    0.0
2018/05/16 03:45:41.000   35.683849521  139.479318082   102.3551   2   5   0.9698   0.5910   1.1261   0.0770  -0.4993  -0.3625   0.99    0.0
2018/05/16 03:45:42.000   35.683852591  139.479317919   102.3095   2   4   0.8691   0.6218   1.0309  -0.1677  -0.5622  -0.2658   0.99    0.0
2018/05/16 03:45:43.000   35.683860112  139.479317516   101.8201   2   4   0.7929   0.6218   0.9576  -0.1808  -0.5743  -0.2214   0.99    0.0
2018/05/16 03:45:44.000   35.683749161  139.479175288   114.0231   2   7   1.0711   0.8755   1.5347   0.6584  -0.4643  -1.0627   0.99   27.9
2018/05/16 03:45:45.000   35.683746122  139.479208405   112.9220   1   7   0.2420   0.5472   0.6758   0.3636  -0.6079  -0.4043   0.99    7.9
2018/05/16 03:45:46.000   35.683739248  139.479208136   113.7936   2   8   0.5648   0.4388   0.9488   0.2541  -0.2769  -0.5930   0.99    1.8
2018/05/16 03:45:47.000   35.683729488  139.479205183   114.4267   2   9   0.4651   0.3498   0.8268   0.1586  -0.2204  -0.5017   0.99    2.1
2018/05/16 03:45:48.000   35.683728433  139.479201614   114.9457   2   9   0.4071   0.3015   0.7435   0.1122  -0.1916  -0.4445   0.99    2.5
2018/05/16 03:45:49.000   35.683731603  139.479199888   115.2593   2   9   0.3672   0.2696   0.6814   0.0840  -0.1727  -0.4038   0.99    2.2
2018/05/16 03:45:50.000   35.683716264  139.479159068   119.8389   2   8   0.4112   0.5863   0.9188   0.3580  -0.6167  -0.5408   0.99    2.6
2018/05/16 03:45:51.000   35.683705104  139.479138185   122.1339   2   8   0.3527   0.4200   0.7426   0.2392  -0.4239  -0.4338   0.99    2.3
2018/05/16 03:45:52.000   35.683718600  139.479161023   119.7890   2   7   0.3350   0.3887   0.6878   0.2252  -0.3856  -0.4061   0.99    1.4
2018/05/16 03:45:53.000   35.683739887  139.479289691   107.7181   5   3   1.6552  19.9983  22.3062   5.6965 -21.1174  -6.0243   0.99    0.0
2018/05/16 03:45:54.000   35.683762978  139.479306655   106.8961   5   3   1.6445  20.0005  22.3049   5.6781 -21.1181  -6.0042   0.99    0.0
2018/05/16 03:45:55.000   35.683783489  139.479298556   108.5718   5   3   1.6338  20.0027  22.3035   5.6596 -21.1188  -5.9840   0.99    0.0
2018/05/16 03:45:56.000   35.683849595  139.479313289   103.7710   5   2  24.9089  24.0477  24.5217 -17.3172 -17.6064 -16.9987   0.99    0.0
2018/05/16 03:45:57.000   35.683953868  139.479319990   104.4452   5  10  30.0000  30.0000  30.0000   0.0000   0.0000   0.0000   0.99    0.0
2018/05/16 03:45:58.000   35.683929752  139.479331112   109.4620   5  10  30.0000  30.0000  30.0000   0.0000   0.0000   0.0000   0.99    0.0
2018/05/16 03:45:59.000   35.684004130  139.479276303   114.6497   5   2  29.2562  20.9110  22.5649 -11.9504 -20.6219 -11.4564   0.99    0.0
2018/05/16 03:46:00.000   35.684081660  139.479369652   104.7499   5   2  29.2533  20.8985  22.5543 -11.9651 -20.6340 -11.4707   0.99    0.0
2018/05/16 03:46:01.000   35.684135787  139.479337219   114.5884   5   2  24.9207  24.0557  24.5476 -17.3030 -17.5823 -16.9717   0.99    0.0
2018/05/16 03:46:02.000   35.684244184  139.479446104   102.6175   5   2  29.2506  20.9163  22.5668 -11.9712 -20.6182 -11.4770   0.99    0.0
2018/05/16 03:46:03.000   35.684288322  139.479356968   105.9637   5  10  30.0000  30.0000  30.0000   0.0000  -0.0000   0.0000   0.99    0.0
2018/05/16 03:46:04.000   35.684344080  139.479373939   106.0191   5   9  30.0000  30.0000  30.0000  -0.0000   0.0000   0.0000   0.99    0.0
2018/05/16 03:46:05.000   35.684463839  139.479361119   106.9488   5   2  26.7432  24.4685  22.1071  15.3612 -18.7621  16.6039   0.99    0.0
2018/05/16 03:46:06.000   35.684515214  139.479349111   107.2151   2   4   8.7731  15.3922  24.3436  11.4562 -19.2076 -14.5697   0.99    0.0
2018/05/16 03:46:07.000   35.684612447  139.479419581   108.5395   5   2  10.2519  29.9992  28.2020  -2.4999  -1.5058 -16.9827   0.99    0.0
2018/05/16 03:46:08.000   35.684710856  139.479506923   114.9367   5   9  30.0000  30.0000  30.0000   0.0000   0.0000  -0.0000   0.99    0.0
2018/05/16 03:46:09.000   35.684803000  139.479572342   121.1242   5   9  30.0000  30.0000  30.0000   0.0000   0.0000   0.0000   0.99    0.0
2018/05/16 03:46:10.000   35.684906255  139.479492875   118.3112   5   2  10.2683  29.9991  28.2032  -2.5245  -1.5206 -16.9784   0.99    0.0
2018/05/16 03:46:11.000   35.685058208  139.479460716    99.8032   5   6  30.0000  30.0000  30.0000   0.0000   0.0000   0.0000   0.99    0.0
2018/05/16 03:46:13.000   35.685203534  139.479531894   112.7541   5   7  30.0000  30.0000  30.0000   0.0000   0.0000   0.0000   0.99    0.0
2018/05/16 03:46:14.000   35.685388216  139.479457890    88.7759   5   7  30.0000  30.0000  30.0000   0.0000   0.0000   0.0000   0.99    0.0
2018/05/16 03:46:15.000   35.685455742  139.479465487   102.7424   5   6  30.0000  30.0000  30.0000   0.0000   0.0000   0.0000   0.99    0.0
2018/05/16 03:46:16.000   35.685524605  139.479479863   106.2173   5   9  30.0000  30.0000  30.0000   0.0000   0.0000   0.0000   0.99    0.0
2018/05/16 03:46:17.000   35.685614326  139.479559680   105.2022   5   9  30.0000  30.0000  30.0000   0.0000   0.0000   0.0000   0.99    0.0
2018/05/16 03:46:18.000   35.685700317  139.479531677   111.7081   5   7  30.0000  30.0000  30.0000   0.0000   0.0000   0.0000   0.99    0.0
2018/05/16 03:46:19.000   35.685808036  139.479551891   109.8488   5   8  30.0000  30.0000  30.0000   0.0000   0.0000   0.0000   0.99    0.0
2018/05/16 03:46:20.000   35.685878192  139.479494745   103.9352   5   2  26.7982  24.4234  22.0904  15.3275 -18.8047  16.5448   0.99    0.0
2018/05/16 03:46:21.000   35.685949447  139.479488932   102.9261   5   3   5.3338  20.8795  21.0546  -9.8454 -20.9327   9.9850   0.99    0.0
2018/05/16 03:46:23.000   35.685989232  139.479548911    92.8421   2   5   1.5489   0.8881   1.5221  -0.8901  -0.9565   1.0466   0.99    0.0
2018/05/16 03:46:24.000   35.686113842  139.479169752   128.8774   2   4   2.6260  12.6977  12.6350  -5.4802 -12.6489   5.4654   0.99    0.0
2018/05/16 03:46:25.000   35.686098443  139.479425891   104.2991   2   4   1.8955   9.5150   9.4891  -3.9109  -9.4315   3.9190   0.99    0.0
2018/05/16 03:46:26.000   35.686086447  139.479568014    93.8050   2   5   1.9590   0.9388   1.9116  -1.0770  -0.9143   0.8358   0.99    1.5
2018/05/16 03:46:28.000   35.686081496  139.479586685    89.1262   1   8   0.0449   0.4089   0.4538   0.1005  -0.4303  -0.1093   0.99    8.2
2018/05/16 03:46:29.000   35.686076511  139.479573821    93.0662   2   7   0.6326   0.3682   0.9292  -0.2757  -0.2142  -0.4319   0.99    1.1
2018/05/16 03:46:30.000   35.686079974  139.479560348    96.0118   1   7   0.0321   0.2965   0.3292   0.0728  -0.3120  -0.0795   0.99   43.9
2018/05/16 03:46:31.000   35.686089406  139.479550757    97.7369   2   7   0.4763   0.2821   0.7359  -0.1870  -0.1744  -0.3692   0.99    2.2
2018/05/16 03:46:32.000   35.686099308  139.479496471   103.8114   2   7   0.4367   0.6015   0.9155   0.0392  -0.6023  -0.3886   0.99    1.1
2018/05/16 03:46:33.000   35.686109081  139.479496839   103.9964   2   7   0.4016   0.4303   0.7531  -0.0810  -0.4151  -0.3496   0.99    1.4
2018/05/16 03:46:34.000   35.686116180  139.479495953   103.9099   2   9   0.3735   0.3533   0.6674  -0.0901  -0.3307  -0.3281   0.99    1.2
2018/05/16 03:46:35.000   35.686122395  139.479491774   104.1524   2   9   0.3509   0.3070   0.6105  -0.0912  -0.2805  -0.3108   0.99    1.7
