% (lat/lon/height=WGS84/ellipsoidal,Q=1:fix,2:float,3:sbas,4:dgps,5:single,6:ppp,ns=# of satellites)
%  GPST                  latitude(deg) longitude(deg)  height(m)   Q  ns   sdn(m)   sde(m)   sdu(m)  sdne(m)  sdeu(m)  sdun(m) age(s)  ratio
2018/05/16 03:11:52.000   35.671758228  139.481171263   325.1852   5   4  65.7022   3.7282  59.4949 -10.0264   8.9294 -61.8593   0.00    0.0
2018/05/16 03:11:53.000   35.671539540  139.481174287   348.4820   5   4  65.6094   3.7306  59.4105 -10.0378   8.9403 -61.7698   0.00    0.0
2018/05/16 03:11:54.000   35.672057569  139.481162190   291.7048   5   4  65.5174   3.7331  59.3252 -10.0493   8.9510 -61.6802   0.00    0.0
2018/05/16 03:11:55.000   35.671514743  139.481188576   344.5388   5   4  65.4249   3.7355  59.2418 -10.0605   8.9616 -61.5914   0.00    0.0
2018/05/16 03:11:56.000   35.671732291  139.481202083   321.0209   5   4  65.3331   3.7380  59.1575 -10.0716   8.9720 -61.5024   0.00    0.0
2018/05/16 03:11:57.000   35.671712249  139.481199059   318.9352   5   4  65.2415   3.7405  59.0737 -10.0827   8.9825 -61.4138   0.00    0.0
2018/05/16 03:11:58.000   35.671595834  139.481197821   333.9675   5   4  65.1500   3.7429  58.9903 -10.0937   8.9928 -61.3254   0.00    0.0
2018/05/16 03:11:58.999   35.671506066  139.481206447   341.2247   5   4  65.0589   3.7454  58.9071 -10.1046   9.0030 -61.2373   0.00    0.0
2018/05/16 03:12:00.000   35.671275662  139.481218590   362.0331   5   4  64.9677   3.7478  58.8242 -10.1153   9.0132 -61.1495   0.00    0.0
2018/05/16 03:12:51.000   35.673430835  139.481040961   135.7527   5   5  10.4123   3.3636   9.4406   1.7633  -3.8623  -3.9468   0.00    0.0
2018/05/16 03:12:52.000   35.673410972  139.481007495   136.1580   5   5  10.4122   3.3636   9.4415   1.7600  -3.8627  -3.9471   0.00    0.0
2018/05/16 03:12:53.000   35.673371730  139.480978964   137.0539   5   5  10.4120   3.3636   9.4425   1.7567  -3.8631  -3.9475   0.00    0.0
2018/05/16 03:12:54.000   35.673339013  139.480958660   135.7962   5   5  10.4119   3.3636   9.4434   1.7534  -3.8635  -3.9478   0.00    0.0
2018/05/16 03:13:00.000   35.673417223  139.480936644   116.5961   5   5  10.4112   3.3637   9.4490   1.7336  -3.8657  -3.9499   0.00    0.0
2018/05/16 03:13:01.000   35.673454271  139.480946521   110.4966   5   5  10.4111   3.3637   9.4500   1.7303  -3.8661  -3.9502   0.00    0.0
2018/05/16 03:13:02.000   35.673442380  139.480968822   109.7047   5   5  10.4110   3.3638   9.4509   1.7270  -3.8665  -3.9505   0.00    0.0
2018/05/16 03:13:03.000   35.673447423  139.480994058   103.0310   5   5  10.4109   3.3638   9.4518   1.7236  -3.8669  -3.9509   0.00    0.0
2018/05/16 03:13:04.000   35.673559556  139.480967941   101.6732   5   5  10.4108   3.3638   9.4528   1.7203  -3.8673  -3.9512   0.00    0.0
2018/05/16 03:13:05.000   35.673529614  139.480956164   104.3239   5   5  10.4107   3.3638   9.4537   1.7169  -3.8676  -3.9516   0.00    0.0
2018/05/16 03:13:06.000   35.673485254  139.480952993    99.8326   5   5  10.4106   3.3638   9.4546   1.7136  -3.8680  -3.9519   0.00    0.0
2018/05/16 03:13:07.000   35.673459545  139.480945572    96.8172   5   5  10.4104   3.3639   9.4556   1.7102  -3.8684  -3.9522   0.00    0.0
2018/05/16 03:13:08.000   35.673431198  139.480918764   112.7104   5   5  10.4103   3.3639   9.4565   1.7068  -3.8688  -3.9526   0.00    0.0
2018/05/16 03:13:09.000   35.673478499  139.480901019   115.9716   5   5  10.4102   3.3639   9.4574   1.7035  -3.8691  -3.9529   0.00    0.0
2018/05/16 03:13:10.000   35.673490276  139.480896157   113.5278   5   5  10.4101   3.3639   9.4584   1.7001  -3.8695  -3.9532   0.00    0.0
2018/05/16 03:13:11.000   35.673487596  139.480845210   128.0413   5   5  10.4100   3.3639   9.4593   1.6967  -3.8699  -3.9536   0.00    0.0
2018/05/16 03:13:12.000   35.673521557  139.480845801   120.8903   5   5  10.4099   3.3640   9.4602   1.6933  -3.8703  -3.9539   0.00    0.0
2018/05/16 03:13:13.000   35.673548075  139.480829953   130.9509   5   5  10.4097   3.3640   9.4611   1.6899  -3.8707  -3.9542   0.00    0.0
2018/05/16 03:13:14.000   35.673495056  139.480815070   135.4652   5   5  10.4096   3.3640   9.4621   1.6865  -3.8710  -3.9546   0.00    0.0
2018/05/16 03:13:15.000   35.673472832  139.480805099   138.7803   5   5  10.4095   3.3640   9.4630   1.6830  -3.8714  -3.9549   0.00    0.0
2018/05/16 03:13:16.000   35.673427703  139.480817104   138.5104   5   5  10.4094   3.3641   9.4640   1.6796  -3.8718  -3.9553   0.00    0.0
2018/05/16 03:13:17.000   35.673392941  139.480826944   137.5312   5   5  10.4093   3.3641   9.4649   1.6762  -3.8722  -3.9556   0.00    0.0
2018/05/16 03:13:18.000   35.673397376  139.480825939   136.8104   5   5  10.4092   3.3641   9.4658   1.6728  -3.8726  -3.9559   0.00    0.0
2018/05/16 03:13:19.000   35.673364766  139.480834686   141.1567   5   5  10.4091   3.3641   9.4668   1.6693  -3.8729  -3.9563   0.00    0.0
2018/05/16 03:13:38.000   35.673719688  139.480935047   164.7238   5   5  10.4068   3.3647   9.4844   1.6029  -3.8801  -3.9624   0.00    0.0
2018/05/16 03:13:39.000   35.673761030  139.480932346   163.0183   5   5  10.4067   3.3647   9.4853   1.5993  -3.8805  -3.9627   0.00    0.0
2018/05/16 03:13:40.000   35.673837753  139.480944763   152.1780   5   5  10.4066   3.3648   9.4862   1.5958  -3.8809  -3.9630   0.00    0.0
2018/05/16 03:13:41.000   35.673846955  139.480938420   147.9480   5   5  10.4064   3.3648   9.4871   1.5922  -3.8812  -3.9633   0.00    0.0
2018/05/16 03:13:42.000   35.673810289  139.480929226   149.8770   5   5  10.4063   3.3648   9.4881   1.5886  -3.8816  -3.9636   0.00    0.0
2018/05/16 03:13:43.000   35.673754924  139.480935099   145.6842   5   5  10.4062   3.3649   9.4890   1.5850  -3.8820  -3.9639   0.00    0.0
2018/05/16 03:13:44.000   35.673716473  139.480951744   141.0277   5   5  10.4061   3.3649   9.4899   1.5813  -3.8824  -3.9643   0.00    0.0
2018/05/16 03:13:45.000   35.673630463  139.480957785   132.2703   5   5  10.4060   3.3649   9.4909   1.5777  -3.8828  -3.9646   0.00    0.0
2018/05/16 03:13:46.000   35.673618074  139.480965387   128.2462   5   5  10.4059   3.3650   9.4918   1.5741  -3.8831  -3.9649   0.00    0.0
2018/05/16 03:13:52.000   35.673510996  139.480990194   107.1885   5   5  10.4052   3.3652   9.4974   1.5522  -3.8854  -3.9668   0.00    0.0
2018/05/16 03:13:53.000   35.673485678  139.481006149   113.1021   5   5  10.4050   3.3652   9.4983   1.5485  -3.8858  -3.9671   0.00    0.0
2018/05/16 03:13:54.000   35.673550225  139.480991011   112.1559   5   5  10.4049   3.3653   9.4992   1.5448  -3.8861  -3.9674   0.00    0.0
2018/05/16 03:13:56.000   35.673558199  139.480997035   110.7650   5   5  10.4047   3.3654   9.5011   1.5374  -3.8869  -3.9680   0.00    0.0
2018/05/16 03:13:57.000   35.673474777  139.481004631   121.2827   5   5  10.4046   3.3654   9.5020   1.5337  -3.8873  -3.9683   0.00    0.0
2018/05/16 03:13:58.000   35.673401393  139.480981566   133.6095   5   5  10.4044   3.3654   9.5029   1.5300  -3.8877  -3.9686   0.00    0.0
2018/05/16 03:13:59.000   35.673390044  139.480972175   135.4835   5   5  10.4043   3.3655   9.5038   1.5262  -3.8880  -3.9689   0.00    0.0
2018/05/16 03:14:00.000   35.673438502  139.480963536   134.3677   5   5  10.4042   3.3655   9.5048   1.5225  -3.8884  -3.9692   0.00    0.0
2018/05/16 03:14:01.000   35.673448814  139.480958157   128.0609   5   5  10.4041   3.3656   9.5057   1.5187  -3.8888  -3.9695   0.00    0.0
2018/05/16 03:14:02.000   35.673536154  139.480958630   123.2526   5   5  10.4039   3.3656   9.5066   1.5150  -3.8891  -3.9698   0.00    0.0
2018/05/16 03:14:03.000   35.673536873  139.480961627   118.7046   5   5  10.4038   3.3657   9.5075   1.5112  -3.8895  -3.9701   0.00    0.0
2018/05/16 03:14:04.000   35.673510973  139.480970333   111.8453   5   5  10.4037   3.3657   9.5084   1.5074  -3.8899  -3.9704   0.00    0.0
2018/05/16 03:14:05.000   35.673482648  139.480959685   115.1192   5   5  10.4036   3.3657   9.5094   1.5037  -3.8903  -3.9707   0.00    0.0
2018/05/16 03:14:06.000   35.673490155  139.480960897   114.7305   5   5  10.4034   3.3658   9.5103   1.4999  -3.8906  -3.9710   0.00    0.0
2018/05/16 03:14:07.000   35.673550559  139.480944129   109.3216   5   5  10.4033   3.3658   9.5112   1.4961  -3.8910  -3.9713   0.00    0.0
2018/05/16 03:14:08.000   35.673734576  139.480921017    84.3093   5   5  10.4032   3.3659   9.5121   1.4923  -3.8914  -3.9716   0.00    0.0
2018/05/16 03:14:09.000   35.673899980  139.480895584    69.3180   5   5  10.4030   3.3659   9.5130   1.4885  -3.8917  -3.9718   0.00    0.0
2018/05/16 03:14:10.000   35.673931710  139.480882365    66.8458   5   5  10.4029   3.3659   9.5139   1.4846  -3.8921  -3.9721   0.00    0.0
2018/05/16 03:14:11.000   35.673915094  139.480862125    63.9984   5   5  10.4027   3.3660   9.5148   1.4808  -3.8925  -3.9724   0.00    0.0
2018/05/16 03:14:12.000   35.673971084  139.480841615    65.4095   5   5  10.4026   3.3660   9.5157   1.4769  -3.8929  -3.9727   0.00    0.0
2018/05/16 03:14:13.000   35.673950501  139.480834016    66.2632   5   5  10.4025   3.3661   9.5167   1.4731  -3.8932  -3.9730   0.00    0.0
2018/05/16 03:14:14.000   35.673912137  139.480829855    68.8301   5   5  10.4024   3.3661   9.5176   1.4692  -3.8936  -3.9733   0.00    0.0
2018/05/16 03:14:15.000   35.673868188  139.480784751    87.4120   5   5  10.4022   3.3662   9.5185   1.4653  -3.8940  -3.9736   0.00    0.0
2018/05/16 03:14:16.000   35.673823689  139.480794363    94.4036   5   5  10.4021   3.3662   9.5194   1.4614  -3.8943  -3.9739   0.00    0.0
2018/05/16 03:14:17.000   35.673695961  139.480804976   100.3942   5   5  10.4020   3.3663   9.5204   1.4575  -3.8947  -3.9742   0.00    0.0
2018/05/16 03:14:18.000   35.673557437  139.480829043   106.6408   5   5  10.4019   3.3663   9.5213   1.4536  -3.8951  -3.9745   0.00    0.0
2018/05/16 03:14:19.000   35.673498393  139.480805596   127.4658   5   5  10.4018   3.3664   9.5222   1.4497  -3.8955  -3.9748   0.00    0.0
2018/05/16 03:14:20.000   35.673334753  139.480801481   136.9611   5   5  10.4017   3.3664   9.5232   1.4457  -3.8959  -3.9751   0.00    0.0
2018/05/16 03:14:21.000   35.673177724  139.480799858   147.6224   5   5  10.4016   3.3665   9.5241   1.4418  -3.8962  -3.9755   0.00    0.0
2018/05/16 03:14:22.000   35.673107462  139.480788528   165.0708   5   5  10.4014   3.3665   9.5251   1.4378  -3.8966  -3.9758   0.00    0.0
2018/05/16 03:14:23.000   35.673103889  139.480802441   173.3846   5   5  10.4013   3.3666   9.5260   1.4339  -3.8970  -3.9761   0.00    0.0
2018/05/16 03:14:24.000   35.673138762  139.480793642   180.2565   5   5  10.4012   3.3666   9.5269   1.4299  -3.8973  -3.9764   0.00    0.0
2018/05/16 03:14:25.000   35.673153749  139.480779770   182.8360   5   5  10.4011   3.3667   9.5278   1.4259  -3.8977  -3.9766   0.00    0.0
2018/05/16 03:14:26.000   35.673199899  139.480758212   179.0829   5   5  10.4009   3.3667   9.5287   1.4219  -3.8981  -3.9769   0.00    0.0
2018/05/16 03:14:27.000   35.673185840  139.480722832   185.8202   5   5  10.4008   3.3668   9.5296   1.4179  -3.8984  -3.9772   0.00    0.0
2018/05/16 03:14:28.000   35.673232044  139.480722704   185.3602   5   5  10.4007   3.3668   9.5305   1.4139  -3.8988  -3.9775   0.00    0.0
