%  GPST           x-ecef(m)      y-ecef(m)      z-ecef(m)   Q  ns   sdx(m)   sdy(m)   sdz(m)  sdxy(m)  sdyz(m)  sdzx(m) age(s)  ratio
2002 105442  -3943277.9464   3369951.3813   3699144.1814   5  15   4.5233   4.2348   3.5913  -3.6621   2.9546  -3.2859   0.00    0.0
2002 105443  -3943282.0151   3369953.0495   3699144.9922   2  15   0.9832   0.9216   0.7288  -0.8173   0.6373  -0.7027   0.99    1.2
2002 105444  -3943281.9378   3369953.1192   3699144.9992   2  15   0.7004   0.6570   0.5183  -0.5828   0.4539  -0.5005   0.99    1.5
2002 105445  -3943281.8028   3369952.9183   3699144.8490   2  15   0.5733   0.5379   0.4240  -0.4772   0.3715  -0.4096   0.99    1.5
2002 105446  -3943281.8128   3369952.7984   3699144.7951   2  15   0.4972   0.4664   0.3675  -0.4138   0.3221  -0.3552   0.99    1.5
2002 105447  -3943281.7675   3369952.6647   3699144.6709   2  15   0.4450   0.4175   0.3289  -0.3704   0.2883  -0.3179   0.99    1.5
2002 105448  -3943281.7366   3369952.5809   3699144.5874   2  15   0.4065   0.3813   0.3004  -0.3383   0.2633  -0.2903   0.99    1.5
2002 105449  -3943281.6980   3369952.4932   3699144.4601   2  15   0.3764   0.3531   0.2781  -0.3133   0.2438  -0.2689   0.99    1.5
2002 105450  -3943281.6951   3369952.4453   3699144.3732   2  15   0.3522   0.3303   0.2602  -0.2931   0.2281  -0.2515   0.99    1.4
2002 105451  -3943281.5929   3369952.6530   3699144.0777   2  16   0.3321   0.3103   0.2445  -0.2766   0.2163  -0.2369   0.99    1.3
2002 105452  -3943281.4910   3369952.6464   3699143.8643   2  15   0.3150   0.2936   0.2314  -0.2626   0.2060  -0.2246   0.99    1.4
2002 105453  -3943281.4120   3369952.5462   3699143.7335   2  16   0.3003   0.2793   0.2202  -0.2505   0.1971  -0.2141   0.99    1.5
2002 105454  -3943281.3812   3369952.4613   3699143.6855   2  15   0.2876   0.2675   0.2110  -0.2398   0.1885  -0.2050   0.99    1.3
2002 105455  -3943281.3405   3369952.3605   3699143.6222   2  15   0.2763   0.2571   0.2028  -0.2303   0.1809  -0.1969   0.99    1.3
2002 105456  -3943281.2644   3369952.2294   3699143.5508   2  15   0.2662   0.2479   0.1955  -0.2218   0.1741  -0.1898   0.99    1.3
2002 105457  -3943281.2117   3369952.1018   3699143.4805   2  15   0.2572   0.2395   0.1889  -0.2142   0.1681  -0.1833   0.99    1.3
2002 105458  -3943281.1726   3369951.9553   3699143.4069   2  15   0.2490   0.2319   0.1829  -0.2073   0.1626  -0.1775   0.99    1.4
2002 105459  -3943281.1164   3369951.8053   3699143.3178   2  15   0.2415   0.2250   0.1775  -0.2011   0.1576  -0.1722   0.99    1.3
2002 105460  -3943281.0588   3369951.6363   3699143.2320   2  15   0.2347   0.2186   0.1724  -0.1953   0.1531  -0.1673   0.99    1.2
2002 105461  -3943281.0130   3369951.4412   3699143.1872   2  15   0.2284   0.2125   0.1676  -0.1901   0.1492  -0.1627   0.99    1.3
2002 105462  -3943280.8311   3369951.2821   3699142.9622   2  16   0.2226   0.2067   0.1631  -0.1853   0.1457  -0.1585   0.99    1.3
2002 105463  -3943280.6165   3369951.0659   3699142.7165   2  16   0.2171   0.2015   0.1590  -0.1808   0.1423  -0.1546   0.99    1.2
2002 105464  -3943280.4414   3369950.9708   3699142.4762   2  16   0.2121   0.1966   0.1552  -0.1766   0.1392  -0.1510   0.99    1.1
2002 105465  -3943280.2684   3369950.8704   3699142.2431   2  16   0.2074   0.1920   0.1516  -0.1727   0.1362  -0.1476   0.99    1.0
2002 105466  -3943280.1337   3369950.7486   3699142.0659   2  16   0.2030   0.1877   0.1483  -0.1690   0.1334  -0.1444   0.99    1.0
2002 105467  -3943279.9927   3369950.6203   3699141.8850   2  16   0.1988   0.1837   0.1451  -0.1655   0.1308  -0.1414   0.99    1.0
2002 105468  -3943279.8961   3369950.5631   3699141.7498   2  16   0.1949   0.1799   0.1422  -0.1622   0.1283  -0.1385   0.99    1.0
2002 105469  -3943279.8187   3369950.5301   3699141.6436   2  16   0.1912   0.1763   0.1394  -0.1591   0.1259  -0.1359   0.99    1.1
2002 105470  -3943279.7474   3369950.5005   3699141.5363   2  16   0.1877   0.1730   0.1367  -0.1562   0.1237  -0.1334   0.99    1.1
2002 105471  -3943279.6670   3369950.4713   3699141.4441   2  16   0.1843   0.1698   0.1343  -0.1534   0.1216  -0.1310   0.99    1.1
2002 105472  -3943279.5913   3369950.4582   3699141.3558   2  16   0.1812   0.1667   0.1319  -0.1507   0.1195  -0.1287   0.99    1.1
2002 105473  -3943279.5158   3369950.4357   3699141.2808   2  16   0.1781   0.1638   0.1296  -0.1482   0.1176  -0.1265   0.99    1.0
2002 105474  -3943279.4344   3369950.3985   3699141.2111   2  16   0.1753   0.1611   0.1275  -0.1457   0.1157  -0.1244   0.99    1.0
2002 105475  -3943279.3634   3369950.3793   3699141.1501   2  15   0.1725   0.1584   0.1254  -0.1434   0.1139  -0.1224   0.99    1.0
2002 105476  -3943279.3089   3369950.3545   3699141.1121   2  16   0.1699   0.1559   0.1234  -0.1412   0.1122  -0.1205   0.99    1.0
2002 105477  -3943279.2665   3369950.3373   3699141.0833   2  16   0.1674   0.1535   0.1215  -0.1391   0.1105  -0.1187   0.99    1.0
2002 105478  -3943279.2296   3369950.3286   3699141.0656   2  16   0.1649   0.1512   0.1197  -0.1370   0.1089  -0.1170   0.99    1.0
2002 105479  -3943279.1902   3369950.2974   3699141.0513   2  16   0.1626   0.1490   0.1180  -0.1350   0.1074  -0.1153   0.99    1.0
2002 105480  -3943279.1834   3369950.3074   3699141.0609   2  16   0.1604   0.1468   0.1163  -0.1331   0.1060  -0.1137   0.99    1.0
2002 105481  -3943279.1694   3369950.3032   3699141.0728   2  16   0.1582   0.1448   0.1147  -0.1313   0.1045  -0.1121   0.99    1.0
2002 105482  -3943279.1487   3369950.2827   3699141.0811   2  16   0.1562   0.1428   0.1132  -0.1295   0.1032  -0.1106   0.99    1.1
2002 105483  -3943279.1285   3369950.2637   3699141.0915   2  16   0.1542   0.1408   0.1117  -0.1278   0.1018  -0.1092   0.99    1.1
2002 105484  -3943279.1193   3369950.2457   3699141.1028   2  16   0.1522   0.1390   0.1103  -0.1262   0.1005  -0.1078   0.99    1.1
2002 105485  -3943279.0789   3369950.2208   3699141.1032   2  16   0.1503   0.1372   0.1089  -0.1246   0.0993  -0.1064   0.99    1.1
2002 105486  -3943279.0473   3369950.1931   3699141.0998   2  16   0.1485   0.1355   0.1075  -0.1231   0.0981  -0.1052   0.99    1.1
2002 105487  -3943283.3213   3369945.4478   3699136.8131   2  16   0.1468   0.1338   0.1062  -0.1216   0.0969  -0.1039   0.99    1.1
2002 105488  -3943279.7123   3369950.7148   3699141.5000   2  16   0.1451   0.1322   0.1049  -0.1201   0.0958  -0.1026   0.99    1.0
2002 105489  -3943279.6530   3369950.6760   3699141.4882   2  16   0.1435   0.1306   0.1037  -0.1187   0.0947  -0.1014   0.99    1.0
2002 105490  -3943279.6040   3369950.6459   3699141.4799   2  16   0.1419   0.1291   0.1025  -0.1173   0.0936  -0.1003   0.99    1.0
2002 105491  -3943279.5510   3369950.6101   3699141.4709   2  16   0.1403   0.1276   0.1014  -0.1160   0.0926  -0.0992   0.99    1.0
2002 105492  -3943279.5028   3369950.5700   3699141.4582   2  16   0.1388   0.1261   0.1002  -0.1147   0.0916  -0.0981   0.99    1.0
2002 105493  -3943279.4660   3369950.5397   3699141.4560   2  16   0.1373   0.1247   0.0992  -0.1134   0.0906  -0.0970   0.99    1.0
2002 105494  -3943279.4336   3369950.5071   3699141.4590   2  16   0.1359   0.1234   0.0981  -0.1122   0.0896  -0.0960   0.99    1.0
2002 105495  -3943279.4079   3369950.4798   3699141.4570   2  15   0.1345   0.1220   0.0970  -0.1110   0.0886  -0.0950   0.99    1.0
2002 105496  -3943279.3877   3369950.4544   3699141.4529   2  16   0.1332   0.1207   0.0960  -0.1098   0.0877  -0.0940   0.99    1.0
2002 105497  -3943279.3648   3369950.4387   3699141.4488   2  16   0.1318   0.1194   0.0950  -0.1087   0.0868  -0.0930   0.99    1.1
2002 105498  -3943279.3396   3369950.4233   3699141.4425   2  16   0.1306   0.1182   0.0941  -0.1075   0.0860  -0.0921   0.99    1.1
2002 105499  -3943279.3220   3369950.4233   3699141.4501   2  16   0.1293   0.1170   0.0931  -0.1065   0.0851  -0.0912   0.99    1.1
2002 105500  -3943279.3293   3369950.4489   3699141.4662   2  16   0.1281   0.1158   0.0922  -0.1054   0.0843  -0.0903   0.99    1.1
2002 105501  -3943279.3260   3369950.4626   3699141.4729   2  16   0.1269   0.1147   0.0913  -0.1043   0.0835  -0.0894   0.99    1.1
2002 105502  -3943279.3307   3369950.4848   3699141.4838   2  16   0.1257   0.1135   0.0905  -0.1033   0.0827  -0.0885   0.99    1.1
2002 105503  -3943279.3328   3369950.5024   3699141.5065   2  16   0.1246   0.1124   0.0896  -0.1023   0.0819  -0.0877   0.99    1.1
2002 105504  -3943279.3646   3369950.5347   3699141.5383   2  16   0.1235   0.1114   0.0888  -0.1014   0.0811  -0.0869   0.99    1.1
2002 105505  -3943279.3959   3369950.5716   3699141.5725   2  16   0.1224   0.1103   0.0879  -0.1004   0.0804  -0.0861   0.99    1.1
2002 105506  -3943279.4386   3369950.6184   3699141.6083   2  16   0.1213   0.1093   0.0871  -0.0995   0.0796  -0.0853   0.99    1.1
2002 105507  -3943279.4765   3369950.6489   3699141.6440   2  16   0.1203   0.1082   0.0863  -0.0986   0.0789  -0.0846   0.99    1.0
2002 105508  -3943279.5122   3369950.6845   3699141.6756   2  16   0.1192   0.1072   0.0856  -0.0977   0.0782  -0.0838   0.99    1.0
2002 105509  -3943279.5622   3369950.7216   3699141.7142   2  16   0.1183   0.1063   0.0848  -0.0968   0.0775  -0.0831   0.99    1.0
2002 105510  -3943279.6069   3369950.7603   3699141.7490   2  16   0.1173   0.1053   0.0841  -0.0959   0.0768  -0.0824   0.99    1.0
2002 105511  -3943279.6578   3369950.8086   3699141.7889   2  16   0.1163   0.1044   0.0834  -0.0951   0.0762  -0.0817   0.99    1.0
2002 105512  -3943279.6920   3369950.8382   3699141.8223   2  16   0.1154   0.1035   0.0827  -0.0942   0.0755  -0.0810   0.99    1.0
2002 105513  -3943279.7308   3369950.8790   3699141.8653   2  16   0.1144   0.1026   0.0820  -0.0934   0.0749  -0.0803   0.99    1.0
2002 105514  -3943279.7703   3369950.9048   3699141.9063   2  16   0.1135   0.1017   0.0813  -0.0926   0.0742  -0.0796   0.99    1.0
2002 105515  -3943279.8051   3369950.9245   3699141.9460   2  16   0.1126   0.1008   0.0806  -0.0918   0.0736  -0.0790   0.99    1.0
2002 105516  -3943279.8388   3369950.9417   3699141.9866   2  16   0.1118   0.0999   0.0800  -0.0911   0.0730  -0.0783   0.99    1.0
2002 105517  -3943279.8818   3369950.9674   3699142.0359   2  16   0.1109   0.0991   0.0793  -0.0903   0.0724  -0.0777   0.99    1.0
2002 105518  -3943279.9208   3369950.9911   3699142.0824   2  16   0.1101   0.0983   0.0787  -0.0895   0.0718  -0.0771   0.99    1.0
2002 105519  -3943279.9674   3369951.0218   3699142.1356   2  16   0.1092   0.0975   0.0780  -0.0888   0.0712  -0.0764   0.99    1.0
2002 105520  -3943280.0104   3369951.0414   3699142.1806   2  16   0.1084   0.0967   0.0774  -0.0881   0.0706  -0.0758   0.99    1.0
2002 105521  -3943280.0530   3369951.0613   3699142.2258   2  16   0.1076   0.0959   0.0768  -0.0874   0.0701  -0.0752   0.99    1.0
2002 105522  -3943280.1131   3369951.0853   3699142.2789   2  16   0.1068   0.0951   0.0762  -0.0867   0.0695  -0.0747   0.99    1.0
2002 105523  -3943280.1594   3369951.1045   3699142.3289   2  15   0.1060   0.0943   0.0756  -0.0859   0.0689  -0.0740   0.99    1.1
2002 105524  -3943280.2129   3369951.1295   3699142.3837   2  16   0.1052   0.0936   0.0750  -0.0852   0.0684  -0.0735   0.99    1.1
2002 105525  -3943280.2671   3369951.1471   3699142.4289   2  16   0.1045   0.0928   0.0745  -0.0845   0.0679  -0.0729   0.99    1.1
2002 105526  -3943280.3298   3369951.1769   3699142.4813   2  16   0.1038   0.0921   0.0739  -0.0839   0.0674  -0.0724   0.99    1.1
2002 105527  -3943280.3843   3369951.1990   3699142.5282   2  16   0.1030   0.0914   0.0734  -0.0832   0.0668  -0.0718   0.99    1.1
2002 105528  -3943280.4382   3369951.2258   3699142.5745   2  16   0.1023   0.0907   0.0728  -0.0826   0.0663  -0.0713   0.99    1.1
2002 105529  -3943280.4933   3369951.2454   3699142.6187   2  16   0.1016   0.0900   0.0723  -0.0820   0.0658  -0.0708   0.99    1.1
2002 105530  -3943280.5393   3369951.2701   3699142.6609   2  16   0.1009   0.0893   0.0718  -0.0813   0.0654  -0.0703   0.99    1.1
2002 105531  -3943280.5860   3369951.2838   3699142.7002   2  16   0.1003   0.0886   0.0713  -0.0807   0.0649  -0.0698   0.99    1.2
2002 105532  -3943280.6365   3369951.3046   3699142.7462   2  16   0.0996   0.0880   0.0708  -0.0801   0.0644  -0.0693   0.99    1.2
2002 105533  -3943280.6782   3369951.3180   3699142.7828   2  16   0.0989   0.0873   0.0703  -0.0795   0.0639  -0.0688   0.99    1.2
2002 105534  -3943280.7113   3369951.3323   3699142.8142   2  16   0.0983   0.0867   0.0697  -0.0789   0.0634  -0.0683   0.99    1.2
2002 105535  -3943280.7522   3369951.3505   3699142.8471   2  16   0.0976   0.0860   0.0692  -0.0783   0.0630  -0.0678   0.99    1.2
2002 105536  -3943280.7944   3369951.3732   3699142.8878   2  16   0.0970   0.0854   0.0688  -0.0778   0.0625  -0.0673   0.99    1.2
2002 105537  -3943280.8288   3369951.3883   3699142.9129   2  16   0.0964   0.0848   0.0683  -0.0772   0.0621  -0.0668   0.99    1.0
2002 105538  -3943280.8674   3369951.4030   3699142.9416   2  16   0.0957   0.0842   0.0678  -0.0766   0.0616  -0.0664   0.99    1.0
2002 105539  -3943280.9104   3369951.4147   3699142.9699   2  16   0.0951   0.0836   0.0674  -0.0761   0.0612  -0.0660   0.99    1.0
2002 105540  -3943280.9428   3369951.4216   3699142.9877   2  16   0.0945   0.0830   0.0669  -0.0756   0.0607  -0.0655   0.99    1.0
2002 105541  -3943280.9835   3369951.4322   3699143.0064   2  16   0.0939   0.0824   0.0664  -0.0750   0.0603  -0.0651   0.99    1.0
2002 105542  -3943281.0053   3369951.4330   3699143.0150   2  16   0.0934   0.0818   0.0660  -0.0745   0.0599  -0.0646   0.99    1.0
2002 105543  -3943281.0269   3369951.4361   3699143.0273   2  16   0.0928   0.0812   0.0655  -0.0739   0.0595  -0.0642   0.99    1.0
2002 105544  -3943281.0454   3369951.4333   3699143.0347   2  16   0.0922   0.0806   0.0650  -0.0734   0.0591  -0.0638   0.99    1.0
2002 105545  -3943281.0594   3369951.4344   3699143.0406   2  16   0.0917   0.0801   0.0647  -0.0729   0.0586  -0.0634   0.99    1.0
2002 105546  -3943281.0685   3369951.4194   3699143.0412   2  15   0.0911   0.0795   0.0643  -0.0724   0.0583  -0.0629   0.99    1.3
2002 105547  -3943281.0775   3369951.4071   3699143.0384   2  16   0.0905   0.0789   0.0638  -0.0719   0.0579  -0.0625   0.99    1.3
2002 105548  -3943281.0848   3369951.3985   3699143.0450   2  16   0.0900   0.0784   0.0634  -0.0714   0.0575  -0.0621   0.99    1.3
2002 105549  -3943281.0952   3369951.3915   3699143.0457   2  16   0.0894   0.0779   0.0630  -0.0709   0.0571  -0.0617   0.99    1.3
2002 105550  -3943281.0810   3369951.3694   3699143.0418   2  16   0.0889   0.0774   0.0626  -0.0704   0.0567  -0.0613   0.99    1.4
2002 105551  -3943281.0947   3369951.3647   3699143.0513   2  16   0.0884   0.0768   0.0622  -0.0699   0.0563  -0.0609   0.99    1.4
2002 105552  -3943281.0941   3369951.3530   3699143.0518   2  16   0.0879   0.0763   0.0618  -0.0694   0.0560  -0.0605   0.99    1.4
2002 105553  -3943281.0968   3369951.3449   3699143.0634   2  16   0.0874   0.0758   0.0614  -0.0690   0.0556  -0.0601   0.99    1.0
2002 105554  -3943281.1154   3369951.3473   3699143.0817   2  16   0.0869   0.0753   0.0610  -0.0685   0.0552  -0.0598   0.99    1.0
2002 105555  -3943281.1312   3369951.3479   3699143.0959   2  16   0.0864   0.0748   0.0606  -0.0681   0.0549  -0.0594   0.99    1.0
2002 105556  -3943281.1391   3369951.3370   3699143.1030   2  16   0.0859   0.0743   0.0602  -0.0676   0.0545  -0.0590   0.99    1.0
2002 105557  -3943281.1565   3369951.3361   3699143.1168   2  16   0.0854   0.0738   0.0599  -0.0672   0.0541  -0.0586   0.99    1.0
2002 105558  -3943281.1735   3369951.3360   3699143.1223   2  16   0.0849   0.0733   0.0595  -0.0667   0.0538  -0.0583   0.99    1.0
2002 105559  -3943281.1827   3369951.3406   3699143.1324   2  16   0.0845   0.0729   0.0591  -0.0663   0.0534  -0.0579   0.99    1.0
2002 105560  -3943281.1975   3369951.3431   3699143.1413   2  16   0.0840   0.0724   0.0588  -0.0658   0.0531  -0.0576   0.99    1.0
2002 105561  -3943281.2116   3369951.3399   3699143.1500   2  16   0.0835   0.0719   0.0584  -0.0654   0.0527  -0.0572   0.99    1.0
2002 105562  -3943281.2289   3369951.3397   3699143.1570   2  16   0.0831   0.0714   0.0580  -0.0650   0.0524  -0.0569   0.99    1.0
2002 105563  -3943281.2391   3369951.3375   3699143.1645   2  16   0.0826   0.0710   0.0577  -0.0646   0.0521  -0.0565   0.99    1.0
2002 105564  -3943281.2489   3369951.3321   3699143.1614   2  16   0.0822   0.0706   0.0573  -0.0642   0.0518  -0.0562   0.99    1.0
2002 105565  -3943281.2563   3369951.3260   3699143.1636   2  16   0.0817   0.0701   0.0570  -0.0638   0.0514  -0.0559   0.99    1.0
2002 105566  -3943281.2513   3369951.3127   3699143.1508   2  16   0.0813   0.0696   0.0566  -0.0633   0.0511  -0.0556   0.99    1.0
2002 105567  -3943281.2497   3369951.3036   3699143.1482   2  16   0.0809   0.0692   0.0563  -0.0630   0.0508  -0.0552   0.99    1.0
2002 105568  -3943281.2547   3369951.2805   3699143.1402   2  16   0.0805   0.0688   0.0560  -0.0625   0.0505  -0.0549   0.99    1.0
2002 105569  -3943281.2702   3369951.2808   3699143.1465   2  16   0.0800   0.0683   0.0557  -0.0622   0.0502  -0.0546   0.99    1.0
2002 105570  -3943281.2886   3369951.2876   3699143.1508   2  16   0.0796   0.0679   0.0553  -0.0618   0.0499  -0.0543   0.99    1.0
2002 105571  -3943281.2926   3369951.2787   3699143.1477   2  15   0.0792   0.0675   0.0550  -0.0613   0.0496  -0.0538   0.99    1.3
2002 105572  -3943281.3160   3369951.2834   3699143.1501   2  16   0.0787   0.0671   0.0547  -0.0609   0.0493  -0.0535   0.99    1.3
2002 105578  -3943281.3041   3369951.2309   3699143.1379   2  15   0.0784   0.0668   0.0544  -0.0606   0.0490  -0.0533   0.99    1.0
2002 105587  -3943281.2837   3369951.2025   3699143.1397   2  15   0.0782   0.0664   0.0541  -0.0604   0.0487  -0.0530   0.99    1.1
2002 105589  -3943281.2473   3369951.1713   3699143.1275   2  16   0.0777   0.0658   0.0538  -0.0598   0.0483  -0.0527   0.99    1.2
2002 105590  -3943281.2631   3369951.1575   3699143.1467   2  16   0.0772   0.0654   0.0535  -0.0594   0.0481  -0.0523   0.99    1.0
2002 105591  -3943281.2534   3369951.1397   3699143.1433   2  16   0.0767   0.0649   0.0532  -0.0589   0.0478  -0.0520   0.99    1.1
2002 105592  -3943281.2305   3369951.1144   3699143.1427   2  14   0.0765   0.0645   0.0530  -0.0587   0.0475  -0.0518   0.99    1.2
2002 105593  -3943281.2035   3369951.0832   3699143.1267   2  16   0.0761   0.0640   0.0527  -0.0582   0.0472  -0.0515   0.99    1.2
2002 105594  -3943281.1807   3369951.0422   3699143.1259   2  15   0.0756   0.0638   0.0525  -0.0578   0.0471  -0.0513   0.99    1.1
2002 105595  -3943281.1245   3369950.9815   3699143.0923   2  15   0.0754   0.0635   0.0523  -0.0577   0.0469  -0.0511   0.99    1.0
2002 105596  -3943281.0927   3369950.9334   3699143.0801   2  15   0.0749   0.0630   0.0520  -0.0571   0.0466  -0.0508   0.99    1.0
2002 105597  -3943281.0656   3369950.9091   3699143.0638   2  15   0.0747   0.0628   0.0518  -0.0570   0.0465  -0.0506   0.99    1.1
2002 105598  -3943281.0289   3369950.8737   3699143.0477   2  15   0.0743   0.0622   0.0516  -0.0565   0.0461  -0.0503   0.99    1.1
2002 105599  -3943281.0386   3369950.8648   3699143.0491   2  16   0.0739   0.0617   0.0513  -0.0561   0.0458  -0.0500   0.99    1.0
2002 105600  -3943281.0400   3369950.8453   3699143.0392   2  16   0.0734   0.0612   0.0510  -0.0556   0.0455  -0.0497   0.99    1.0
2002 105601  -3943281.0424   3369950.8387   3699143.0354   2  16   0.0731   0.0609   0.0508  -0.0554   0.0453  -0.0495   0.99    1.0
2002 105602  -3943281.0444   3369950.8354   3699143.0301   2  16   0.0727   0.0607   0.0506  -0.0551   0.0452  -0.0493   0.99    1.0
2002 105603  -3943281.0272   3369950.8159   3699143.0216   2  16   0.0722   0.0601   0.0504  -0.0546   0.0448  -0.0489   0.99    1.0
2002 105604  -3943281.0120   3369950.7924   3699143.0059   2  16   0.0719   0.0597   0.0500  -0.0542   0.0445  -0.0487   0.99    1.0
2002 105605  -3943280.9690   3369950.7589   3699142.9777   2  16   0.0715   0.0593   0.0498  -0.0539   0.0443  -0.0484   0.99    1.0
2002 105606  -3943280.9498   3369950.7414   3699142.9630   2  16   0.0711   0.0589   0.0496  -0.0535   0.0441  -0.0481   0.99    1.0
2002 105607  -3943279.1163   3369953.1706   3699145.1414   2  16   0.0708   0.0586   0.0494  -0.0532   0.0439  -0.0479   0.99    1.0
2002 105608  -3943280.7758   3369950.6605   3699142.8769   2  16   0.0704   0.0583   0.0492  -0.0528   0.0437  -0.0477   0.99    1.0
2002 105609  -3943280.7480   3369950.6328   3699142.8523   2  16   0.0701   0.0579   0.0490  -0.0525   0.0434  -0.0474   0.99    1.1
2002 105610  -3943280.7417   3369950.6085   3699142.8378   2  16   0.0698   0.0575   0.0488  -0.0522   0.0432  -0.0472   0.99    1.0
2002 105611  -3943280.7146   3369950.5775   3699142.8138   2  16   0.0694   0.0572   0.0485  -0.0519   0.0430  -0.0469   0.99    1.0
2002 105612  -3943280.6868   3369950.5452   3699142.7860   2  16   0.0691   0.0569   0.0484  -0.0516   0.0428  -0.0467   0.99    1.0
2002 105613  -3943280.6528   3369950.5085   3699142.7554   2  16   0.0688   0.0566   0.0482  -0.0513   0.0426  -0.0465   0.99    1.0
2002 105614  -3943280.6230   3369950.4825   3699142.7317   2  16   0.0685   0.0563   0.0479  -0.0509   0.0424  -0.0463   0.99    1.1
2002 105615  -3943280.5770   3369950.4416   3699142.7006   2  16   0.0682   0.0559   0.0477  -0.0507   0.0422  -0.0461   0.99    1.1
2002 105616  -3943280.5285   3369950.4082   3699142.6722   2  16   0.0679   0.0556   0.0475  -0.0504   0.0420  -0.0458   0.99    1.1
2002 105617  -3943280.4939   3369950.3702   3699142.6562   2  16   0.0676   0.0553   0.0474  -0.0501   0.0418  -0.0456   0.99    1.1
2002 105618  -3943280.4537   3369950.3365   3699142.6297   2  16   0.0673   0.0550   0.0472  -0.0498   0.0416  -0.0454   0.99    1.2
2002 105619  -3943280.4258   3369950.3009   3699142.6070   2  16   0.0670   0.0547   0.0469  -0.0495   0.0414  -0.0452   0.99    1.1
2002 105620  -3943280.3708   3369950.2546   3699142.5822   2  16   0.0667   0.0544   0.0467  -0.0492   0.0412  -0.0450   0.99    1.2
2002 105621  -3943280.3156   3369950.2074   3699142.5534   2  16   0.0664   0.0541   0.0465  -0.0489   0.0410  -0.0448   0.99    1.1
2002 105622  -3943280.2614   3369950.1579   3699142.5219   2  16   0.0661   0.0538   0.0464  -0.0487   0.0408  -0.0446   0.99    1.2
2002 105623  -3943280.2217   3369950.1259   3699142.5032   2  16   0.0658   0.0535   0.0462  -0.0484   0.0406  -0.0444   0.99    1.2
2002 105624  -3943280.1876   3369950.0907   3699142.4819   2  16   0.0655   0.0532   0.0460  -0.0482   0.0404  -0.0442   0.99    1.2
2002 105625  -3943280.1510   3369950.0594   3699142.4630   2  16   0.0652   0.0529   0.0458  -0.0479   0.0403  -0.0440   0.99    1.1
2002 105626  -3943280.1154   3369950.0302   3699142.4460   2  16   0.0650   0.0527   0.0457  -0.0476   0.0401  -0.0438   0.99    1.2
2002 105627  -3943280.0989   3369949.9898   3699142.4269   2  15   0.0651   0.0525   0.0455  -0.0477   0.0400  -0.0438   0.99    1.2
2002 105630  -3943280.0379   3369949.9448   3699142.4074   2  16   0.0648   0.0522   0.0453  -0.0474   0.0398  -0.0436   0.99    1.1
2002 105631  -3943280.0258   3369949.9204   3699142.4076   2  15   0.0646   0.0520   0.0451  -0.0472   0.0397  -0.0434   0.99    1.1
2002 105632  -3943280.0047   3369949.8953   3699142.3994   2  15   0.0643   0.0517   0.0449  -0.0469   0.0395  -0.0432   0.99    1.1
2002 105633  -3943278.4150   3369948.9504   3699141.8815   2  16   0.0639   0.0514   0.0447  -0.0465   0.0393  -0.0429   0.99    1.1
2002 105635  -3943279.9258   3369949.8241   3699142.3742   2  15   0.0638   0.0512   0.0445  -0.0465   0.0391  -0.0428   0.99    1.1
2002 105636  -3943279.9389   3369949.8140   3699142.3878   2  15   0.0636   0.0509   0.0445  -0.0462   0.0390  -0.0427   0.99    1.1
2002 105637  -3943279.9112   3369949.7706   3699142.3771   2  15   0.0634   0.0507   0.0442  -0.0460   0.0388  -0.0425   0.99    1.1
2002 105638  -3943279.9465   3369949.7550   3699142.3969   2  16   0.0631   0.0504   0.0440  -0.0458   0.0386  -0.0423   0.99    1.0
2002 105639  -3943279.9611   3369949.7519   3699142.4133   2  16   0.0627   0.0500   0.0438  -0.0453   0.0384  -0.0420   0.99    1.0
2002 105641  -3943279.9912   3369949.7593   3699142.4301   2  16   0.0623   0.0497   0.0436  -0.0451   0.0382  -0.0418   0.99    1.0
2002 105646  -3943279.9933   3369949.7396   3699142.4327   2  16   0.0623   0.0496   0.0435  -0.0450   0.0381  -0.0417   0.99    1.0
2002 105647  -3943280.0162   3369949.7334   3699142.4506   2  16   0.0619   0.0492   0.0433  -0.0446   0.0378  -0.0414   0.99    1.0
2002 105648  -3943280.0370   3369949.7458   3699142.4552   2  16   0.0615   0.0489   0.0430  -0.0443   0.0376  -0.0412   0.99    1.0
2002 105649  -3943280.0493   3369949.7447   3699142.4654   2  16   0.0612   0.0486   0.0428  -0.0440   0.0374  -0.0410   0.99    1.0
2002 105650  -3943280.0603   3369949.7384   3699142.4791   2  16   0.0610   0.0483   0.0427  -0.0438   0.0373  -0.0408   0.99    1.1
2002 105651  -3943280.0585   3369949.7253   3699142.4797   2  16   0.0607   0.0481   0.0425  -0.0435   0.0371  -0.0406   0.99    1.1
2002 105652  -3943280.0591   3369949.7121   3699142.4793   2  16   0.0604   0.0478   0.0423  -0.0433   0.0369  -0.0404   0.99    1.1
2002 105653  -3943280.0535   3369949.6989   3699142.4740   2  16   0.0602   0.0476   0.0421  -0.0430   0.0367  -0.0403   0.99    1.1
2002 105654  -3943280.0430   3369949.6747   3699142.4644   2  16   0.0599   0.0473   0.0420  -0.0428   0.0366  -0.0401   0.99    1.1
2002 105655  -3943282.7704   3369946.0655   3699139.1545   2  16   0.0597   0.0471   0.0417  -0.0425   0.0364  -0.0399   0.99    1.1
2002 105656  -3943280.1622   3369949.7322   3699142.5279   2  16   0.0595   0.0469   0.0416  -0.0423   0.0363  -0.0397   0.99    1.1
2002 105657  -3943280.1530   3369949.7266   3699142.5281   2  16   0.0592   0.0466   0.0414  -0.0420   0.0361  -0.0395   0.99    1.1
2002 105658  -3943280.1293   3369949.7008   3699142.5185   2  16   0.0590   0.0464   0.0412  -0.0418   0.0359  -0.0393   0.99    1.1
2002 105659  -3943280.1036   3369949.6805   3699142.5094   2  16   0.0587   0.0461   0.0411  -0.0416   0.0358  -0.0391   0.99    1.0
2002 105660  -3943280.0923   3369949.6685   3699142.4978   2  16   0.0585   0.0459   0.0410  -0.0414   0.0356  -0.0390   0.99    1.1
2002 105661  -3943280.1019   3369949.8609   3699142.5461   2  16   0.0611   0.0717   0.0458  -0.0472   0.0487  -0.0412   0.99    1.1
2002 105662  -3943280.0985   3369949.8615   3699142.5462   2  16   0.0598   0.0607   0.0433  -0.0447   0.0427  -0.0401   0.99    1.1
2002 105663  -3943280.1008   3369949.8848   3699142.5467   2  16   0.0592   0.0566   0.0423  -0.0438   0.0405  -0.0397   0.99    1.1
2002 105664  -3943280.1004   3369949.8933   3699142.5440   2  16   0.0589   0.0544   0.0418  -0.0433   0.0393  -0.0395   0.99    1.1
2002 105665  -3943280.0956   3369949.8910   3699142.5348   2  16   0.0587   0.0530   0.0414  -0.0431   0.0386  -0.0393   0.99    1.1
2002 105666  -3943278.2912   3369951.4093   3699141.5839   5  16  30.0000  30.0000  30.0000   0.0000   0.0000   0.0000   0.99    0.0
2002 105667  -3943278.7672   3369950.8432   3699143.0605   5  15  30.0000  30.0000  30.0000   0.0000   0.0000   0.0000   0.99    0.0
2002 105668  -3943279.7051   3369950.8959   3699142.9303   5  16  30.0000  30.0000  30.0000   0.0000   0.0000   0.0000   0.99    0.0
2002 105669  -3943282.0190   3369947.2987   3699142.6708   2  16   0.9734   0.8763   0.7139  -0.8060   0.6518  -0.6945   0.99    1.9
2002 105670  -3943281.3594   3369948.1923   3699141.9455   2  16   0.6933   0.6242   0.5078  -0.5744   0.4642  -0.4947   0.99    1.1
2002 105671  -3943280.8751   3369947.9862   3699141.8670   2  16   0.5675   0.5108   0.4154  -0.4702   0.3799  -0.4049   0.99    1.3
2002 105672  -3943280.7314   3369947.7681   3699141.8741   2  16   0.4921   0.4429   0.3601  -0.4077   0.3294  -0.3511   0.99    1.4
2002 105673  -3943280.3485   3369947.5176   3699141.7462   2  16   0.4398   0.3961   0.3220  -0.3644   0.2945  -0.3138   0.99    1.2
2002 105674  -3943280.0459   3369947.3560   3699141.7416   2  16   0.4017   0.3617   0.2941  -0.3328   0.2689  -0.2866   0.99    1.2
2002 105675  -3943279.7843   3369947.5111   3699141.5590   2  15   0.3721   0.3362   0.2730  -0.3081   0.2481  -0.2656   0.99    1.1
2002 105676  -3943279.5985   3369947.4619   3699141.5676   2  15   0.3482   0.3144   0.2553  -0.2884   0.2323  -0.2486   0.99    1.2
2002 105677  -3943279.4606   3369947.4918   3699141.5621   2  16   0.3284   0.2964   0.2407  -0.2720   0.2191  -0.2344   0.99    1.0
2002 105678  -3943279.4062   3369947.5741   3699141.6007   2  16   0.3117   0.2811   0.2284  -0.2581   0.2080  -0.2224   0.99    1.1
2002 105679  -3943279.4093   3369947.6730   3699141.6351   2  16   0.2972   0.2680   0.2178  -0.2461   0.1984  -0.2121   0.99    1.1
2002 105680  -3943279.3769   3369947.7096   3699141.6301   2  16   0.2846   0.2566   0.2085  -0.2357   0.1900  -0.2031   0.99    1.1
2002 105681  -3943279.3448   3369947.7973   3699141.5882   2  15   0.2735   0.2470   0.2005  -0.2264   0.1822  -0.1952   0.99    1.2
2002 105682  -3943279.2885   3369947.7674   3699141.5441   2  16   0.2636   0.2379   0.1932  -0.2181   0.1756  -0.1881   0.99    1.2
2002 105683  -3943279.2363   3369947.7665   3699141.4770   2  15   0.2547   0.2302   0.1868  -0.2107   0.1694  -0.1817   0.99    1.0
2002 105684  -3943279.1750   3369947.7584   3699141.3993   2  15   0.2466   0.2231   0.1810  -0.2039   0.1637  -0.1760   0.99    1.0
2002 105685  -3943279.1199   3369947.6067   3699141.4205   2  16   0.2392   0.2164   0.1755  -0.1978   0.1589  -0.1707   0.99    1.0
2002 105686  -3943278.9613   3369947.5651   3699141.2962   2  15   0.2325   0.2105   0.1707  -0.1922   0.1542  -0.1659   0.99    1.0
2002 105687  -3943278.9837   3369949.0088   3699140.6767   2  16   0.2263   0.2047   0.1661  -0.1871   0.1501  -0.1615   0.99    1.0
2002 105688  -3943279.1151   3369948.8489   3699140.9617   2  16   0.2205   0.1994   0.1618  -0.1823   0.1463  -0.1574   0.99    1.1
2002 105689  -3943279.2057   3369948.8380   3699141.1295   2  16   0.2152   0.1945   0.1579  -0.1778   0.1428  -0.1535   0.99    1.1
2002 105690  -3943279.2990   3369948.8548   3699141.2700   2  16   0.2102   0.1899   0.1542  -0.1737   0.1396  -0.1500   0.99    1.1
2002 105691  -3943279.3101   3369948.4153   3699141.5239   2  15   0.2056   0.1859   0.1508  -0.1698   0.1363  -0.1467   0.99    1.1
2002 105692  -3943279.2341   3369948.3930   3699141.4816   2  15   0.2012   0.1820   0.1477  -0.1662   0.1332  -0.1435   0.99    1.1
2002 105693  -3943279.1731   3369948.3695   3699141.4727   2   9   0.2000   0.1808   0.1470  -0.1654   0.1325  -0.1433   0.99    1.2
2002 105694  -3943278.8920   3369948.2009   3699141.3507   2  15   0.1962   0.1786   0.1442  -0.1626   0.1300  -0.1405   0.99    1.0
2002 105695  -3943278.5597   3369947.9923   3699141.2040   2  15   0.1922   0.1745   0.1413  -0.1590   0.1271  -0.1376   0.99    1.1
2002 105696  -3943278.2816   3369947.8082   3699141.0890   2  16   0.1885   0.1710   0.1387  -0.1560   0.1248  -0.1350   0.99    1.1
2002 105697  -3943278.1232   3369947.7347   3699141.0120   2  15   0.1855   0.1687   0.1364  -0.1536   0.1228  -0.1328   0.99    1.1
2002 105698  -3943277.7151   3369947.4571   3699140.8209   2  15   0.1821   0.1654   0.1340  -0.1506   0.1204  -0.1304   0.99    1.6
2002 105699  -3943277.6066   3369947.3788   3699140.7546   2  14   0.1800   0.1631   0.1321  -0.1489   0.1187  -0.1288   0.99    1.1
2002 105700  -3943277.5381   3369947.4013   3699140.7236   2  13   0.1779   0.1610   0.1301  -0.1470   0.1170  -0.1270   0.99    1.2
2002 105701  -3943279.9058   3369948.8092   3699141.7413   2  15   0.1750   0.1585   0.1281  -0.1446   0.1151  -0.1250   0.99    1.3
2002 105703  -3943277.4533   3369947.2073   3699141.1297   2  15   0.1723   0.1561   0.1262  -0.1424   0.1133  -0.1231   0.99    1.2
2002 105704  -3943277.3482   3369947.4908   3699141.2973   2  15   0.1697   0.1538   0.1244  -0.1402   0.1115  -0.1213   0.99    1.6
2002 105705  -3943277.2512   3369947.4731   3699141.1403   2  16   0.1673   0.1515   0.1227  -0.1382   0.1100  -0.1195   0.99    1.2
2002 105706  -3943277.3805   3369947.5878   3699141.1149   2  16   0.1649   0.1493   0.1209  -0.1362   0.1085  -0.1178   0.99    1.7
2002 105707  -3943277.3828   3369947.5690   3699141.0657   2  16   0.1626   0.1472   0.1192  -0.1343   0.1071  -0.1162   0.99    1.6
2002 105708  -3943277.3804   3369947.6658   3699141.0997   2  16   0.1605   0.1451   0.1176  -0.1325   0.1057  -0.1147   0.99    1.5
2002 105709  -3943277.2856   3369947.8056   3699141.0814   2  15   0.1587   0.1433   0.1164  -0.1310   0.1046  -0.1136   0.99    1.1
2002 105710  -3943277.1876   3369948.1787   3699141.5410   2  15   0.1569   0.1421   0.1151  -0.1297   0.1037  -0.1123   0.99    1.6
2002 105711  -3943277.1327   3369948.4687   3699141.4852   2  15   0.1551   0.1407   0.1138  -0.1284   0.1028  -0.1111   0.99    1.2
2002 105712  -3943277.5981   3369948.2105   3699141.2083   2  15   0.1539   0.1393   0.1125  -0.1274   0.1018  -0.1101   0.99    1.0
2002 105713  -3943277.9301   3369948.6604   3699140.8433   2  15   0.1520   0.1376   0.1112  -0.1257   0.1004  -0.1087   0.99    1.1
2002 105714  -3943278.0961   3369949.1946   3699139.9708   2  13   0.1512   0.1364   0.1105  -0.1251   0.0999  -0.1083   0.99    1.3
2002 105715  -3943277.3969   3369948.7995   3699137.8952   2  15   0.1498   0.1349   0.1093  -0.1238   0.0988  -0.1072   0.99    1.5
2002 105716  -3943277.9528   3369949.3922   3699137.1615   2  14   0.1486   0.1335   0.1083  -0.1227   0.0980  -0.1062   0.99    1.0
2002 105717  -3943278.4607   3369950.4585   3699136.6423   2  12   0.1479   0.1330   0.1077  -0.1223   0.0978  -0.1057   0.99    1.2
2002 105718  -3943278.4754   3369951.0811   3699135.8896   2  13   0.1468   0.1325   0.1067  -0.1215   0.0973  -0.1049   0.99    1.3
2002 105719  -3943278.3083   3369951.9081   3699135.3268   2  15   0.1451   0.1311   0.1055  -0.1201   0.0963  -0.1037   0.99    1.2
2002 105720  -3943278.4084   3369952.6701   3699134.7385   2  13   0.1437   0.1297   0.1045  -0.1188   0.0953  -0.1026   0.99    1.5
2002 105721  -3943278.3233   3369953.6202   3699134.4025   2  12   0.1426   0.1291   0.1042  -0.1180   0.0950  -0.1019   0.99    1.0
2002 105722  -3943278.2232   3369954.5644   3699133.7881   2  12   0.1413   0.1282   0.1033  -0.1171   0.0943  -0.1010   0.99    1.4
2002 105723  -3943278.2511   3369956.2095   3699135.6448   2  13   0.1403   0.1274   0.1036  -0.1164   0.0936  -0.1007   0.99    1.9
2002 105724  -3943277.9265   3369957.4651   3699134.6023   2  14   0.1390   0.1260   0.1026  -0.1153   0.0929  -0.0999   0.99    1.2
2002 105725  -3943277.4168   3369958.4826   3699133.9749   2  12   0.1381   0.1252   0.1018  -0.1146   0.0923  -0.0991   0.99    1.1
2002 105726  -3943277.3099   3369960.0663   3699133.6703   2  13   0.1371   0.1239   0.1012  -0.1137   0.0917  -0.0986   0.99    1.1
2002 105727  -3943276.4437   3369960.5784   3699131.9454   2  14   0.1359   0.1236   0.1122  -0.1126   0.0933  -0.0971   0.99    1.0
2002 105728  -3943275.9482   3369961.9573   3699131.5763   2  12   0.1356   0.1223   0.1080  -0.1121   0.0915  -0.0958   0.99    1.2
2002 105729  -3943275.2590   3369962.7977   3699131.2529   2  14   0.1343   0.1215   0.1056  -0.1110   0.0908  -0.0953   0.99    1.3
2002 105730  -3943274.3004   3369963.6437   3699131.2516   2  13   0.1330   0.1202   0.1036  -0.1098   0.0898  -0.0946   0.99    2.5
2002 105731  -3943272.8494   3369963.4297   3699130.2997   2  12   0.1329   0.1200   0.1030  -0.1100   0.0900  -0.0951   0.99    1.6
2002 105732  -3943272.0829   3369964.4675   3699130.7570   1  14   0.0150   0.0149   0.0119  -0.0132   0.0118  -0.0113   0.99    3.1
2002 105733  -3943271.2864   3369965.9084   3699131.3790   2  13   0.1307   0.1185   0.1000  -0.1082   0.0888  -0.0935   0.99    1.2
2002 105734  -3943271.3563   3369967.3993   3699132.2096   2  13   0.1295   0.1177   0.0989  -0.1072   0.0882  -0.0927   0.99    1.2
2002 105735  -3943270.3979   3369968.0477   3699132.5584   2  14   0.1285   0.1168   0.0978  -0.1065   0.0876  -0.0921   0.99    1.2
2002 105736  -3943269.4806   3369969.0209   3699132.8681   2  10   0.1277   0.1167   0.0973  -0.1060   0.0871  -0.0919   0.99    1.0
2002 105737  -3943268.4348   3369969.7957   3699133.0291   2  13   0.1267   0.1159   0.0964  -0.1052   0.0865  -0.0913   0.99    1.3
2002 105738  -3943267.1767   3369970.4077   3699133.0647   2  11   0.1272   0.1170   0.0963  -0.1061   0.0869  -0.0916   0.99    1.2
2002 105739  -3943266.3664   3369971.3475   3699133.1938   2  14   0.1262   0.1162   0.0957  -0.1053   0.0864  -0.0911   0.99    1.4
2002 105740  -3943265.6053   3369972.2311   3699133.2190   2  11   0.1262   0.1161   0.0960  -0.1050   0.0868  -0.0914   0.99    1.1
2002 105741  -3943264.7268   3369973.1367   3699133.1519   2  10   0.1260   0.1158   0.0956  -0.1050   0.0866  -0.0913   0.99    1.5
2002 105742  -3943263.9063   3369974.1145   3699133.0935   2  11   0.1275   0.1167   0.0970  -0.1063   0.0882  -0.0931   0.99    1.0
2002 105743  -3943263.0837   3369974.8817   3699133.0585   2  11   0.1270   0.1185   0.0993  -0.1071   0.0910  -0.0940   0.99    1.6
2002 105744  -3943261.8839   3369975.5352   3699132.9381   2  10   0.1265   0.1182   0.0992  -0.1064   0.0909  -0.0933   0.99    1.8
2002 105745  -3943261.1996   3369976.5404   3699132.9131   2  11   0.1290   0.1193   0.0995  -0.1079   0.0916  -0.0933   0.99    1.3
2002 105746  -3943259.8983   3369976.6337   3699132.6423   2   9   0.1522   0.2009   0.1178  -0.1579   0.1366  -0.1181   0.99    1.3
2002 105747  -3943259.3645   3369978.2768   3699133.1975   2  12   0.1319   0.1433   0.1023  -0.1203   0.1028  -0.0983   0.99    1.1
2002 105748  -3943258.1281   3369978.0986   3699133.0656   1  10   0.0368   0.0377   0.0182  -0.0355   0.0216  -0.0233   0.99    4.3
2002 105749  -3943256.8124   3369978.6115   3699133.3953   2   7   0.1347   0.1356   0.1049  -0.1193   0.1016  -0.1020   0.99    1.0
2002 105750  -3943255.9085   3369979.2343   3699133.3573   2   8   0.1346   0.1350   0.1053  -0.1191   0.1016  -0.1023   0.99   10.2
2002 105751  -3943250.7919   3369972.2308   3699129.6521   2   9   0.1356   0.1685   0.1375  -0.1315   0.1303  -0.1120   0.99    2.6
2002 105752  -3943251.5421   3369975.6963   3699131.5829   1  12   0.1107   0.2051   0.0726  -0.1487   0.1210  -0.0873   0.99    3.2
2002 105753  -3943250.6969   3369976.6937   3699131.4250   1  14   0.0649   0.1153   0.0449  -0.0839   0.0710  -0.0516   0.99    4.6
2002 105754  -3943250.0525   3369978.1775   3699131.4403   2  14   0.1509   0.1992   0.0993  -0.1583   0.1160  -0.1059   0.99    1.6
2002 105755  -3943249.3926   3369979.1435   3699131.5888   1  13   0.0960   0.1727   0.0803  -0.1277   0.1172  -0.0868   0.99    3.7
2002 105756  -3943248.6721   3369980.1872   3699131.6660   1  11   0.0954   0.1704   0.0797  -0.1265   0.1160  -0.0864   0.99    4.4
2002 105757  -3943247.7444   3369981.0699   3699131.2626   2  12   0.1492   0.1921   0.1020  -0.1546   0.1162  -0.1062   0.99    1.3
2002 105758  -3943247.0510   3369982.2568   3699131.1158   2  13   0.1479   0.1979   0.1034  -0.1551   0.1208  -0.1064   0.99    1.2
2002 105759  -3943246.2743   3369983.2642   3699131.0286   2  11   0.1477   0.1942   0.1023  -0.1545   0.1189  -0.1064   0.99    1.2
2002 105760  -3943245.4969   3369984.3315   3699131.1661   2  11   0.1481   0.1923   0.1012  -0.1542   0.1176  -0.1062   0.99    1.4
2002 105761  -3943242.2379   3369981.8794   3699129.8905   2  13   0.1433   0.1844   0.0983  -0.1479   0.1126  -0.1023   0.99    1.7
2002 105762  -3943242.3169   3369983.4930   3699130.3536   1  12   0.0640   0.1104   0.0560  -0.0823   0.0782  -0.0585   0.99   11.1
2002 105763  -3943241.2540   3369984.2267   3699130.4893   2  11   0.1425   0.1806   0.0975  -0.1462   0.1110  -0.1019   0.99    1.1
2002 105764  -3943240.1962   3369985.0267   3699130.4452   2  11   0.1566   0.1889   0.1035  -0.1580   0.1196  -0.1127   0.99    2.2
2002 105765  -3943247.7393   3370004.7048   3699140.7733   2  12   0.1518   0.1845   0.1014  -0.1535   0.1164  -0.1094   0.99    1.2
2002 105766  -3943242.6396   3369999.1291   3699135.8060   2  12   0.1439   0.1787   0.0975  -0.1462   0.1111  -0.1032   0.99    1.2
2002 105767  -3943243.5973   3370001.4590   3699136.9744   2  11   0.1428   0.1763   0.0968  -0.1444   0.1098  -0.1024   0.99    1.0
2002 105768  -3943241.7225   3370001.7501   3699136.0411   2  11   0.1431   0.1751   0.0974  -0.1441   0.1098  -0.1033   0.99    1.4
2002 105769  -3943240.3554   3370002.4527   3699135.4597   2  11   0.1455   0.1744   0.0978  -0.1449   0.1100  -0.1047   0.99    1.4
2002 105770  -3943238.3770   3370002.7796   3699134.0392   2  13   0.1426   0.1716   0.0964  -0.1423   0.1084  -0.1027   0.99    1.1
2002 105771  -3943237.0882   3370003.4104   3699133.3628   2  14   0.1422   0.1696   0.0961  -0.1412   0.1076  -0.1025   0.99    1.0
2002 105772  -3943236.9539   3370004.2278   3699132.8890   2  14   0.1406   0.1665   0.0952  -0.1390   0.1060  -0.1014   0.99    1.4
2002 105773  -3943237.0798   3370004.8502   3699132.0540   2  13   0.1394   0.1638   0.0945  -0.1372   0.1047  -0.1005   0.99    1.0
2002 105774  -3943237.5501   3370005.4170   3699131.1045   2  12   0.1391   0.1619   0.0940  -0.1363   0.1038  -0.1001   0.99    1.1
2002 105775  -3943237.9967   3370005.8252   3699129.9559   2  10   0.1388   0.1598   0.0939  -0.1348   0.1025  -0.0999   0.99    1.4
2002 105776  -3943245.5885   3370010.2425   3699133.3766   2   8   2.0504   1.0495   1.2330  -1.4629   1.1338  -1.5890   0.99    1.1
2002 105777  -3943235.3224   3370005.6379   3699126.1646   2  13   0.1411   0.1577   0.0964  -0.1348   0.1023  -0.1024   0.99    1.0
2002 105778  -3943235.5199   3370006.3069   3699125.2375   2  13   0.1395   0.1552   0.0949  -0.1330   0.1008  -0.1008   0.99    1.2
2002 105779  -3943235.8136   3370006.9087   3699124.1820   1  12   0.1117   0.0559   0.0701  -0.0784   0.0617  -0.0880   0.99    3.5
2002 105780  -3943236.2617   3370007.6049   3699123.3348   2  12   0.1373   0.1513   0.0936  -0.1300   0.0989  -0.0992   0.99    1.1
2002 105781  -3943236.8381   3370008.3478   3699122.4484   1  11   0.0299   0.0230   0.0265  -0.0255   0.0234  -0.0272   0.99    3.3
2002 105782  -3943237.0262   3370009.0032   3699121.5212   1  11   0.0213   0.0165   0.0218  -0.0171   0.0175  -0.0197   0.99    3.2
2002 105783  -3943237.7652   3370009.5371   3699120.4958   1   9   0.0366   0.0459   0.0520  -0.0399   0.0482  -0.0426   0.99    3.4
2002 105784  -3943238.2043   3370010.2472   3699119.5646   2   7   0.1503   0.1539   0.1038  -0.1359   0.1062  -0.1113   0.99    1.4
2002 105785  -3943235.7006   3370005.5764   3699115.6754   2   5   0.9663   1.7444   0.9544  -1.2950   1.2883  -0.9581   0.99    5.6
2002 105786  -3943257.3237   3370014.3944   3699126.6408   2   7   1.9893   1.0961   1.1622  -1.2737   1.0437  -1.5055   0.99    0.0
2002 105787  -3943241.2875   3370014.4917   3699118.1350   2   9   0.1806   0.2266   0.6113  -0.1876   0.3335  -0.2699   0.99    1.0
2002 105788  -3943241.6280   3370014.5671   3699117.1520   2  11   0.1630   0.1933   0.4596  -0.1622   0.2555  -0.2098   0.99    1.3
2002 105789  -3943242.2608   3370015.0583   3699116.5239   2  11   0.1563   0.1791   0.3804  -0.1517   0.2166  -0.1803   0.99    2.8
2002 105790  -3943242.6311   3370015.2469   3699114.9905   2   9   0.1523   0.1710   0.3389  -0.1458   0.1951  -0.1645   0.99    1.8
2002 105791  -3943242.4389   3370014.5593   3699109.7528   1  11   0.0212   0.0211   0.0113  -0.0190   0.0120  -0.0133   0.99    3.5
2002 105792  -3943243.0642   3370015.1089   3699108.7092   2  13   0.1422   0.1451   0.1020  -0.1284   0.1011  -0.1056   0.99    1.5
2002 105793  -3943243.5723   3370015.4317   3699107.7217   2  10   0.1419   0.1445   0.1019  -0.1280   0.1010  -0.1056   0.99    1.5
2002 105794  -3943245.0870   3370012.1657   3699107.7547   2   9   0.1452   0.1729   0.1132  -0.1393   0.1222  -0.1128   0.99    1.2
2002 105795  -3943245.8124   3370014.8896   3699106.5149   2  12   0.1421   0.1422   0.1007  -0.1265   0.0996  -0.1046   0.99    1.6
2002 105796  -3943247.9018   3370016.8563   3699106.0835   2  12   0.1416   0.1422   0.1001  -0.1266   0.0994  -0.1042   0.99    1.0
2002 105797  -3943250.0838   3370018.0295   3699105.6503   2  13   0.1391   0.1404   0.0990  -0.1247   0.0981  -0.1027   0.99    1.2
2002 105798  -3943250.7526   3370018.3757   3699104.6774   2  14   0.1380   0.1387   0.0982  -0.1234   0.0971  -0.1019   0.99    1.2
2002 105799  -3943251.2076   3370018.7269   3699103.6035   2  13   0.1383   0.1381   0.0985  -0.1233   0.0973  -0.1023   0.99    1.1
2002 105800  -3943251.5612   3370019.2956   3699102.4635   2  10   0.1377   0.1371   0.0982  -0.1225   0.0967  -0.1020   0.99    1.0
2002 105801  -3943252.0824   3370019.9237   3699101.4239   2  12   0.1370   0.1357   0.0979  -0.1215   0.0960  -0.1016   0.99    1.1
2002 105802  -3943252.6129   3370020.3959   3699100.1422   1  11   0.0165   0.0129   0.0136  -0.0130   0.0109  -0.0139   0.99    4.2
2002 105803  -3943253.0031   3370021.0158   3699099.2596   2   9   0.1388   0.1336   0.0978  -0.1212   0.0954  -0.1023   0.99    2.5
2002 105804  -3943253.3550   3370021.4525   3699098.1587   2  10   0.1386   0.1325   0.0973  -0.1204   0.0948  -0.1019   0.99    1.1
2002 105805  -3943253.9924   3370021.8476   3699097.0908   2  11   0.1388   0.1321   0.0975  -0.1205   0.0950  -0.1023   0.99    2.9
2002 105806  -3943254.9272   3370022.1211   3699096.1484   2  11   0.1375   0.1309   0.0974  -0.1190   0.0945  -0.1015   0.99    2.0
2002 105807  -3943255.7752   3370022.4451   3699094.9568   2  10   0.1382   0.1303   0.0985  -0.1191   0.0948  -0.1025   0.99    1.3
2002 105808  -3943256.4833   3370022.9926   3699093.7859   2  10   0.1372   0.1293   0.0978  -0.1182   0.0941  -0.1018   0.99    1.7
2002 105809  -3943257.2026   3370023.5819   3699092.6528   2   7   0.1395   0.1303   0.0995  -0.1194   0.0958  -0.1038   0.99    1.6
2002 105810  -3943258.7160   3370024.7034   3699092.2170   1   6   0.0428   0.0286   0.0317  -0.0324   0.0290  -0.0348   0.99    3.9
2002 105811  -3943258.1550   3370024.6307   3699090.1111   1   8   0.0376   0.0255   0.0266  -0.0281   0.0249  -0.0294   0.99    6.4
2002 105812  -3943258.9631   3370025.3302   3699089.2701   2  10   0.1410   0.1296   0.0995  -0.1197   0.0960  -0.1046   0.99    1.5
2002 105813  -3943259.7441   3370025.3086   3699088.1149   2  11   0.1427   0.1452   0.1024  -0.1263   0.1046  -0.1072   0.99    1.1
2002 105814  -3943260.5145   3370025.8067   3699087.0508   2  10   0.1418   0.1446   0.1017  -0.1258   0.1041  -0.1064   0.99    2.0
2002 105815  -3943261.2286   3370026.4290   3699086.0409   2  12   0.1405   0.1426   0.1010  -0.1242   0.1031  -0.1055   0.99    1.5
2002 105816  -3943260.9551   3370024.8490   3699083.9675   2  12   0.1397   0.1388   0.1005  -0.1232   0.1016  -0.1051   0.99    1.1
2002 105817  -3943261.4623   3370025.9212   3699083.2243   2  12   0.1394   0.1383   0.1003  -0.1227   0.1015  -0.1049   0.99    1.0
2002 105818  -3943261.9082   3370026.5791   3699082.1726   2  11   0.1386   0.1380   0.0999  -0.1224   0.1012  -0.1045   0.99    1.0
2002 105819  -3943262.5087   3370027.2482   3699081.1955   2  10   0.1389   0.1374   0.0996  -0.1225   0.1010  -0.1045   0.99    1.5
2002 105820  -3943263.0377   3370027.7909   3699080.1203   2  10   0.1393   0.1370   0.1003  -0.1227   0.1013  -0.1053   0.99    1.0
2002 105821  -3943263.5593   3370028.3482   3699079.0946   2   7   0.1395   0.1365   0.1011  -0.1226   0.1015  -0.1060   0.99    1.3
2002 105822  -3943265.0436   3370029.1642   3699078.5607   1   8   0.0321   0.0851   0.0422  -0.0471   0.0577  -0.0351   0.99   13.1
2002 105823  -3943262.0854   3370029.8895   3699074.2405   1   7   0.9167   0.0663   0.9826   0.2099  -0.2195  -0.9489   0.99    3.7
2002 105824  -3943274.8381   3370033.7218   3699083.3037   2   5   4.0015   2.1988   2.4555  -2.8844   2.0653  -3.0475   0.99    0.0
2002 105825  -3943288.2445   3370038.9622   3699091.7649   2   9   1.3245   0.7494   0.9594  -0.9099   0.5925  -1.0569   0.99    1.1
2002 105826  -3943285.8612   3370038.2009   3699088.7586   1   8   0.1767   0.3381   0.0492  -0.2431  -0.1190   0.0821   0.99    8.6
2002 105827  -3943284.4566   3370038.0953   3699086.1887   2   7   3.8996   1.9729   2.3590  -2.7597   2.1202  -3.0203   0.99    0.0
2002 105828  -3943273.2010   3370033.1642   3699077.5183   2   7   2.1463   1.1585   1.2429  -1.5597   1.1525  -1.6154   0.99    0.0
2002 105829  -3943267.9082   3370033.1535   3699074.7613   2   7   4.2790   1.7336   2.3615  -2.5971   1.8851  -3.0943   0.99    2.3
2002 105830  -3943270.8115   3370034.3969   3699074.9372   2   7   3.0445   1.2374   1.6819  -1.8512   1.3449  -2.2030   0.99    1.8
2002 105831  -3943272.4979   3370034.9461   3699074.3253   1   7   1.7070   0.8119   1.0177  -1.1772   0.9090  -1.3180   0.99    4.0
2002 105832  -3943268.4640   3370034.9960   3699071.8039   1   7   0.0249   0.0173   0.0148  -0.0179   0.0144  -0.0160   0.99    8.1
2002 105833  -3943267.0256   3370035.8741   3699070.3725   1   8   0.2104   0.1726   0.1650   0.1886   0.1686   0.1846   0.99   18.5
2002 105834  -3943268.2530   3370037.0057   3699069.9380   2   9   0.8974   0.5311   0.5051  -0.6259   0.4433  -0.5896   0.99    1.7
2002 105835  -3943270.6065   3370036.2918   3699067.4837   2   9   0.8699   0.6274   0.5724  -0.4737   0.5486  -0.4283   0.99    1.9
2002 105836  -3943269.8088   3370038.5355   3699067.9084   1  10   0.0223   0.0172   0.0139  -0.0178   0.0141  -0.0148   0.99   10.2
2002 105837  -3943269.9645   3370039.5058   3699067.4869   2  10   0.7090   0.5006   0.4377  -0.5064   0.4204  -0.4530   0.99    1.2
2002 105838  -3943272.3251   3370040.7263   3699067.3994   2  11   0.6365   0.4682   0.4044  -0.4778   0.3900  -0.4252   0.99    1.4
2002 105839  -3943275.7171   3370043.2514   3699069.9275   2  13   0.5695   0.4330   0.3630  -0.4388   0.3532  -0.3827   0.99    1.7
2002 105840  -3943275.8159   3370043.0794   3699069.7848   2  16   0.4893   0.3846   0.3227  -0.3820   0.3102  -0.3337   0.99    1.6
2002 105841  -3943276.9216   3370043.6062   3699070.3669   2  16   0.4373   0.3509   0.2942  -0.3444   0.2806  -0.3010   0.99    1.1
2002 105842  -3943277.9518   3370044.1596   3699070.6352   2  15   0.4005   0.3303   0.2744  -0.3196   0.2620  -0.2786   0.99    1.2
2002 105843  -3943278.2946   3370044.4247   3699070.6850   2  16   0.3703   0.3081   0.2562  -0.2966   0.2431  -0.2585   0.99    1.3
2002 105844  -3943278.4168   3370044.5324   3699070.7042   2  16   0.3464   0.2902   0.2413  -0.2782   0.2280  -0.2425   0.99    1.1
2002 105845  -3943278.5378   3370044.5810   3699070.7460   2  16   0.3265   0.2752   0.2288  -0.2628   0.2153  -0.2292   0.99    1.2
2002 105846  -3943278.8024   3370044.8277   3699070.8682   2  16   0.3098   0.2623   0.2181  -0.2498   0.2046  -0.2178   0.99    1.2
2002 105847  -3943279.1555   3370045.1334   3699071.1303   2  16   0.2954   0.2510   0.2088  -0.2385   0.1953  -0.2080   0.99    1.1
2002 105848  -3943279.5814   3370045.5114   3699071.5330   2  15   0.2835   0.2434   0.2014  -0.2301   0.1888  -0.2003   0.99    1.1
2002 105849  -3943279.9105   3370045.7837   3699071.8268   2  16   0.2722   0.2342   0.1939  -0.2211   0.1813  -0.1925   0.99    1.1
2002 105850  -3943279.9867   3370045.7541   3699072.0004   2  13   0.2665   0.2299   0.1905  -0.2176   0.1783  -0.1895   0.99    1.0
2002 105851  -3943280.1233   3370045.8418   3699072.1724   2  15   0.2583   0.2227   0.1853  -0.2109   0.1729  -0.1843   0.99    1.0
2002 105852  -3943280.4075   3370046.1545   3699072.3000   2  17   0.2494   0.2156   0.1794  -0.2038   0.1671  -0.1782   0.99    1.4
2002 105853  -3943280.5205   3370046.4281   3699072.3218   2  17   0.2415   0.2092   0.1741  -0.1975   0.1620  -0.1729   0.99    1.8
2002 105854  -3943280.6455   3370046.5821   3699072.4447   2  17   0.2342   0.2033   0.1691  -0.1916   0.1572  -0.1679   0.99    1.0
2002 105855  -3943280.7308   3370046.7615   3699072.5691   2  17   0.2275   0.1978   0.1646  -0.1863   0.1528  -0.1633   0.99    1.1
2002 105856  -3943280.6532   3370046.7236   3699072.5981   2  17   0.2214   0.1928   0.1604  -0.1814   0.1487  -0.1591   0.99    1.1
2002 105857  -3943280.6377   3370046.7203   3699072.6546   2  17   0.2158   0.1882   0.1566  -0.1768   0.1450  -0.1552   0.99    1.1
2002 105858  -3943280.6159   3370046.7269   3699072.7025   2  17   0.2106   0.1838   0.1530  -0.1726   0.1416  -0.1516   0.99    1.1
2002 105859  -3943280.5895   3370046.7510   3699072.7461   2  16   0.2057   0.1797   0.1496  -0.1687   0.1383  -0.1482   0.99    1.1
2002 105860  -3943280.3950   3370047.0825   3699072.1251   2  13   0.2034   0.1778   0.1475  -0.1671   0.1366  -0.1464   0.99    1.0
2002 105861  -3943280.3791   3370047.6640   3699071.0056   2  12   0.2019   0.1761   0.1461  -0.1661   0.1355  -0.1455   0.99    2.1
2002 105862  -3943280.7880   3370048.4237   3699070.0060   2  12   0.2003   0.1746   0.1451  -0.1650   0.1347  -0.1451   0.99    2.5
2002 105863  -3943281.3455   3370049.1044   3699068.9072   2  13   0.1981   0.1719   0.1436  -0.1630   0.1330  -0.1438   0.99    2.5
2002 105864  -3943281.6866   3370049.8438   3699067.7525   2  10   0.1968   0.1703   0.1423  -0.1619   0.1314  -0.1429   0.99    1.6
2002 105865  -3943281.7762   3370050.4709   3699066.6184   1  10   0.0172   0.0146   0.0136  -0.0141   0.0074  -0.0122   0.99    3.1
2002 105866  -3943282.2413   3370051.5935   3699065.7277   2   9   0.1940   0.1683   0.1412  -0.1603   0.1298  -0.1418   0.99    1.8
2002 105867  -3943268.7898   3370041.3487   3699062.7453   2   6   2.4492   2.2281   1.4880  -2.3258   1.4914  -1.4488   0.99  999.9
2002 105868  -3943279.7320   3370056.7933   3699061.6376   2   8   0.3629   0.6066   1.3316   0.3517  -0.5694  -0.6011   0.99    0.0
2002 105869  -3943278.4370   3370058.2131   3699060.8951   2   7   0.3314   0.5423   1.1635   0.3029  -0.5402  -0.5372   0.99    0.0
2002 105870  -3943279.7387   3370063.4505   3699066.5585   5   3   9.6069  15.9749  23.5253 -12.3776  19.3618 -15.0295   0.99    0.0
2002 105871  -3943274.1762   3370056.9623   3699040.9802   2   7   0.9348   1.4871   1.0043  -1.1070   0.5972  -0.6964   0.99    0.0
2002 105872  -3943272.0992   3370054.1814   3699041.4960   2   7   0.7300   1.0645   0.9270  -0.8099   0.5319  -0.6133   0.99    0.0
2002 105873  -3943271.0790   3370054.7324   3699042.4874   1   7   0.3020   0.4997   0.7375  -0.3872   0.6048  -0.4714   0.99    9.3
2002 105874  -3943269.3621   3370054.0788   3699042.5659   1   5   0.2987   0.4883   0.7317  -0.3806   0.5954  -0.4669   0.99    8.3
2002 105875  -3943276.2333   3370067.6966   3699068.0779   2   4   8.1952  12.7586  25.9641 -10.2196  18.0842 -14.5168   0.99    5.3
2002 105876  -3943271.3489   3370060.3425   3699075.5902   2   7   1.0035   1.7066   1.8146  -1.2713   1.6082  -1.2439   0.99    1.0
2002 105877  -3943266.3600   3370060.1696   3699027.4836   2   4  13.4504  26.8039   4.8135 -18.9827   4.7768  -3.5818   0.99    2.0
2002 105878  -3943262.2304   3370049.4450   3699063.4208   2   5   1.9990   3.3982   4.8024  -2.5885   3.9605  -3.0445   0.99    2.9
2002 105879  -3943263.3232   3370058.6345   3699035.7626   2   5   1.8355   2.5650   7.9223  -2.1320   3.9853  -3.5801   0.99    1.1
2002 105880  -3943264.6224   3370058.7328   3699072.4392   2   5   0.8139   1.5285   6.5362  -0.9924  -1.6956  -1.1387   0.99  270.9
2002 105881  -3943263.4533   3370059.9009   3699066.6858   2   6   0.6709   1.0825   3.7399  -0.7773   0.6090  -1.0408   0.99    9.2
2002 105882  -3943261.7803   3370060.8419   3699059.0352   2   7   0.5825   0.9041   2.5314  -0.6702   0.8337  -0.8399   0.99  694.9
2002 105884  -3943257.7607   3370059.5234   3699051.5083   1   7   0.1808   0.1900   1.1595  -0.1828   0.4645  -0.4556   0.99   12.8
2002 105885  -3943257.2638   3370060.6887   3699056.6743   2   7   0.8455   1.5103   1.3570  -1.0993   1.3012  -0.9889   0.99    1.0
2002 105886  -3943256.8488   3370061.6598   3699063.5050   2   7   0.6508   1.1635   1.0557  -0.8329   0.8121  -0.6328   0.99    1.2
2002 105887  -3943256.5388   3370064.0224   3699064.1218   2   6   0.5544   0.9587   1.0202  -0.6866   0.6895  -0.5561   0.99    1.4
2002 105888  -3943256.2053   3370065.4628   3699065.2263   2   7   0.4952   0.8254   0.9801  -0.5954   0.6243  -0.5081   0.99  408.9
2002 105889  -3943259.2007   3370072.1472   3699074.5647   2   5   1.3800   1.7364   3.6807  -1.2018   1.8467  -2.2031   0.99    1.0
2002 105890  -3943267.9354   3370060.5701   3699068.8552   5   2  13.4254  26.9090  29.9284 -18.8633  -5.2411  -7.4542   0.99    0.0
2002 105891  -3943256.6331   3370077.7290   3699067.9778   2   5   5.0671  12.5803   7.0773  -7.7389   9.3634  -5.7876   0.99    8.7
2002 105892  -3943252.3875   3370072.9162   3699061.9310   2  11   1.3641   1.5564   1.1346  -1.2401   1.2343  -1.0513   0.99   17.0
2002 105893  -3943249.8870   3370073.3476   3699062.0864   2   7   1.1720   1.4934   1.0244  -1.1267   1.1617  -0.9460   0.99    4.2
2002 105894  -3943247.1191   3370071.3361   3699060.6973   1   7   0.3955   0.7694   0.1867  -0.5510   0.3779  -0.2714   0.99    6.1
2002 105895  -3943249.8316   3370075.4163   3699062.3765   2   9   0.8085   0.8763   0.6694  -0.6968   0.6964  -0.6378   0.99    1.0
2002 105896  -3943248.4468   3370075.8249   3699062.1819   2   8   0.6998   0.7491   0.5853  -0.5908   0.5958  -0.5508   0.99    1.5
2002 105897  -3943247.2877   3370076.3858   3699061.7624   2   7   0.6792   0.6846   0.5464  -0.5610   0.5504  -0.5291   0.99    1.3
2002 105898  -3943240.7721   3370071.8386   3699057.1568   2   9   1.9320   1.5459   1.4347  -1.6271   1.3387  -1.5564   0.99    2.6
2002 105899  -3943244.1856   3370076.1047   3699057.8865   2   8   1.3258   1.0829   0.9832  -1.1130   0.9175  -1.0537   0.99    1.6
2002 105900  -3943243.1240   3370077.3978   3699058.0789   2   9   0.5987   0.6767   0.6544  -0.5215   0.5138  -0.5545   0.99    1.0
2002 105901  -3943242.5641   3370078.7057   3699058.8759   2  11   0.5107   0.6214   0.5238  -0.4531   0.4387  -0.4507   0.99    1.5
2002 105902  -3943241.3277   3370076.6593   3699059.0357   2  13   0.4666   0.5318   0.4451  -0.4140   0.3902  -0.3951   0.99    1.2
2002 105903  -3943240.6227   3370078.0021   3699059.4890   2  12   0.4346   0.4806   0.3975  -0.3850   0.3583  -0.3578   0.99    1.0
2002 105904  -3943240.1735   3370079.3606   3699060.2393   2  13   0.4144   0.4392   0.3620  -0.3653   0.3313  -0.3350   0.99    1.0
2002 105905  -3943239.5032   3370080.6388   3699060.5391   2  13   0.3882   0.4085   0.3367  -0.3419   0.3114  -0.3122   0.99    1.4
2002 105906  -3943239.1275   3370082.0525   3699061.5360   2  12   0.3682   0.3844   0.3150  -0.3230   0.2894  -0.2956   0.99    1.3
2002 105907  -3943238.0787   3370082.9846   3699061.5763   2  10   0.3541   0.3646   0.3006  -0.3076   0.2726  -0.2842   0.99    2.3
2002 105908  -3943237.4850   3370084.2202   3699061.9837   2  10   0.3154   0.2750   0.1987  -0.2420   0.1509  -0.2190   0.99    1.6
2002 105909  -3943236.5383   3370085.1014   3699062.0845   2   8   0.3076   0.2718   0.1962  -0.2392   0.1477  -0.2132   0.99    2.0
2002 105910  -3943235.5161   3370086.0245   3699062.0941   2  10   0.2987   0.2660   0.1944  -0.2347   0.1438  -0.2066   0.99    1.8
2002 105911  -3943234.3593   3370086.9415   3699061.8959   2  10   0.2906   0.2610   0.1917  -0.2303   0.1441  -0.2023   0.99    1.1
2002 105912  -3943233.8588   3370087.6141   3699062.2944   1   8   0.1217   0.2372   0.0807  -0.1687   0.1207  -0.0911   0.99    3.0
2002 105913  -3943230.2938   3370085.5012   3699056.0903   1   9   0.2616   0.1235   0.1633  -0.1791   0.1407  -0.2061   0.99    5.0
2002 105914  -3943226.4969   3370088.2954   3699053.3393   2  10   0.3270   0.6795   0.4227  -0.4025   0.5059  -0.3254   0.99  338.8
2002 105915  -3943225.7632   3370089.2172   3699053.8612   1   8   0.0283   0.0337   0.0497  -0.0029  -0.0328  -0.0313   0.99   15.0
