$GPGSA,A,1,,,,,,,,,,,,,,,*1E
$GPGSV,1,1,0,,,,,,,,,,,,,,,,*49
$GPRMC,044824.00,A,3540.5861633,N,13928.9521117,E,0.13,0.00,210518,0.0,E,A*31
$GPGGA,044824.00,3540.5861633,N,13928.9521117,E,1,06,1.0,48.961,M,38.824,M,0.0,*7B
$GPGSA,A,3,16,26,27,,,,,,,,,,0.0,0.0,0.0,1*29
$GPGSV,1,1,03,16,49,088,42,26,24,109,42,27,61,023,52,,,,,1*53
$GPRMC,044825.00,A,3540.5862129,N,13928.9523112,E,0.04,0.00,210518,0.0,E,A*3E
$GPGGA,044825.00,3540.5862129,N,13928.9523112,E,1,06,1.0,49.164,M,38.824,M,0.0,*7E
$GPGSA,A,3,16,26,27,,,,,,,,,,0.0,0.0,0.0,1*29
$GPGSV,1,1,03,16,49,088,42,26,24,109,42,27,61,023,52,,,,,1*53
$GPRMC,044826.00,A,3540.5864821,N,13928.9524858,E,0.15,0.00,210518,0.0,E,A*3A
$GPGGA,044826.00,3540.5864821,N,13928.9524858,E,1,06,1.0,48.484,M,38.824,M,0.0,*70
$GPGSA,A,3,16,26,27,,,,,,,,,,0.0,0.0,0.0,1*29
$GPGSV,1,1,03,16,49,088,42,26,24,109,42,27,61,023,52,,,,,1*53
$GPRMC,044827.00,A,3540.5863869,N,13928.9523052,E,0.17,0.00,210518,0.0,E,A*37
$GPGGA,044827.00,3540.5863869,N,13928.9523052,E,1,06,1.0,48.116,M,38.824,M,0.0,*71
$GPGSA,A,3,16,26,27,,,,,,,,,,0.0,0.0,0.0,1*29
$GPGSV,1,1,03,16,49,088,42,26,24,109,42,27,61,023,52,,,,,1*53
$GPRMC,044828.00,A,3540.5864099,N,13928.9523475,E,0.06,0.00,210518,0.0,E,A*39
$GPGGA,044828.00,3540.5864099,N,13928.9523475,E,1,06,1.0,47.138,M,38.824,M,0.0,*7C
$GPGSA,A,3,16,26,27,,,,,,,,,,0.0,0.0,0.0,1*29
$GPGSV,1,1,03,16,49,088,42,26,24,109,42,27,61,023,52,,,,,1*53
$GPRMC,044829.00,A,3540.5868243,N,13928.9521713,E,0.17,0.00,210518,0.0,E,A*30
$GPGGA,044829.00,3540.5868243,N,13928.9521713,E,1,06,1.0,45.306,M,38.824,M,0.0,*78
$GPGSA,A,3,16,26,27,,,,,,,,,,0.0,0.0,0.0,1*29
$GPGSV,1,1,03,16,49,088,42,26,24,109,42,27,61,023,52,,,,,1*53
$GPRMC,044830.00,A,3540.5868821,N,13928.9520507,E,0.14,0.00,210518,0.0,E,A*33
$GPGGA,044830.00,3540.5868821,N,13928.9520507,E,1,06,1.0,45.427,M,38.824,M,0.0,*7C
$GPGSA,A,3,16,26,27,,,,,,,,,,0.0,0.0,0.0,1*29
$GPGSV,1,1,03,16,49,088,42,26,24,109,41,27,61,023,52,,,,,1*50
$GPRMC,044831.00,A,3540.5869048,N,13928.9522002,E,0.08,0.00,210518,0.0,E,A*3B
$GPGGA,044831.00,3540.5869048,N,13928.9522002,E,1,06,1.0,44.754,M,38.824,M,0.0,*7F
$GPGSA,A,3,16,26,27,,,,,,,,,,0.0,0.0,0.0,1*29
$GPGSV,1,1,03,16,49,088,42,26,24,109,41,27,61,023,52,,,,,1*50
$GPRMC,044832.00,A,3540.5868584,N,13928.9521731,E,0.07,0.00,210518,0.0,E,A*37
$GPGGA,044832.00,3540.5868584,N,13928.9521731,E,1,06,1.0,44.660,M,38.824,M,0.0,*7A
$GPGSA,A,3,16,26,27,,,,,,,,,,0.0,0.0,0.0,1*29
$GPGSV,1,1,03,16,48,088,43,26,24,109,41,27,61,023,52,,,,,1*50
$GPRMC,044833.00,A,3540.5868017,N,13928.9521678,E,0.05,0.00,210518,0.0,E,A*37
$GPGGA,044833.00,3540.5868017,N,13928.9521678,E,1,06,1.0,44.780,M,38.824,M,0.0,*77
$GPGSA,A,3,16,26,27,,,,,,,,,,0.0,0.0,0.0,1*29
$GPGSV,1,1,03,16,48,088,42,26,24,109,41,27,61,023,52,,,,,1*51
$GPRMC,044834.00,A,3540.5869067,N,13928.9523953,E,0.01,0.00,210518,0.0,E,A*36
$GPGGA,044834.00,3540.5869067,N,13928.9523953,E,1,06,1.0,44.822,M,38.824,M,0.0,*75
$GPGSA,A,3,16,26,27,,,,,,,,,,0.0,0.0,0.0,1*29
$GPGSV,1,1,03,16,48,088,42,26,24,109,41,27,61,023,52,,,,,1*51
$GPRMC,044835.00,A,3540.5871102,N,13928.9522815,E,0.17,0.00,210518,0.0,E,A*39
$GPGGA,044835.00,3540.5871102,N,13928.9522815,E,1,06,1.0,44.251,M,38.824,M,0.0,*73
$GPGSA,A,3,16,26,27,,,,,,,,,,0.0,0.0,0.0,1*29
$GPGSV,1,1,03,16,48,088,42,26,24,109,41,27,61,023,52,,,,,1*51
$GPRMC,044836.00,A,3540.5869935,N,13928.9521296,E,0.06,0.00,210518,0.0,E,A*3D
$GPGGA,044836.00,3540.5869935,N,13928.9521296,E,1,06,1.0,44.090,M,38.824,M,0.0,*78
$GPGSA,A,3,16,26,27,,,,,,,,,,0.0,0.0,0.0,1*29
$GPGSV,1,1,03,16,48,088,42,26,24,109,40,27,61,023,52,,,,,1*50
$GPRMC,044837.00,A,3540.5871003,N,13928.9519874,E,0.10,0.00,210518,0.0,E,A*33
$GPGGA,044837.00,3540.5871003,N,13928.9519874,E,1,06,1.0,43.033,M,38.824,M,0.0,*7F
$GPGSA,A,3,16,26,27,,,,,,,,,,0.0,0.0,0.0,1*29
$GPGSV,1,1,03,16,48,088,42,26,24,109,40,27,61,023,52,,,,,1*50
$GPRMC,044838.00,A,3540.5871385,N,13928.9521883,E,0.09,0.00,210518,0.0,E,A*3A
$GPGGA,044838.00,3540.5871385,N,13928.9521883,E,1,06,1.0,42.699,M,38.824,M,0.0,*79
$GPGSA,A,3,16,26,27,,,,,,,,,,0.0,0.0,0.0,1*29
$GPGSV,1,1,03,16,48,088,42,26,24,109,40,27,61,023,52,,,,,1*50
$GPRMC,044839.00,A,3540.5870533,N,13928.9522371,E,0.38,0.00,210518,0.0,E,A*36
$GPGGA,044839.00,3540.5870533,N,13928.9522371,E,1,06,1.0,43.209,M,38.824,M,0.0,*7B
$GPGSA,A,3,16,26,27,,,,,,,,,,0.0,0.0,0.0,1*29
$GPGSV,1,1,03,16,48,088,41,26,24,109,40,27,61,023,52,,,,,1*53
$GPRMC,044840.00,A,3540.5868312,N,13928.9517580,E,0.15,0.00,210518,0.0,E,A*35
$GPGGA,044840.00,3540.5868312,N,13928.9517580,E,1,06,1.0,44.523,M,38.824,M,0.0,*7F
$GPGSA,A,3,16,26,27,,,,,,,,,,0.0,0.0,0.0,1*29
$GPGSV,1,1,03,16,48,088,40,26,24,109,40,27,61,023,52,,,,,1*52
$GPRMC,044841.00,A,3540.5875385,N,13928.9540767,E,0.12,0.00,210518,0.0,E,A*38
$GPGGA,044841.00,3540.5875385,N,13928.9540767,E,1,05,1.0,37.125,M,38.824,M,0.0,*70
$GPGSA,A,3,16,27,,,,,,,,,,,0.0,0.0,0.0,1*2D
$GPGSV,1,1,02,16,48,088,41,27,61,023,52,,,,,,,,,1*6C
$GPRMC,044842.00,A,3540.5866177,N,13928.9518782,E,0.06,0.00,210518,0.0,E,A*35
$GPGGA,044842.00,3540.5866177,N,13928.9518782,E,1,06,1.0,46.174,M,38.824,M,0.0,*79
$GPGSA,A,3,16,26,27,,,,,,,,,,0.0,0.0,0.0,1*29
$GPGSV,1,1,03,16,48,088,42,26,24,109,40,27,61,023,52,,,,,1*50
$GPRMC,044843.00,A,3540.5863568,N,13928.9514588,E,0.17,0.00,210518,0.0,E,A*3F
$GPGGA,044843.00,3540.5863568,N,13928.9514588,E,1,06,1.0,46.737,M,38.824,M,0.0,*72
$GPGSA,A,3,16,26,27,,,,,,,,,,0.0,0.0,0.0,1*29
$GPGSV,1,1,03,16,48,088,42,26,24,109,40,27,61,023,52,,,,,1*50
$GPRMC,044844.00,A,3540.5863459,N,13928.9512086,E,0.10,0.00,210518,0.0,E,A*31
$GPGGA,044844.00,3540.5863459,N,13928.9512086,E,1,06,1.0,46.995,M,38.824,M,0.0,*7D
$GPGSA,A,3,16,26,27,,,,,,,,,,0.0,0.0,0.0,1*29
$GPGSV,1,1,03,16,48,088,42,26,24,109,40,27,61,023,52,,,,,1*50
$GPRMC,044845.00,A,3540.5867738,N,13928.9521735,E,0.14,0.00,210518,0.0,E,A*3B
$GPGGA,044845.00,3540.5867738,N,13928.9521735,E,1,07,1.0,49.871,M,38.824,M,0.0,*76
$GPGSA,A,3,16,26,27,,,,,,,,,,0.0,0.0,0.0,1*29
$GPGSV,1,1,03,16,48,088,42,26,24,109,40,27,61,023,52,,,,,1*50
$GPRMC,044846.00,A,3540.5868876,N,13928.9516469,E,0.08,0.00,210518,0.0,E,A*31
$GPGGA,044846.00,3540.5868876,N,13928.9516469,E,1,07,1.0,49.955,M,38.824,M,0.0,*76
$GPGSA,A,3,16,26,27,,,,,,,,,,0.0,0.0,0.0,1*29
$GPGSV,1,1,03,16,48,088,42,26,24,109,40,27,61,023,51,,,,,1*53
$GPRMC,044847.00,A,3540.5868417,N,13928.9513596,E,0.11,0.00,210518,0.0,E,A*37
$GPGGA,044847.00,3540.5868417,N,13928.9513596,E,1,07,1.0,50.120,M,38.824,M,0.0,*7A
$GPGSA,A,3,16,26,27,,,,,,,,,,0.0,0.0,0.0,1*29
$GPGSV,1,1,03,16,48,088,41,26,24,109,40,27,61,023,51,,,,,1*50
$GPRMC,044848.00,A,3540.5867809,N,13928.9511509,E,0.16,0.00,210518,0.0,E,A*37
$GPGGA,044848.00,3540.5867809,N,13928.9511509,E,1,07,1.0,49.849,M,38.824,M,0.0,*73
$GPGSA,A,3,16,26,27,,,,,,,,,,0.0,0.0,0.0,1*29
$GPGSV,1,1,03,16,48,088,41,26,24,109,40,27,61,023,51,,,,,1*50
$GPRMC,044849.00,A,3540.5875453,N,13928.9528979,E,0.12,0.00,210518,0.0,E,A*33
$GPGGA,044849.00,3540.5875453,N,13928.9528979,E,1,06,1.0,40.931,M,38.824,M,0.0,*75
$GPGSA,A,3,16,27,,,,,,,,,,,0.0,0.0,0.0,1*2D
$GPGSV,1,1,02,16,48,088,41,27,61,023,51,,,,,,,,,1*6F
$GPRMC,044850.00,A,3540.5875977,N,13928.9529659,E,0.13,0.00,210518,0.0,E,A*3D
$GPGGA,044850.00,3540.5875977,N,13928.9529659,E,1,06,1.0,40.182,M,38.824,M,0.0,*7A
$GPGSA,A,3,16,27,,,,,,,,,,,0.0,0.0,0.0,1*2D
$GPGSV,1,1,02,16,48,088,41,27,61,023,51,,,,,,,,,1*6F
$GPRMC,044851.00,A,3540.5876634,N,13928.9529529,E,0.19,0.00,210518,0.0,E,A*39
$GPGGA,044851.00,3540.5876634,N,13928.9529529,E,1,06,1.0,39.245,M,38.824,M,0.0,*72
$GPGSA,A,3,16,27,,,,,,,,,,,0.0,0.0,0.0,1*2D
$GPGSV,1,1,02,16,48,088,41,27,61,023,51,,,,,,,,,1*6F
$GPRMC,044852.00,A,3540.5877089,N,13928.9530006,E,0.25,0.00,210518,0.0,E,A*34
$GPGGA,044852.00,3540.5877089,N,13928.9530006,E,1,06,1.0,39.419,M,38.824,M,0.0,*7F
$GPGSA,A,3,16,27,,,,,,,,,,,0.0,0.0,0.0,1*2D
$GPGSV,1,1,02,16,48,088,41,27,61,023,51,,,,,,,,,1*6F
$GPRMC,044853.00,A,3540.5876681,N,13928.9530982,E,0.07,0.00,210518,0.0,E,A*3F
$GPGGA,044853.00,3540.5876681,N,13928.9530982,E,1,06,1.0,38.016,M,38.824,M,0.0,*7E
$GPGSA,A,3,16,27,,,,,,,,,,,0.0,0.0,0.0,1*2D
$GPGSV,1,1,02,16,48,088,41,27,61,023,51,,,,,,,,,1*6F
$GPRMC,044854.00,A,3540.5877993,N,13928.9537070,E,0.33,0.00,210518,0.0,E,A*31
$GPGGA,044854.00,3540.5877993,N,13928.9537070,E,1,07,1.0,39.298,M,38.824,M,0.0,*73
$GPGSA,A,3,16,27,,,,,,,,,,,0.0,0.0,0.0,1*2D
$GPGSV,1,1,02,16,48,088,40,27,61,023,51,,,,,,,,,1*6E
$GPRMC,044855.00,A,3540.5877403,N,13928.9535453,E,0.32,0.00,210518,0.0,E,A*32
$GPGGA,044855.00,3540.5877403,N,13928.9535453,E,1,07,1.0,39.747,M,38.824,M,0.0,*76
$GPGSA,A,3,16,27,,,,,,,,,,,0.0,0.0,0.0,1*2D
$GPGSV,1,1,02,16,48,088,41,27,61,023,51,,,,,,,,,1*6F
$GPRMC,044856.00,A,3540.5877071,N,13928.9535342,E,0.18,0.00,210518,0.0,E,A*3F
$GPGGA,044856.00,3540.5877071,N,13928.9535342,E,1,07,1.0,39.429,M,38.824,M,0.0,*78
$GPGSA,A,3,16,27,,,,,,,,,,,0.0,0.0,0.0,1*2D
$GPGSV,1,1,02,16,48,088,41,27,61,023,50,,,,,,,,,1*6E
$GPRMC,044857.00,A,3540.5869706,N,13928.9508422,E,0.10,0.00,210518,0.0,E,A*31
$GPGGA,044857.00,3540.5869706,N,13928.9508422,E,1,08,1.0,50.764,M,38.824,M,0.0,*74
$GPGSA,A,3,16,26,27,,,,,,,,,,0.0,0.0,0.0,1*29
$GPGSV,1,1,03,16,48,088,41,26,24,109,40,27,61,023,50,,,,,1*51
$GPRMC,044858.00,A,3540.5869887,N,13928.9504479,E,0.15,0.00,210518,0.0,E,A*3F
$GPGGA,044858.00,3540.5869887,N,13928.9504479,E,1,08,1.0,49.962,M,38.824,M,0.0,*7F
$GPGSA,A,3,16,26,27,,,,,,,,,,0.0,0.0,0.0,1*29
$GPGSV,1,1,03,16,48,088,41,26,24,109,40,27,61,023,50,,,,,1*51
$GPRMC,044859.00,A,3540.5869569,N,13928.9501763,E,0.07,0.00,210518,0.0,E,A*3D
$GPGGA,044859.00,3540.5869569,N,13928.9501763,E,1,08,1.0,50.477,M,38.824,M,0.0,*7F
$GPGSA,A,3,16,26,27,,,,,,,,,,0.0,0.0,0.0,1*29
$GPGSV,1,1,03,16,48,088,41,26,24,109,40,27,61,023,50,,,,,1*51
$GPRMC,044900.00,A,3540.5868658,N,13928.9504120,E,0.07,0.00,210518,0.0,E,A*34
$GPGGA,044900.00,3540.5868658,N,13928.9504120,E,1,08,1.0,50.384,M,38.824,M,0.0,*7D
$GPGSA,A,3,16,26,27,,,,,,,,,,0.0,0.0,0.0,1*29
$GPGSV,1,1,03,16,48,088,41,26,24,109,40,27,61,023,50,,,,,1*51
$GPRMC,044901.00,A,3540.5878147,N,13928.9545439,E,0.09,0.00,210518,0.0,E,A*3B
$GPGGA,044901.00,3540.5878147,N,13928.9545439,E,1,11,1.0,50.636,M,38.824,M,0.0,*78
$GPGSA,A,3,07,08,16,18,26,27,,,,,,,2.9,1.3,2.6,1*22
$GPGSV,2,1,06,07,32,310,44,08,60,289,51,16,48,088,41,18,35,196,43,1*64
$GPGSV,2,2,06,26,24,109,40,27,61,023,50,,,,,,,,,1*6A
$GPRMC,044902.00,A,3540.5877652,N,13928.9546410,E,0.05,0.00,210518,0.0,E,A*30
$GPGGA,044902.00,3540.5877652,N,13928.9546410,E,1,11,1.0,50.481,M,38.824,M,0.0,*71
$GPGSA,A,3,07,08,16,18,26,27,,,,,,,2.9,1.3,2.6,1*22
$GPGSV,2,1,06,07,32,310,44,08,60,289,51,16,48,088,41,18,35,196,43,1*64
$GPGSV,2,2,06,26,24,109,40,27,61,023,50,,,,,,,,,1*6A
$GPRMC,044903.00,A,3540.5878271,N,13928.9545384,E,0.03,0.00,210518,0.0,E,A*34
$GPGGA,044903.00,3540.5878271,N,13928.9545384,E,1,11,1.0,50.870,M,38.824,M,0.0,*71
$GPGSA,A,3,07,08,16,18,26,27,,,,,,,2.9,1.3,2.6,1*22
$GPGSV,2,1,06,07,32,310,44,08,60,289,51,16,48,088,41,18,35,196,43,1*64
$GPGSV,2,2,06,26,24,109,40,27,61,023,50,,,,,,,,,1*6A
$GPRMC,044904.00,A,3540.5878184,N,13928.9544705,E,0.14,0.00,210518,0.0,E,A*30
$GPGGA,044904.00,3540.5878184,N,13928.9544705,E,1,11,1.0,50.261,M,38.824,M,0.0,*79
$GPGSA,A,3,07,08,16,18,26,27,,,,,,,2.9,1.3,2.6,1*22
$GPGSV,2,1,06,07,32,310,44,08,60,289,51,16,48,088,41,18,35,196,43,1*64
$GPGSV,2,2,06,26,24,109,40,27,61,023,50,,,,,,,,,1*6A
$GPRMC,044905.00,A,3540.5878562,N,13928.9543087,E,0.12,0.00,210518,0.0,E,A*31
$GPGGA,044905.00,3540.5878562,N,13928.9543087,E,1,11,1.0,49.803,M,38.824,M,0.0,*78
$GPGSA,A,3,07,08,16,18,26,27,,,,,,,2.9,1.3,2.6,1*22
$GPGSV,2,1,06,07,32,309,44,08,60,289,52,16,48,088,41,18,35,196,44,1*68
$GPGSV,2,2,06,26,24,109,40,27,61,023,50,,,,,,,,,1*6A
$GPRMC,044906.00,A,3540.5879836,N,13928.9542749,E,0.04,0.00,210518,0.0,E,A*3C
$GPGGA,044906.00,3540.5879836,N,13928.9542749,E,1,11,1.0,49.211,M,38.824,M,0.0,*7B
$GPGSA,A,3,07,08,16,18,26,27,,,,,,,2.9,1.3,2.6,1*22
$GPGSV,2,1,06,07,32,309,44,08,60,289,51,16,48,088,41,18,35,196,44,1*6B
$GPGSV,2,2,06,26,24,109,40,27,61,023,50,,,,,,,,,1*6A
$GPRMC,044907.00,A,3540.5880138,N,13928.9542727,E,0.05,0.00,210518,0.0,E,A*35
$GPGGA,044907.00,3540.5880138,N,13928.9542727,E,1,11,1.0,48.756,M,38.824,M,0.0,*74
$GPGSA,A,3,07,08,16,18,26,27,,,,,,,2.9,1.3,2.6,1*22
$GPGSV,2,1,06,07,32,309,44,08,60,289,51,16,48,088,41,18,35,196,44,1*6B
$GPGSV,2,2,06,26,24,109,40,27,61,023,50,,,,,,,,,1*6A
$GPRMC,044908.00,A,3540.5879642,N,13928.9542259,E,0.04,0.00,210518,0.0,E,A*3B
$GPGGA,044908.00,3540.5879642,N,13928.9542259,E,1,11,1.0,49.079,M,38.824,M,0.0,*70
$GPGSA,A,3,07,08,16,18,26,27,,,,,,,2.9,1.3,2.6,1*22
$GPGSV,2,1,06,07,32,309,44,08,60,289,51,16,48,088,41,18,35,196,44,1*6B
$GPGSV,2,2,06,26,24,109,40,27,61,023,50,,,,,,,,,1*6A
$GPRMC,044909.00,A,3540.5879677,N,13928.9542474,E,0.02,0.00,210518,0.0,E,A*33
$GPGGA,044909.00,3540.5879677,N,13928.9542474,E,1,11,1.0,49.043,M,38.824,M,0.0,*77
$GPGSA,A,3,07,08,16,18,26,27,,,,,,,2.9,1.3,2.6,1*22
$GPGSV,2,1,06,07,32,309,44,08,60,289,51,16,48,088,41,18,35,196,44,1*6B
$GPGSV,2,2,06,26,24,109,40,27,61,023,50,,,,,,,,,1*6A
$GPRMC,044910.00,A,3540.5880363,N,13928.9542612,E,0.13,0.00,210518,0.0,E,A*3F
$GPGGA,044910.00,3540.5880363,N,13928.9542612,E,1,11,1.0,49.220,M,38.824,M,0.0,*7C
$GPGSA,A,3,07,08,16,18,26,27,,,,,,,2.9,1.3,2.6,1*22
$GPGSV,2,1,06,07,32,309,44,08,60,289,51,16,48,088,41,18,35,196,44,1*6B
$GPGSV,2,2,06,26,24,109,40,27,61,023,50,,,,,,,,,1*6A
$GPRMC,044911.00,A,3540.5878745,N,13928.9541365,E,0.09,0.00,210518,0.0,E,A*34
$GPGGA,044911.00,3540.5878745,N,13928.9541365,E,1,11,1.0,49.683,M,38.824,M,0.0,*71
$GPGSA,A,3,07,08,16,18,26,27,,,,,,,2.9,1.3,2.6,1*22
$GPGSV,2,1,06,07,32,309,45,08,60,289,51,16,48,088,41,18,35,196,44,1*6A
$GPGSV,2,2,06,26,24,109,40,27,61,023,50,,,,,,,,,1*6A
$GPRMC,044912.00,A,3540.5878015,N,13928.9541883,E,0.17,0.00,210518,0.0,E,A*39
$GPGGA,044912.00,3540.5878015,N,13928.9541883,E,1,11,1.0,50.925,M,38.824,M,0.0,*78
$GPGSA,A,3,07,08,16,18,26,27,,,,,,,2.9,1.3,2.6,1*22
$GPGSV,2,1,06,07,32,309,45,08,60,289,51,16,48,088,41,18,35,196,44,1*6A
$GPGSV,2,2,06,26,24,109,40,27,61,023,50,,,,,,,,,1*6A
$GPRMC,044913.00,A,3540.5876197,N,13928.9542726,E,0.13,0.00,210518,0.0,E,A*3A
$GPGGA,044913.00,3540.5876197,N,13928.9542726,E,1,11,1.0,51.428,M,38.824,M,0.0,*7E
$GPGSA,A,3,07,08,16,18,26,27,,,,,,,2.9,1.3,2.6,1*22
$GPGSV,2,1,06,07,32,309,45,08,60,289,50,16,48,088,41,18,35,196,44,1*6B
$GPGSV,2,2,06,26,24,109,40,27,61,023,49,,,,,,,,,1*62
$GPRMC,044914.00,A,3540.5877666,N,13928.9567028,E,0.19,0.00,210518,0.0,E,D*34
$GPGGA,044914.00,3540.5877666,N,13928.9567028,E,5,09,1.0,47.343,M,38.824,M,1.0,*7E
$GPGSA,A,3,07,08,16,18,27,,,,,,,,4.0,1.5,3.7,1*2F
$GPGSV,2,1,05,07,32,309,44,08,60,289,49,16,48,088,40,18,35,196,43,1*67
$GPGSV,2,2,05,27,61,023,48,,,,,,,,,,,,,1*5E
$GPRMC,044915.00,A,3540.5876915,N,13928.9568508,E,0.09,0.00,210518,0.0,E,D*36
$GPGGA,044915.00,3540.5876915,N,13928.9568508,E,5,09,1.0,47.413,M,38.824,M,1.0,*7F
$GPGSA,A,3,07,08,18,27,,,,,,,,,4.7,2.2,4.1,1*2A
$GPGSV,1,1,04,07,32,309,44,08,60,289,49,18,35,196,43,27,61,023,49,1*64
$GPRMC,044916.00,A,3540.5876133,N,13928.9567634,E,0.07,0.00,210518,0.0,E,D*34
$GPGGA,044916.00,3540.5876133,N,13928.9567634,E,5,09,1.0,48.012,M,38.824,M,1.0,*79
$GPGSA,A,3,07,08,18,27,,,,,,,,,4.7,2.2,4.1,1*2A
$GPGSV,1,1,04,07,32,309,45,08,60,289,49,18,35,196,43,27,61,023,49,1*65
$GPRMC,044917.00,A,3540.5875320,N,13928.9566730,E,0.11,0.00,210518,0.0,E,D*35
$GPGGA,044917.00,3540.5875320,N,13928.9566730,E,5,09,1.0,48.760,M,38.824,M,1.0,*7D
$GPGSA,A,3,07,08,18,27,,,,,,,,,4.7,2.2,4.1,1*2A
$GPGSV,1,1,04,07,32,309,45,08,60,289,49,18,35,196,43,27,61,023,49,1*65
$GPRMC,044918.00,A,3540.5874352,N,13928.9566578,E,0.05,0.00,210518,0.0,E,D*35
$GPGGA,044918.00,3540.5874352,N,13928.9566578,E,5,09,1.0,49.452,M,38.824,M,1.0,*7B
$GPGSA,A,3,07,08,16,18,27,,,,,,,,4.0,1.5,3.7,1*2F
$GPGSV,2,1,05,07,32,309,45,08,60,289,50,16,48,088,40,18,35,196,43,1*6E
$GPGSV,2,2,05,27,61,023,49,,,,,,,,,,,,,1*5F
$GPRMC,044919.00,A,3540.5873338,N,13928.9566736,E,0.06,0.00,210518,0.0,E,D*34
$GPGGA,044919.00,3540.5873338,N,13928.9566736,E,5,09,1.0,50.049,M,38.824,M,1.0,*7F
$GPGSA,A,3,07,08,16,18,26,27,,,,,,,2.9,1.3,2.6,1*22
$GPGSV,2,1,06,07,32,309,47,08,60,289,51,16,48,088,42,18,35,196,45,1*6A
$GPGSV,2,2,06,26,24,109,00,27,61,023,51,,,,,,,,,1*6F
$GPRMC,044920.00,A,3540.5872348,N,13928.9566708,E,0.10,0.00,210518,0.0,E,D*32
$GPGGA,044920.00,3540.5872348,N,13928.9566708,E,5,09,1.0,50.706,M,38.824,M,1.0,*72
$GPGSA,A,3,07,08,16,18,26,27,,,,,,,2.9,1.3,2.6,1*22
$GPGSV,2,1,06,07,32,309,47,08,60,289,51,16,48,088,42,18,35,196,45,1*6A
$GPGSV,2,2,06,26,24,109,00,27,61,023,51,,,,,,,,,1*6F
$GPRMC,044921.00,A,3540.5871462,N,13928.9566663,E,0.02,0.00,210518,0.0,E,D*30
$GPGGA,044921.00,3540.5871462,N,13928.9566663,E,5,09,1.0,51.242,M,38.824,M,1.0,*77
$GPGSA,A,3,07,08,16,18,26,27,,,,,,,2.9,1.3,2.6,1*22
$GPGSV,2,1,06,07,32,309,47,08,60,290,51,16,48,088,42,18,35,196,45,1*62
$GPGSV,2,2,06,26,24,109,00,27,61,023,51,,,,,,,,,1*6F
$GPRMC,044922.00,A,3540.5870624,N,13928.9566609,E,0.12,0.00,210518,0.0,E,D*3F
$GPGGA,044922.00,3540.5870624,N,13928.9566609,E,5,09,1.0,51.660,M,38.824,M,1.0,*7D
$GPGSA,A,3,07,08,16,18,26,27,,,,,,,2.9,1.3,2.6,1*22
$GPGSV,2,1,06,07,32,309,47,08,60,290,51,16,48,088,42,18,35,196,45,1*62
$GPGSV,2,2,06,26,24,109,00,27,61,024,51,,,,,,,,,1*68
$GPRMC,044923.00,A,3540.5869857,N,13928.9566627,E,0.09,0.00,210518,0.0,E,D*3A
$GPGGA,044923.00,3540.5869857,N,13928.9566627,E,5,09,1.0,51.936,M,38.824,M,1.0,*7E
$GPGSA,A,3,07,08,16,18,26,27,,,,,,,2.9,1.3,2.6,1*22
$GPGSV,2,1,06,07,32,309,47,08,60,290,51,16,48,088,42,18,35,196,45,1*62
$GPGSV,2,2,06,26,24,109,00,27,61,024,51,,,,,,,,,1*68
$GPRMC,044924.00,A,3540.5869170,N,13928.9566319,E,0.11,0.00,210518,0.0,E,D*30
$GPGGA,044924.00,3540.5869170,N,13928.9566319,E,5,09,1.0,52.215,M,38.824,M,1.0,*74
$GPGSA,A,3,07,08,16,18,26,27,,,,,,,2.9,1.3,2.6,1*22
$GPGSV,2,1,06,07,32,309,47,08,60,290,51,16,48,088,42,18,35,196,44,1*63
$GPGSV,2,2,06,26,24,109,00,27,61,024,51,,,,,,,,,1*68
$GPRMC,044925.00,A,3540.5868573,N,13928.9565900,E,0.13,0.00,210518,0.0,E,D*34
$GPGGA,044925.00,3540.5868573,N,13928.9565900,E,5,09,1.0,52.415,M,38.824,M,1.0,*74
$GPGSA,A,3,07,08,16,18,26,27,,,,,,,2.9,1.3,2.6,1*22
$GPGSV,2,1,06,07,32,309,47,08,60,290,51,16,48,088,42,18,35,196,44,1*63
$GPGSV,2,2,06,26,24,109,00,27,61,024,51,,,,,,,,,1*68
$GPRMC,044926.00,A,3540.5867928,N,13928.9565560,E,0.09,0.00,210518,0.0,E,D*3B
$GPGGA,044926.00,3540.5867928,N,13928.9565560,E,5,09,1.0,52.756,M,38.824,M,1.0,*74
$GPGSA,A,3,07,08,16,18,27,,,,,,,,4.0,1.5,3.7,1*2F
$GPGSV,2,1,05,07,32,309,47,08,60,290,49,16,48,089,41,18,35,196,45,1*6A
$GPGSV,2,2,05,27,61,024,51,,,,,,,,,,,,,1*51
$GPRMC,044927.00,A,3540.5867334,N,13928.9565394,E,0.11,0.00,210518,0.0,E,D*39
$GPGGA,044927.00,3540.5867334,N,13928.9565394,E,5,08,1.0,53.235,M,38.824,M,1.0,*7F
$GPGSA,A,3,07,08,16,18,27,,,,,,,,4.0,1.5,3.7,1*2F
$GPGSV,2,1,05,07,32,309,47,08,60,290,51,16,48,089,42,18,35,196,44,1*61
$GPGSV,2,2,05,27,61,024,52,,,,,,,,,,,,,1*52
$GPRMC,044928.00,A,3540.5866781,N,13928.9565151,E,0.05,0.00,210518,0.0,E,D*33
$GPGGA,044928.00,3540.5866781,N,13928.9565151,E,5,08,1.0,53.615,M,38.824,M,1.0,*76
$GPGSA,A,3,07,08,16,18,26,27,,,,,,,2.9,1.3,2.6,1*22
$GPGSV,2,1,06,07,32,309,48,08,60,290,51,16,48,089,42,18,35,196,44,1*6D
$GPGSV,2,2,06,26,24,109,00,27,61,024,52,,,,,,,,,1*6B
$GPRMC,044929.00,A,3540.5866215,N,13928.9564750,E,0.07,0.00,210518,0.0,E,D*3E
$GPGGA,044929.00,3540.5866215,N,13928.9564750,E,5,09,1.0,53.862,M,38.824,M,1.0,*76
$GPGSA,A,3,07,08,16,18,26,27,,,,,,,2.9,1.3,2.6,1*22
$GPGSV,2,1,06,07,32,309,47,08,60,290,51,16,48,089,42,18,35,196,44,1*62
$GPGSV,2,2,06,26,24,109,00,27,61,024,51,,,,,,,,,1*68
$GPRMC,044930.00,A,3540.5865685,N,13928.9564186,E,0.04,0.00,210518,0.0,E,D*36
$GPGGA,044930.00,3540.5865685,N,13928.9564186,E,5,09,1.0,54.116,M,38.824,M,1.0,*70
$GPGSA,A,3,07,08,16,18,26,27,,,,,,,2.9,1.3,2.6,1*22
$GPGSV,2,1,06,07,32,309,48,08,60,290,51,16,48,089,42,18,35,196,44,1*6D
$GPGSV,2,2,06,26,24,109,00,27,61,024,51,,,,,,,,,1*68
$GPRMC,044931.00,A,3540.5865330,N,13928.9563685,E,0.04,0.00,210518,0.0,E,D*3F
$GPGGA,044931.00,3540.5865330,N,13928.9563685,E,5,09,1.0,54.284,M,38.824,M,1.0,*71
$GPGSA,A,3,07,08,16,18,26,27,,,,,,,2.9,1.3,2.6,1*22
$GPGSV,2,1,06,07,32,309,48,08,60,290,51,16,48,089,42,18,35,196,44,1*6D
$GPGSV,2,2,06,26,24,109,00,27,60,024,51,,,,,,,,,1*69
$GPRMC,044932.00,A,3540.5865075,N,13928.9562958,E,0.06,0.00,210518,0.0,E,D*32
$GPGGA,044932.00,3540.5865075,N,13928.9562958,E,5,09,1.0,54.486,M,38.824,M,1.0,*7A
$GPGSA,A,3,07,08,16,18,26,27,,,,,,,2.9,1.3,2.6,1*22
$GPGSV,2,1,06,07,32,309,48,08,60,290,51,16,48,089,42,18,35,196,44,1*6D
$GPGSV,2,2,06,26,24,109,00,27,60,024,52,,,,,,,,,1*6A
$GPRMC,044933.00,A,3540.5864787,N,13928.9562426,E,0.11,0.00,210518,0.0,E,D*3A
$GPGGA,044933.00,3540.5864787,N,13928.9562426,E,5,09,1.0,54.664,M,38.824,M,1.0,*7A
$GPGSA,A,3,07,08,16,18,27,,,,,,,,4.0,1.5,3.7,1*2F
$GPGSV,2,1,05,07,32,309,48,08,60,290,51,16,48,089,42,18,35,196,44,1*6E
$GPGSV,2,2,05,27,60,024,52,,,,,,,,,,,,,1*53
$GPRMC,044934.00,A,3540.5864532,N,13928.9562051,E,0.13,0.00,210518,0.0,E,D*37
$GPGGA,044934.00,3540.5864532,N,13928.9562051,E,5,09,1.0,54.822,M,38.824,M,1.0,*79
$GPGSA,A,3,07,08,16,18,27,,,,,,,,4.0,1.5,3.7,1*2F
$GPGSV,2,1,05,07,32,309,48,08,60,290,51,16,48,089,41,18,35,196,44,1*6D
$GPGSV,2,2,05,27,60,024,52,,,,,,,,,,,,,1*53
$GPRMC,044935.00,A,3540.5864268,N,13928.9561821,E,0.07,0.00,210518,0.0,E,D*37
$GPGGA,044935.00,3540.5864268,N,13928.9561821,E,5,09,1.0,54.967,M,38.824,M,1.0,*7C
$GPGSA,A,3,07,08,16,18,27,,,,,,,,4.0,1.5,3.7,1*2F
$GPGSV,2,1,05,07,32,309,48,08,60,290,51,16,48,089,42,18,35,196,44,1*6E
$GPGSV,2,2,05,27,60,024,51,,,,,,,,,,,,,1*50
$GPRMC,044936.00,A,3540.5863969,N,13928.9561738,E,0.08,0.00,210518,0.0,E,D*31
$GPGGA,044936.00,3540.5863969,N,13928.9561738,E,5,09,1.0,55.129,M,38.824,M,1.0,*76
$GPGSA,A,3,07,08,16,18,27,,,,,,,,4.0,1.5,3.7,1*2F
$GPGSV,2,1,05,07,32,309,48,08,60,290,51,16,48,089,42,18,35,196,44,1*6E
$GPGSV,2,2,05,27,60,024,51,,,,,,,,,,,,,1*50
$GPRMC,044937.00,A,3540.5863523,N,13928.9561538,E,0.14,0.00,210518,0.0,E,D*3D
$GPGGA,044937.00,3540.5863523,N,13928.9561538,E,5,09,1.0,55.428,M,38.824,M,1.0,*73
$GPGSA,A,3,07,08,16,18,27,,,,,,,,4.0,1.5,3.7,1*2F
$GPGSV,2,1,05,07,32,309,48,08,60,290,51,16,48,089,42,18,35,196,44,1*6E
$GPGSV,2,2,05,27,60,024,51,,,,,,,,,,,,,1*50
$GPRMC,044938.00,A,3540.5863152,N,13928.9561521,E,0.11,0.00,210518,0.0,E,D*3D
$GPGGA,044938.00,3540.5863152,N,13928.9561521,E,5,09,1.0,55.640,M,38.824,M,1.0,*7A
$GPGSA,A,3,07,08,16,18,27,,,,,,,,4.0,1.5,3.7,1*2F
$GPGSV,2,1,05,07,32,309,48,08,60,290,51,16,48,089,42,18,35,196,44,1*6E
$GPGSV,2,2,05,27,60,024,51,,,,,,,,,,,,,1*50
$GPRMC,044939.00,A,3540.5862768,N,13928.9561803,E,0.11,0.00,210518,0.0,E,D*3F
$GPGGA,044939.00,3540.5862768,N,13928.9561803,E,5,09,1.0,55.797,M,38.824,M,1.0,*73
$GPGSA,A,3,07,08,16,18,27,,,,,,,,4.0,1.5,3.7,1*2F
$GPGSV,2,1,05,07,32,309,48,08,60,290,51,16,48,089,42,18,35,196,44,1*6E
$GPGSV,2,2,05,27,60,024,52,,,,,,,,,,,,,1*53
$GPRMC,044940.00,A,3540.5862333,N,13928.9562110,E,0.17,0.00,210518,0.0,E,D*35
$GPGGA,044940.00,3540.5862333,N,13928.9562110,E,5,09,1.0,56.016,M,38.824,M,1.0,*72
$GPGSA,A,3,07,08,16,18,27,,,,,,,,4.0,1.5,3.7,1*2F
$GPGSV,2,1,05,07,32,309,48,08,60,290,51,16,48,089,42,18,35,196,44,1*6E
$GPGSV,2,2,05,27,60,024,52,,,,,,,,,,,,,1*53
$GPRMC,044941.00,A,3540.5861874,N,13928.9562568,E,0.13,0.00,210518,0.0,E,D*30
$GPGGA,044941.00,3540.5861874,N,13928.9562568,E,5,09,1.0,56.174,M,38.824,M,1.0,*76
$GPGSA,A,3,07,08,16,18,27,,,,,,,,4.0,1.5,3.7,1*2F
$GPGSV,2,1,05,07,32,309,48,08,60,290,51,16,48,089,42,18,35,196,43,1*69
$GPGSV,2,2,05,27,60,024,52,,,,,,,,,,,,,1*53
$GPRMC,044942.00,A,3540.5861366,N,13928.9562961,E,0.15,0.00,210518,0.0,E,D*38
$GPGGA,044942.00,3540.5861366,N,13928.9562961,E,5,09,1.0,56.377,M,38.824,M,1.0,*79
$GPGSA,A,3,07,08,16,18,27,,,,,,,,4.0,1.5,3.8,1*20
$GPGSV,2,1,05,07,32,309,48,08,60,290,51,16,48,089,42,18,35,196,43,1*69
$GPGSV,2,2,05,27,60,024,52,,,,,,,,,,,,,1*53
$GPRMC,044943.00,A,3540.5860829,N,13928.9563415,E,0.05,0.00,210518,0.0,E,D*36
$GPGGA,044943.00,3540.5860829,N,13928.9563415,E,5,09,1.0,56.552,M,38.824,M,1.0,*77
$GPGSA,A,3,07,08,16,18,27,,,,,,,,4.0,1.5,3.8,1*20
$GPGSV,2,1,05,07,32,309,48,08,60,290,51,16,48,089,42,18,35,196,44,1*6E
$GPGSV,2,2,05,27,60,024,52,,,,,,,,,,,,,1*53
$GPRMC,044944.00,A,3540.5860405,N,13928.9563863,E,0.08,0.00,210518,0.0,E,D*33
$GPGGA,044944.00,3540.5860405,N,13928.9563863,E,5,09,1.0,56.627,M,38.824,M,1.0,*7E
$GPGSA,A,3,07,08,16,18,27,,,,,,,,4.0,1.5,3.8,1*20
$GPGSV,2,1,05,07,32,309,48,08,60,290,51,16,48,089,42,18,35,196,44,1*6E
$GPGSV,2,2,05,27,60,024,52,,,,,,,,,,,,,1*53
$GPRMC,044945.00,A,3540.5860014,N,13928.9564363,E,0.17,0.00,210518,0.0,E,D*34
$GPGGA,044945.00,3540.5860014,N,13928.9564363,E,5,09,1.0,56.670,M,38.824,M,1.0,*75
$GPGSA,A,3,07,08,16,18,27,,,,,,,,4.0,1.5,3.8,1*20
$GPGSV,2,1,05,07,32,309,48,08,60,290,52,16,48,089,42,18,35,196,43,1*6A
$GPGSV,2,2,05,27,60,024,52,,,,,,,,,,,,,1*53
$GPRMC,044946.00,A,3540.5859674,N,13928.9564926,E,0.03,0.00,210518,0.0,E,D*33
$GPGGA,044946.00,3540.5859674,N,13928.9564926,E,5,09,1.0,56.687,M,38.824,M,1.0,*7F
$GPGSA,A,3,07,08,16,18,27,,,,,,,,4.0,1.5,3.8,1*20
$GPGSV,2,1,05,07,32,309,48,08,60,290,51,16,48,089,42,18,35,196,43,1*69
$GPGSV,2,2,05,27,60,024,52,,,,,,,,,,,,,1*53
$GPRMC,044947.00,A,3540.5859385,N,13928.9565575,E,0.05,0.00,210518,0.0,E,D*34
$GPGGA,044947.00,3540.5859385,N,13928.9565575,E,5,09,1.0,56.680,M,38.824,M,1.0,*79
$GPGSA,A,3,07,08,16,18,27,,,,,,,,4.0,1.5,3.8,1*20
$GPGSV,2,1,05,07,32,309,48,08,60,290,52,16,48,089,42,18,35,196,43,1*6A
$GPGSV,2,2,05,27,60,024,52,,,,,,,,,,,,,1*53
$GPRMC,044948.00,A,3540.5859149,N,13928.9566084,E,0.08,0.00,210518,0.0,E,D*3C
$GPGGA,044948.00,3540.5859149,N,13928.9566084,E,5,09,1.0,56.688,M,38.824,M,1.0,*74
$GPGSA,A,3,07,08,16,18,27,,,,,,,,4.0,1.5,3.8,1*20
$GPGSV,2,1,05,07,32,309,48,08,60,290,51,16,48,089,43,18,35,196,43,1*68
$GPGSV,2,2,05,27,60,024,52,,,,,,,,,,,,,1*53
$GPRMC,044949.00,A,3540.5858934,N,13928.9566486,E,0.09,0.00,210518,0.0,E,D*39
$GPGGA,044949.00,3540.5858934,N,13928.9566486,E,5,08,1.0,56.720,M,38.824,M,1.0,*72
$GPGSA,A,3,07,08,16,18,27,,,,,,,,4.0,1.5,3.8,1*20
$GPGSV,2,1,05,07,32,309,48,08,60,290,51,16,48,089,43,18,35,196,43,1*68
$GPGSV,2,2,05,27,60,024,52,,,,,,,,,,,,,1*53
$GPRMC,044950.00,A,3540.5858758,N,13928.9566937,E,0.08,0.00,210518,0.0,E,D*33
$GPGGA,044950.00,3540.5858758,N,13928.9566937,E,5,08,1.0,56.742,M,38.824,M,1.0,*7D
$GPGSA,A,3,07,08,16,18,27,,,,,,,,4.0,1.5,3.8,1*20
$GPGSV,2,1,05,07,32,309,48,08,60,290,52,16,48,089,42,18,35,196,43,1*6A
$GPGSV,2,2,05,27,60,024,52,,,,,,,,,,,,,1*53
$GPRMC,044951.00,A,3540.5858522,N,13928.9567010,E,0.07,0.00,210518,0.0,E,D*3F
$GPGGA,044951.00,3540.5858522,N,13928.9567010,E,5,08,1.0,56.848,M,38.824,M,1.0,*7B
$GPGSA,A,3,07,08,16,18,27,,,,,,,,4.0,1.5,3.8,1*20
$GPGSV,2,1,05,07,32,309,48,08,60,290,52,16,48,089,42,18,35,196,43,1*6A
$GPGSV,2,2,05,27,60,024,52,,,,,,,,,,,,,1*53
$GPRMC,044952.00,A,3540.5858342,N,13928.9567287,E,0.08,0.00,210518,0.0,E,D*3F
$GPGGA,044952.00,3540.5858342,N,13928.9567287,E,5,08,1.0,56.897,M,38.824,M,1.0,*76
$GPGSA,A,3,07,08,16,18,27,,,,,,,,4.0,1.5,3.8,1*20
$GPGSV,2,1,05,07,32,309,48,08,60,290,52,16,48,089,42,18,35,196,43,1*6A
$GPGSV,2,2,05,27,60,024,52,,,,,,,,,,,,,1*53
$GPRMC,044953.00,A,3540.5858176,N,13928.9567527,E,0.07,0.00,210518,0.0,E,D*39
$GPGGA,044953.00,3540.5858176,N,13928.9567527,E,5,08,1.0,56.963,M,38.824,M,1.0,*75
$GPGSA,A,3,07,08,16,18,27,,,,,,,,4.0,1.5,3.8,1*20
$GPGSV,2,1,05,07,32,309,48,08,60,290,51,16,48,089,41,18,35,196,43,1*6A
$GPGSV,2,2,05,27,60,024,52,,,,,,,,,,,,,1*53
$GPRMC,044954.00,A,3540.5858032,N,13928.9567697,E,0.13,0.00,210518,0.0,E,D*32
$GPGGA,044954.00,3540.5858032,N,13928.9567697,E,5,08,1.0,57.034,M,38.824,M,1.0,*71
$GPGSA,A,3,07,08,16,18,27,,,,,,,,4.0,1.5,3.8,1*20
$GPGSV,2,1,05,07,32,309,48,08,60,290,51,16,48,089,41,18,35,196,43,1*6A
$GPGSV,2,2,05,27,60,024,52,,,,,,,,,,,,,1*53
$GPRMC,044955.00,A,3540.5857961,N,13928.9567881,E,0.03,0.00,210518,0.0,E,D*3B
$GPGGA,044955.00,3540.5857961,N,13928.9567881,E,5,08,1.0,57.085,M,38.824,M,1.0,*73
$GPGSA,A,3,07,08,16,18,27,,,,,,,,4.0,1.5,3.8,1*20
$GPGSV,2,1,05,07,32,309,48,08,60,290,51,16,48,089,41,18,35,196,43,1*6A
$GPGSV,2,2,05,27,60,024,52,,,,,,,,,,,,,1*53
$GPRMC,044956.00,A,3540.5857831,N,13928.9567862,E,0.07,0.00,210518,0.0,E,D*35
$GPGGA,044956.00,3540.5857831,N,13928.9567862,E,5,08,1.0,57.151,M,38.824,M,1.0,*71
$GPGSA,A,3,07,08,16,18,27,,,,,,,,4.0,1.5,3.8,1*20
$GPGSV,2,1,05,07,32,309,48,08,60,290,52,16,48,089,41,18,35,196,44,1*6E
$GPGSV,2,2,05,27,60,024,52,,,,,,,,,,,,,1*53
$GPRMC,044957.00,A,3540.5857726,N,13928.9567876,E,0.02,0.00,210518,0.0,E,D*3D
$GPGGA,044957.00,3540.5857726,N,13928.9567876,E,5,08,1.0,57.191,M,38.824,M,1.0,*70
$GPGSA,A,3,07,08,16,18,27,,,,,,,,4.0,1.5,3.8,1*20
$GPGSV,2,1,05,07,32,309,48,08,60,290,52,16,48,089,42,18,35,196,43,1*6A
$GPGSV,2,2,05,27,60,024,52,,,,,,,,,,,,,1*53
$GPRMC,044958.00,A,3540.5857604,N,13928.9567792,E,0.07,0.00,210518,0.0,E,D*33
$GPGGA,044958.00,3540.5857604,N,13928.9567792,E,5,08,1.0,57.242,M,38.824,M,1.0,*76
$GPGSA,A,3,07,08,16,18,27,,,,,,,,4.0,1.5,3.8,1*20
$GPGSV,2,1,05,07,32,309,48,08,60,290,52,16,48,089,41,18,35,196,44,1*6E
$GPGSV,2,2,05,27,60,024,52,,,,,,,,,,,,,1*53
$GPRMC,044959.00,A,3540.5857460,N,13928.9567649,E,0.09,0.00,210518,0.0,E,D*3B
$GPGGA,044959.00,3540.5857460,N,13928.9567649,E,5,09,1.0,57.286,M,38.824,M,1.0,*79
$GPGSA,A,3,07,08,16,18,27,,,,,,,,4.0,1.5,3.8,1*20
$GPGSV,2,1,05,07,32,309,48,08,60,290,52,16,48,089,41,18,35,196,43,1*69
$GPGSV,2,2,05,27,60,024,52,,,,,,,,,,,,,1*53
$GPRMC,045000.00,A,3540.5857304,N,13928.9567613,E,0.07,0.00,210518,0.0,E,D*3B
$GPGGA,045000.00,3540.5857304,N,13928.9567613,E,5,09,1.0,57.286,M,38.824,M,1.0,*77
$GPGSA,A,3,07,08,16,18,27,,,,,,,,4.0,1.5,3.8,1*20
$GPGSV,2,1,05,07,32,309,48,08,60,290,52,16,48,089,41,18,35,196,43,1*69
$GPGSV,2,2,05,27,60,024,52,,,,,,,,,,,,,1*53
$GPRMC,045001.00,A,3540.5857179,N,13928.9567601,E,0.06,0.00,210518,0.0,E,D*30
$GPGGA,045001.00,3540.5857179,N,13928.9567601,E,5,09,1.0,57.270,M,38.824,M,1.0,*74
$GPGSA,A,3,07,08,16,18,27,,,,,,,,4.0,1.5,3.8,1*20
$GPGSV,2,1,05,07,32,309,47,08,60,290,52,16,48,089,42,18,35,196,43,1*65
$GPGSV,2,2,05,27,60,024,53,,,,,,,,,,,,,1*52
$GPRMC,045002.00,A,3540.5857052,N,13928.9567551,E,0.07,0.00,210518,0.0,E,D*3C
$GPGGA,045002.00,3540.5857052,N,13928.9567551,E,5,09,1.0,57.273,M,38.824,M,1.0,*7A
$GPGSA,A,3,07,08,16,18,27,,,,,,,,4.0,1.5,3.8,1*20
$GPGSV,2,1,05,07,32,309,47,08,60,290,52,16,48,089,42,18,35,196,43,1*65
$GPGSV,2,2,05,27,60,024,53,,,,,,,,,,,,,1*52
$GPRMC,045003.00,A,3540.5856988,N,13928.9567499,E,0.11,0.00,210518,0.0,E,D*30
$GPGGA,045003.00,3540.5856988,N,13928.9567499,E,5,09,1.0,57.250,M,38.824,M,1.0,*70
$GPGSA,A,3,07,08,16,18,27,,,,,,,,4.1,1.5,3.8,1*21
$GPGSV,2,1,05,07,32,309,47,08,60,290,52,16,48,089,42,18,35,196,43,1*65
$GPGSV,2,2,05,27,60,024,53,,,,,,,,,,,,,1*52
$GPRMC,045004.00,A,3540.5856870,N,13928.9567514,E,0.03,0.00,210518,0.0,E,D*36
$GPGGA,045004.00,3540.5856870,N,13928.9567514,E,5,08,1.0,57.258,M,38.824,M,1.0,*7C
$GPGSA,A,3,07,08,16,18,27,,,,,,,,4.1,1.5,3.8,1*21
$GPGSV,2,1,05,07,32,309,47,08,60,290,52,16,48,089,42,18,35,196,43,1*65
$GPGSV,2,2,05,27,60,024,53,,,,,,,,,,,,,1*52
$GPRMC,045005.00,A,3540.5856792,N,13928.9567490,E,0.08,0.00,210518,0.0,E,D*32
$GPGGA,045005.00,3540.5856792,N,13928.9567490,E,5,08,1.0,57.275,M,38.824,M,1.0,*7C
$GPGSA,A,3,07,08,16,18,27,,,,,,,,4.1,1.5,3.8,1*21
$GPGSV,2,1,05,07,32,309,47,08,60,290,52,16,48,089,42,18,35,196,43,1*65
$GPGSV,2,2,05,27,60,024,52,,,,,,,,,,,,,1*53
$GPRMC,045006.00,A,3540.5856761,N,13928.9567597,E,0.09,0.00,210518,0.0,E,D*3A
$GPGGA,045006.00,3540.5856761,N,13928.9567597,E,5,08,1.0,57.275,M,38.824,M,1.0,*75
$GPGSA,A,3,07,08,16,18,27,,,,,,,,4.1,1.5,3.8,1*21
$GPGSV,2,1,05,07,32,309,47,08,60,290,52,16,48,089,42,18,35,196,43,1*65
$GPGSV,2,2,05,27,60,024,52,,,,,,,,,,,,,1*53
$GPRMC,045007.00,A,3540.5856784,N,13928.9567668,E,0.14,0.00,210518,0.0,E,D*3F
$GPGGA,045007.00,3540.5856784,N,13928.9567668,E,5,08,1.0,57.280,M,38.824,M,1.0,*76
$GPGSA,A,3,07,08,16,18,27,,,,,,,,4.1,1.5,3.8,1*21
$GPGSV,2,1,05,07,32,309,47,08,60,290,52,16,48,089,42,18,35,196,44,1*62
$GPGSV,2,2,05,27,60,024,52,,,,,,,,,,,,,1*53
$GPRMC,045008.00,A,3540.5856844,N,13928.9567772,E,0.04,0.00,210518,0.0,E,D*38
$GPGGA,045008.00,3540.5856844,N,13928.9567772,E,5,08,1.0,57.239,M,38.824,M,1.0,*72
$GPGSA,A,3,07,08,16,18,27,,,,,,,,4.1,1.5,3.8,1*21
$GPGSV,2,1,05,07,32,309,47,08,60,290,52,16,48,089,41,18,35,196,44,1*61
$GPGSV,2,2,05,27,60,024,52,,,,,,,,,,,,,1*53
$GPRMC,045009.00,A,3540.5856902,N,13928.9567857,E,0.02,0.00,210518,0.0,E,D*34
$GPGGA,045009.00,3540.5856902,N,13928.9567857,E,5,08,1.0,57.236,M,38.824,M,1.0,*77
$GPGSA,A,3,07,08,16,18,27,,,,,,,,4.1,1.5,3.8,1*21
$GPGSV,2,1,05,07,32,309,47,08,60,290,52,16,48,089,41,18,35,196,44,1*61
$GPGSV,2,2,05,27,60,024,52,,,,,,,,,,,,,1*53
$GPRMC,045010.00,A,3540.5857005,N,13928.9568023,E,0.14,0.00,210518,0.0,E,D*30
$GPGGA,045010.00,3540.5857005,N,13928.9568023,E,5,09,1.0,57.204,M,38.824,M,1.0,*74
$GPGSA,A,3,07,08,16,18,27,,,,,,,,4.1,1.5,3.8,1*21
$GPGSV,2,1,05,07,32,309,47,08,60,290,52,16,48,089,41,18,35,196,44,1*61
$GPGSV,2,2,05,27,60,024,52,,,,,,,,,,,,,1*53
$GPRMC,045011.00,A,3540.5857075,N,13928.9568232,E,0.03,0.00,210518,0.0,E,D*32
$GPGGA,045011.00,3540.5857075,N,13928.9568232,E,5,09,1.0,57.149,M,38.824,M,1.0,*7A
$GPGSA,A,3,07,08,16,18,27,,,,,,,,4.1,1.5,3.8,1*21
$GPGSV,2,1,05,07,32,309,47,08,60,290,52,16,48,089,41,18,35,196,44,1*61
$GPGSV,2,2,05,27,60,024,52,,,,,,,,,,,,,1*53
$GPRMC,045012.00,A,3540.5857199,N,13928.9568453,E,0.07,0.00,210518,0.0,E,D*37
$GPGGA,045012.00,3540.5857199,N,13928.9568453,E,5,09,1.0,57.068,M,38.824,M,1.0,*79
$GPGSA,A,3,07,08,16,18,27,,,,,,,,4.1,1.5,3.8,1*21
$GPGSV,2,1,05,07,32,309,47,08,60,290,52,16,48,089,41,18,35,196,44,1*61
$GPGSV,2,2,05,27,60,024,52,,,,,,,,,,,,,1*53
$GPRMC,045013.00,A,3540.5857274,N,13928.9568683,E,0.08,0.00,210518,0.0,E,D*36
$GPGGA,045013.00,3540.5857274,N,13928.9568683,E,5,09,1.0,57.015,M,38.824,M,1.0,*7D
$GPGSA,A,3,07,08,16,18,27,,,,,,,,4.1,1.5,3.8,1*21
$GPGSV,2,1,05,07,32,309,47,08,60,290,52,16,48,089,41,18,35,196,44,1*61
$GPGSV,2,2,05,27,60,024,52,,,,,,,,,,,,,1*53
$GPRMC,045014.00,A,3540.5857334,N,13928.9568817,E,0.20,0.00,210518,0.0,E,D*3D
$GPGGA,045014.00,3540.5857334,N,13928.9568817,E,5,09,1.0,56.988,M,38.824,M,1.0,*70
$GPGSA,A,3,07,08,16,18,27,,,,,,,,4.1,1.5,3.8,1*21
$GPGSV,2,1,05,07,32,309,47,08,60,290,52,16,48,089,41,18,35,196,44,1*61
$GPGSV,2,2,05,27,60,024,51,,,,,,,,,,,,,1*50
$GPRMC,045015.00,A,3540.5857408,N,13928.9569069,E,0.11,0.00,210518,0.0,E,D*36
$GPGGA,045015.00,3540.5857408,N,13928.9569069,E,5,09,1.0,56.925,M,38.824,M,1.0,*7E
$GPGSA,A,3,07,08,16,18,27,,,,,,,,4.1,1.5,3.8,1*21
$GPGSV,2,1,05,07,32,309,47,08,60,290,52,16,48,089,41,18,35,196,44,1*61
$GPGSV,2,2,05,27,60,024,51,,,,,,,,,,,,,1*50
$GPRMC,045016.00,A,3540.5857542,N,13928.9569355,E,0.09,0.00,210518,0.0,E,D*3F
$GPGGA,045016.00,3540.5857542,N,13928.9569355,E,5,09,1.0,56.863,M,38.824,M,1.0,*7D
$GPGSA,A,3,07,08,16,18,27,,,,,,,,4.1,1.5,3.8,1*21
$GPGSV,2,1,05,07,32,309,47,08,60,290,52,16,48,089,41,18,35,196,44,1*61
$GPGSV,2,2,05,27,60,024,52,,,,,,,,,,,,,1*53
$GPRMC,045017.00,A,3540.5857628,N,13928.9569693,E,0.10,0.00,210518,0.0,E,D*36
$GPGGA,045017.00,3540.5857628,N,13928.9569693,E,5,09,1.0,56.807,M,38.824,M,1.0,*7E
$GPGSA,A,3,07,08,16,18,27,,,,,,,,4.1,1.5,3.8,1*21
$GPGSV,2,1,05,07,32,309,46,08,60,290,52,16,48,089,42,18,35,196,44,1*63
$GPGSV,2,2,05,27,60,024,51,,,,,,,,,,,,,1*50
$GPRMC,045018.00,A,3540.5857735,N,13928.9569967,E,0.05,0.00,210518,0.0,E,D*34
$GPGGA,045018.00,3540.5857735,N,13928.9569967,E,5,09,1.0,56.753,M,38.824,M,1.0,*76
$GPGSA,A,3,07,08,16,18,27,,,,,,,,4.1,1.5,3.8,1*21
$GPGSV,2,1,05,07,32,309,46,08,60,290,52,16,48,089,42,18,35,196,44,1*63
$GPGSV,2,2,05,27,60,024,51,,,,,,,,,,,,,1*50
$GPRMC,045019.00,A,3540.5857864,N,13928.9570106,E,0.12,0.00,210518,0.0,E,D*3F
$GPGGA,045019.00,3540.5857864,N,13928.9570106,E,5,08,1.0,56.751,M,38.824,M,1.0,*78
$GPGSA,A,3,07,08,16,18,27,,,,,,,,4.1,1.5,3.8,1*21
$GPGSV,2,1,05,07,32,309,46,08,60,290,52,16,48,089,42,18,35,196,44,1*63
$GPGSV,2,2,05,27,60,024,52,,,,,,,,,,,,,1*53
$GPRMC,045020.00,A,3540.5857930,N,13928.9570257,E,0.11,0.00,210518,0.0,E,D*31
$GPGGA,045020.00,3540.5857930,N,13928.9570257,E,5,09,1.0,56.751,M,38.824,M,1.0,*74
$GPGSA,A,3,07,08,16,18,27,,,,,,,,4.1,1.5,3.8,1*21
$GPGSV,2,1,05,07,32,309,46,08,60,290,52,16,48,089,42,18,35,196,44,1*63
$GPGSV,2,2,05,27,60,024,52,,,,,,,,,,,,,1*53
$GPRMC,045021.00,A,3540.5857969,N,13928.9570392,E,0.05,0.00,210518,0.0,E,D*31
$GPGGA,045021.00,3540.5857969,N,13928.9570392,E,5,09,1.0,56.767,M,38.824,M,1.0,*74
$GPGSA,A,3,07,08,16,18,27,,,,,,,,4.1,1.5,3.8,1*21
$GPGSV,2,1,05,07,32,309,46,08,60,290,51,16,48,089,42,18,35,196,44,1*60
$GPGSV,2,2,05,27,60,024,52,,,,,,,,,,,,,1*53
$GPRMC,045022.00,A,3540.5858029,N,13928.9570536,E,0.02,0.00,210518,0.0,E,D*3F
$GPGGA,045022.00,3540.5858029,N,13928.9570536,E,5,09,1.0,56.786,M,38.824,M,1.0,*72
$GPGSA,A,3,07,08,16,18,27,,,,,,,,4.1,1.5,3.8,1*21
$GPGSV,2,1,05,07,32,309,46,08,60,290,51,16,48,089,42,18,35,196,44,1*60
$GPGSV,2,2,05,27,60,024,52,,,,,,,,,,,,,1*53
$GPRMC,045023.00,A,3540.5858143,N,13928.9570598,E,0.02,0.00,210518,0.0,E,D*37
$GPGGA,045023.00,3540.5858143,N,13928.9570598,E,5,09,1.0,56.788,M,38.824,M,1.0,*74
$GPGSA,A,3,07,08,16,18,27,,,,,,,,4.1,1.5,3.8,1*21
$GPGSV,2,1,05,07,32,309,46,08,60,290,51,16,48,089,42,18,35,196,44,1*60
$GPGSV,2,2,05,27,60,024,52,,,,,,,,,,,,,1*53
$GPRMC,045024.00,A,3540.5858237,N,13928.9570705,E,0.09,0.00,210518,0.0,E,D*3D
$GPGGA,045024.00,3540.5858237,N,13928.9570705,E,5,09,1.0,56.820,M,38.824,M,1.0,*78
$GPGSA,A,3,07,08,16,18,27,,,,,,,,4.1,1.5,3.8,1*21
$GPGSV,2,1,05,07,32,309,46,08,60,290,51,16,48,089,43,18,36,196,44,1*62
$GPGSV,2,2,05,27,60,024,52,,,,,,,,,,,,,1*53
$GPRMC,045025.00,A,3540.5858312,N,13928.9570726,E,0.08,0.00,210518,0.0,E,D*3A
$GPGGA,045025.00,3540.5858312,N,13928.9570726,E,5,09,1.0,56.883,M,38.824,M,1.0,*77
$GPGSA,A,3,07,08,16,18,27,,,,,,,,4.1,1.5,3.8,1*21
$GPGSV,2,1,05,07,32,309,46,08,60,290,51,16,48,089,43,18,36,196,44,1*62
$GPGSV,2,2,05,27,60,024,52,,,,,,,,,,,,,1*53
$GPRMC,045026.00,A,3540.5858427,N,13928.9570747,E,0.09,0.00,210518,0.0,E,D*3E
$GPGGA,045026.00,3540.5858427,N,13928.9570747,E,5,09,1.0,56.908,M,38.824,M,1.0,*70
$GPGSA,A,3,07,08,16,18,27,,,,,,,,4.1,1.5,3.8,1*21
$GPGSV,2,1,05,07,32,309,46,08,60,290,51,16,48,089,42,18,36,196,44,1*63
$GPGSV,2,2,05,27,60,024,52,,,,,,,,,,,,,1*53
$GPRMC,045027.00,A,3540.5858528,N,13928.9570727,E,0.13,0.00,210518,0.0,E,D*3C
$GPGGA,045027.00,3540.5858528,N,13928.9570727,E,5,09,1.0,56.931,M,38.824,M,1.0,*73
$GPGSA,A,3,07,08,16,18,27,,,,,,,,4.1,1.5,3.8,1*21
$GPGSV,2,1,05,07,32,309,46,08,60,290,51,16,48,089,42,18,36,196,44,1*63
$GPGSV,2,2,05,27,60,024,52,,,,,,,,,,,,,1*53
$GPRMC,045028.00,A,3540.5858637,N,13928.9570622,E,0.08,0.00,210518,0.0,E,D*30
$GPGGA,045028.00,3540.5858637,N,13928.9570622,E,5,09,1.0,56.957,M,38.824,M,1.0,*75
$GPGSA,A,3,07,08,16,18,27,,,,,,,,4.1,1.5,3.8,1*21
$GPGSV,2,1,05,07,32,309,46,08,60,290,51,16,48,089,42,18,36,196,44,1*63
$GPGSV,2,2,05,27,60,024,52,,,,,,,,,,,,,1*53
$GPRMC,045029.00,A,3540.5858733,N,13928.9570481,E,0.21,0.00,210518,0.0,E,D*34
$GPGGA,045029.00,3540.5858733,N,13928.9570481,E,5,09,1.0,57.015,M,38.824,M,1.0,*74
$GPGSA,A,3,07,08,16,18,27,,,,,,,,4.1,1.5,3.8,1*21
$GPGSV,2,1,05,07,32,309,46,08,60,290,50,16,48,089,42,18,36,196,44,1*62
$GPGSV,2,2,05,27,60,024,52,,,,,,,,,,,,,1*53
$GPRMC,045030.00,A,3540.5858779,N,13928.9570316,E,0.10,0.00,210518,0.0,E,D*39
$GPGGA,045030.00,3540.5858779,N,13928.9570316,E,5,09,1.0,57.079,M,38.824,M,1.0,*71
$GPGSA,A,3,07,08,16,18,27,,,,,,,,4.1,1.5,3.8,1*21
$GPGSV,2,1,05,07,32,309,46,08,60,291,51,16,48,089,42,18,36,196,44,1*62
$GPGSV,2,2,05,27,60,024,52,,,,,,,,,,,,,1*53
$GPRMC,045031.00,A,3540.5858852,N,13928.9570209,E,0.08,0.00,210518,0.0,E,D*38
$GPGGA,045031.00,3540.5858852,N,13928.9570209,E,5,09,1.0,57.133,M,38.824,M,1.0,*76
$GPGSA,A,3,07,08,16,18,27,,,,,,,,4.1,1.5,3.8,1*21
$GPGSV,2,1,05,07,32,309,45,08,60,291,50,16,48,089,42,18,36,196,44,1*60
$GPGSV,2,2,05,27,60,024,52,,,,,,,,,,,,,1*53
$GPRMC,045032.00,A,3540.5858896,N,13928.9570008,E,0.15,0.00,210518,0.0,E,D*3C
$GPGGA,045032.00,3540.5858896,N,13928.9570008,E,5,09,1.0,57.230,M,38.824,M,1.0,*7E
$GPGSA,A,3,07,08,16,18,27,,,,,,,,4.1,1.5,3.8,1*21
$GPGSV,2,1,05,07,32,309,45,08,60,291,50,16,48,089,42,18,36,196,44,1*60
$GPGSV,2,2,05,27,60,024,52,,,,,,,,,,,,,1*53
$GPRMC,045033.00,A,3540.5858936,N,13928.9569891,E,0.08,0.00,210518,0.0,E,D*3A
$GPGGA,045033.00,3540.5858936,N,13928.9569891,E,5,09,1.0,57.301,M,38.824,M,1.0,*77
$GPGSA,A,3,07,08,16,18,27,,,,,,,,4.1,1.5,3.8,1*21
$GPGSV,2,1,05,07,32,309,45,08,60,291,50,16,48,089,42,18,36,196,44,1*60
$GPGSV,2,2,05,27,60,024,52,,,,,,,,,,,,,1*53
$GPRMC,045034.00,A,3540.5858953,N,13928.9569806,E,0.13,0.00,210518,0.0,E,D*3A
$GPGGA,045034.00,3540.5858953,N,13928.9569806,E,5,09,1.0,57.382,M,38.824,M,1.0,*76
$GPGSA,A,3,07,08,16,18,27,,,,,,,,4.1,1.5,3.8,1*21
$GPGSV,2,1,05,07,32,309,45,08,60,291,50,16,48,089,42,18,36,196,44,1*60
$GPGSV,2,2,05,27,60,024,52,,,,,,,,,,,,,1*53
$GPRMC,045035.00,A,3540.5858925,N,13928.9569636,E,0.18,0.00,210518,0.0,E,D*3C
$GPGGA,045035.00,3540.5858925,N,13928.9569636,E,5,09,1.0,57.493,M,38.824,M,1.0,*7C
$GPGSA,A,3,07,08,16,18,27,,,,,,,,4.1,1.5,3.8,1*21
$GPGSV,2,1,05,07,32,309,46,08,60,291,50,16,48,089,42,18,36,196,44,1*63
$GPGSV,2,2,05,27,60,024,53,,,,,,,,,,,,,1*52
$GPRMC,045036.00,A,3540.5858924,N,13928.9569480,E,0.04,0.00,210518,0.0,E,D*3C
$GPGGA,045036.00,3540.5858924,N,13928.9569480,E,5,09,1.0,57.571,M,38.824,M,1.0,*7C
$GPGSA,A,3,07,08,16,18,27,,,,,,,,4.1,1.5,3.8,1*21
$GPGSV,2,1,05,07,32,309,45,08,60,291,50,16,48,089,42,18,36,196,44,1*60
$GPGSV,2,2,05,27,60,024,53,,,,,,,,,,,,,1*52
$GPRMC,045037.00,A,3540.5858967,N,13928.9569323,E,0.09,0.00,210518,0.0,E,D*39
$GPGGA,045037.00,3540.5858967,N,13928.9569323,E,5,09,1.0,57.639,M,38.824,M,1.0,*7B
$GPGSA,A,3,07,08,16,18,27,,,,,,,,4.1,1.5,3.8,1*21
$GPGSV,2,1,05,07,32,309,45,08,60,291,50,16,48,089,42,18,36,196,44,1*60
$GPGSV,2,2,05,27,60,024,53,,,,,,,,,,,,,1*52
$GPRMC,045038.00,A,3540.5858961,N,13928.9569092,E,0.08,0.00,210518,0.0,E,D*38
$GPGGA,045038.00,3540.5858961,N,13928.9569092,E,5,09,1.0,57.751,M,38.824,M,1.0,*74
$GPGSA,A,3,07,08,16,18,27,,,,,,,,4.1,1.5,3.8,1*21
$GPGSV,2,1,05,07,32,309,45,08,60,291,50,16,48,089,42,18,36,196,44,1*60
$GPGSV,2,2,05,27,60,024,53,,,,,,,,,,,,,1*52
$GPRMC,045039.00,A,3540.5859032,N,13928.9568957,E,0.09,0.00,210518,0.0,E,D*37
$GPGGA,045039.00,3540.5859032,N,13928.9568957,E,5,09,1.0,57.806,M,38.824,M,1.0,*77
$GPGSA,A,3,07,08,16,18,27,,,,,,,,4.1,1.5,3.8,1*21
$GPGSV,2,1,05,07,32,309,45,08,60,291,49,16,48,089,42,18,36,196,44,1*68
$GPGSV,2,2,05,27,60,024,52,,,,,,,,,,,,,1*53
$GPRMC,045040.00,A,3540.5859059,N,13928.9568772,E,0.08,0.00,210518,0.0,E,D*3C
$GPGGA,045040.00,3540.5859059,N,13928.9568772,E,5,09,1.0,57.883,M,38.824,M,1.0,*70
$GPGSA,A,3,07,08,16,18,27,,,,,,,,4.1,1.5,3.8,1*21
$GPGSV,2,1,05,07,32,309,45,08,60,291,49,16,48,089,43,18,36,196,44,1*69
$GPGSV,2,2,05,27,60,024,53,,,,,,,,,,,,,1*52
$GPRMC,045041.00,A,3540.5859083,N,13928.9568593,E,0.19,0.00,210518,0.0,E,D*37
$GPGGA,045041.00,3540.5859083,N,13928.9568593,E,5,09,1.0,57.969,M,38.824,M,1.0,*7E
$GPGSA,A,3,07,08,16,18,27,,,,,,,,4.1,1.5,3.8,1*21
$GPGSV,2,1,05,07,32,309,45,08,60,291,49,16,48,089,43,18,36,196,44,1*69
$GPGSV,2,2,05,27,60,024,53,,,,,,,,,,,,,1*52
$GPRMC,045042.00,A,3540.5859120,N,13928.9568449,E,0.04,0.00,210518,0.0,E,D*36
$GPGGA,045042.00,3540.5859120,N,13928.9568449,E,5,09,1.0,58.033,M,38.824,M,1.0,*7A
$GPGSA,A,3,07,08,16,18,27,,,,,,,,4.1,1.5,3.8,1*21
$GPGSV,2,1,05,07,33,309,45,08,60,291,49,16,48,089,43,18,36,196,44,1*68
$GPGSV,2,2,05,27,60,024,53,,,,,,,,,,,,,1*52
$GPRMC,045043.00,A,3540.5859173,N,13928.9568310,E,0.07,0.00,210518,0.0,E,D*39
$GPGGA,045043.00,3540.5859173,N,13928.9568310,E,5,09,1.0,58.091,M,38.824,M,1.0,*7E
$GPGSA,A,3,07,08,16,18,27,,,,,,,,4.1,1.5,3.8,1*21
$GPGSV,2,1,05,07,33,309,45,08,60,291,49,16,48,089,43,18,36,196,43,1*6F
$GPGSV,2,2,05,27,60,024,53,,,,,,,,,,,,,1*52
$GPRMC,045044.00,A,3540.5859223,N,13928.9568194,E,0.05,0.00,210518,0.0,E,D*34
$GPGGA,045044.00,3540.5859223,N,13928.9568194,E,5,09,1.0,58.143,M,38.824,M,1.0,*7F
$GPGSA,A,3,07,08,16,18,27,,,,,,,,4.1,1.5,3.8,1*21
$GPGSV,2,1,05,07,33,309,45,08,60,291,49,16,48,089,43,18,36,196,43,1*6F
$GPGSV,2,2,05,27,60,024,53,,,,,,,,,,,,,1*52
$GPRMC,045045.00,A,3540.5859245,N,13928.9568034,E,0.02,0.00,210518,0.0,E,D*39
$GPGGA,045045.00,3540.5859245,N,13928.9568034,E,5,09,1.0,58.205,M,38.824,M,1.0,*74
$GPGSA,A,3,07,08,16,18,27,,,,,,,,4.1,1.5,3.8,1*21
$GPGSV,2,1,05,07,33,309,44,08,60,291,49,16,48,089,43,18,36,196,43,1*6E
$GPGSV,2,2,05,27,60,024,53,,,,,,,,,,,,,1*52
$GPRMC,045046.00,A,3540.5859324,N,13928.9567915,E,0.11,0.00,210518,0.0,E,D*3B
$GPGGA,045046.00,3540.5859324,N,13928.9567915,E,5,09,1.0,58.258,M,38.824,M,1.0,*7C
$GPGSA,A,3,07,08,16,18,27,,,,,,,,4.1,1.5,3.8,1*21
$GPGSV,2,1,05,07,33,309,44,08,60,291,49,16,48,089,43,18,36,196,43,1*6E
$GPGSV,2,2,05,27,60,024,53,,,,,,,,,,,,,1*52
$GPRMC,045047.00,A,3540.5859350,N,13928.9567785,E,0.03,0.00,210518,0.0,E,D*3D
$GPGGA,045047.00,3540.5859350,N,13928.9567785,E,5,09,1.0,58.309,M,38.824,M,1.0,*7C
$GPGSA,A,3,07,08,16,18,27,,,,,,,,4.1,1.5,3.8,1*21
$GPGSV,2,1,05,07,33,309,44,08,60,291,49,16,48,089,43,18,36,196,43,1*6E
$GPGSV,2,2,05,27,60,024,53,,,,,,,,,,,,,1*52
$GPRMC,045048.00,A,3540.5859393,N,13928.9567648,E,0.06,0.00,210518,0.0,E,D*38
$GPGGA,045048.00,3540.5859393,N,13928.9567648,E,5,09,1.0,58.367,M,38.824,M,1.0,*74
$GPGSA,A,3,07,08,16,18,27,,,,,,,,4.1,1.5,3.8,1*21
$GPGSV,2,1,05,07,33,309,44,08,60,291,49,16,48,089,43,18,36,196,43,1*6E
$GPGSV,2,2,05,27,60,024,53,,,,,,,,,,,,,1*52
$GPRMC,045049.00,A,3540.5859424,N,13928.9567477,E,0.06,0.00,210518,0.0,E,D*3C
$GPGGA,045049.00,3540.5859424,N,13928.9567477,E,5,09,1.0,58.410,M,38.824,M,1.0,*77
$GPGSA,A,3,07,08,16,18,27,,,,,,,,4.1,1.5,3.8,1*21
$GPGSV,2,1,05,07,33,309,44,08,60,291,49,16,48,089,44,18,36,196,43,1*69
$GPGSV,2,2,05,27,60,024,53,,,,,,,,,,,,,1*52
$GPRMC,045050.00,A,3540.5859432,N,13928.9567341,E,0.07,0.00,210518,0.0,E,D*30
$GPGGA,045050.00,3540.5859432,N,13928.9567341,E,5,09,1.0,58.456,M,38.824,M,1.0,*78
$GPGSA,A,3,07,08,16,18,27,,,,,,,,4.1,1.5,3.8,1*21
$GPGSV,2,1,05,07,33,309,44,08,60,291,49,16,48,089,44,18,36,196,43,1*69
$GPGSV,2,2,05,27,60,024,53,,,,,,,,,,,,,1*52
$GPRMC,045051.00,A,3540.5859485,N,13928.9567128,E,0.06,0.00,210518,0.0,E,D*31
$GPGGA,045051.00,3540.5859485,N,13928.9567128,E,5,09,1.0,58.490,M,38.824,M,1.0,*72
$GPGSA,A,3,07,08,16,18,27,,,,,,,,4.1,1.5,3.8,1*21
$GPGSV,2,1,05,07,33,309,44,08,60,291,49,16,48,089,43,18,36,196,43,1*6E
$GPGSV,2,2,05,27,60,024,53,,,,,,,,,,,,,1*52
$GPRMC,045052.00,A,3540.5859562,N,13928.9566962,E,0.11,0.00,210518,0.0,E,D*3B
$GPGGA,045052.00,3540.5859562,N,13928.9566962,E,5,09,1.0,58.515,M,38.824,M,1.0,*72
$GPGSA,A,3,07,08,16,18,27,,,,,,,,4.1,1.5,3.8,1*21
$GPGSV,2,1,05,07,33,309,44,08,60,291,49,16,48,089,43,18,36,196,43,1*6E
$GPGSV,2,2,05,27,60,024,53,,,,,,,,,,,,,1*52
$GPRMC,045053.00,A,3540.5859635,N,13928.9566775,E,0.04,0.00,210518,0.0,E,D*37
$GPGGA,045053.00,3540.5859635,N,13928.9566775,E,5,09,1.0,58.535,M,38.824,M,1.0,*78
$GPGSA,A,3,07,08,16,18,27,,,,,,,,4.1,1.5,3.8,1*21
$GPGSV,2,1,05,07,33,309,44,08,60,291,49,16,48,089,43,18,36,196,43,1*6E
$GPGSV,2,2,05,27,60,024,53,,,,,,,,,,,,,1*52
$GPRMC,045054.00,A,3540.5859676,N,13928.9566597,E,0.16,0.00,210518,0.0,E,D*3A
$GPGGA,045054.00,3540.5859676,N,13928.9566597,E,5,09,1.0,58.543,M,38.824,M,1.0,*77
$GPGSA,A,3,07,08,16,18,27,,,,,,,,4.1,1.5,3.8,1*21
$GPGSV,2,1,05,07,33,309,44,08,60,291,49,16,48,089,43,18,36,196,43,1*6E
$GPGSV,2,2,05,27,60,024,53,,,,,,,,,,,,,1*52
$GPRMC,045055.00,A,3540.5859754,N,13928.9566511,E,0.07,0.00,210518,0.0,E,D*34
$GPGGA,045055.00,3540.5859754,N,13928.9566511,E,5,09,1.0,58.553,M,38.824,M,1.0,*78
$GPGSA,A,3,07,08,16,18,27,,,,,,,,4.1,1.5,3.8,1*21
$GPGSV,2,1,05,07,33,309,43,08,60,291,49,16,48,089,43,18,36,196,43,1*69
$GPGSV,2,2,05,27,60,025,53,,,,,,,,,,,,,1*53
$GPRMC,045056.00,A,3540.5859796,N,13928.9566359,E,0.30,0.00,210518,0.0,E,D*37
$GPGGA,045056.00,3540.5859796,N,13928.9566359,E,5,09,1.0,58.583,M,38.824,M,1.0,*72
$GPGSA,A,3,07,08,16,18,27,,,,,,,,4.1,1.5,3.8,1*21
$GPGSV,2,1,05,07,33,309,43,08,60,291,49,16,48,089,43,18,36,196,42,1*68
$GPGSV,2,2,05,27,60,025,53,,,,,,,,,,,,,1*53
$GPRMC,045057.00,A,3540.5859816,N,13928.9566305,E,0.17,0.00,210518,0.0,E,D*3D
$GPGGA,045057.00,3540.5859816,N,13928.9566305,E,5,09,1.0,58.598,M,38.824,M,1.0,*77
$GPGSA,A,3,07,08,16,18,27,,,,,,,,4.1,1.5,3.8,1*21
$GPGSV,2,1,05,07,33,309,43,08,60,291,49,16,48,089,43,18,36,196,42,1*68
$GPGSV,2,2,05,27,60,025,53,,,,,,,,,,,,,1*53
$GPRMC,045058.00,A,3540.5859818,N,13928.9566240,E,0.16,0.00,210518,0.0,E,D*3D
$GPGGA,045058.00,3540.5859818,N,13928.9566240,E,5,09,1.0,58.619,M,38.824,M,1.0,*7C
$GPGSA,A,3,07,08,16,18,27,,,,,,,,4.1,1.5,3.8,1*21
$GPGSV,2,1,05,07,33,309,43,08,60,291,50,16,48,089,43,18,36,196,43,1*61
$GPGSV,2,2,05,27,60,025,53,,,,,,,,,,,,,1*53
$GPRMC,045059.00,A,3540.5859820,N,13928.9566186,E,0.10,0.00,210518,0.0,E,D*38
$GPGGA,045059.00,3540.5859820,N,13928.9566186,E,5,09,1.0,58.642,M,38.824,M,1.0,*71
$GPGSA,A,3,07,08,16,18,27,,,,,,,,4.1,1.5,3.8,1*21
$GPGSV,2,1,05,07,33,309,43,08,60,291,50,16,48,089,43,18,36,196,42,1*60
$GPGSV,2,2,05,27,60,025,53,,,,,,,,,,,,,1*53
$GPRMC,045100.00,A,3540.5859860,N,13928.9566113,E,0.25,0.00,210518,0.0,E,D*3B
$GPGGA,045100.00,3540.5859860,N,13928.9566113,E,5,09,1.0,58.649,M,38.824,M,1.0,*7F
$GPGSA,A,3,07,08,16,18,27,,,,,,,,4.1,1.5,3.8,1*21
$GPGSV,2,1,05,07,33,309,43,08,60,291,50,16,48,089,43,18,36,196,42,1*60
$GPGSV,2,2,05,27,60,025,53,,,,,,,,,,,,,1*53
$GPRMC,045101.00,A,3540.5859902,N,13928.9566067,E,0.10,0.00,210518,0.0,E,D*3B
$GPGGA,045101.00,3540.5859902,N,13928.9566067,E,5,09,1.0,58.652,M,38.824,M,1.0,*73
$GPGSA,A,3,07,08,16,18,27,,,,,,,,4.1,1.5,3.8,1*21
$GPGSV,2,1,05,07,33,309,43,08,60,291,50,16,48,089,43,18,36,196,42,1*60
$GPGSV,2,2,05,27,60,025,52,,,,,,,,,,,,,1*52
$GPRMC,045102.00,A,3540.5859938,N,13928.9566022,E,0.10,0.00,210518,0.0,E,D*30
$GPGGA,045102.00,3540.5859938,N,13928.9566022,E,5,09,1.0,58.635,M,38.824,M,1.0,*79
$GPGSA,A,3,07,08,16,18,27,,,,,,,,4.1,1.5,3.8,1*21
$GPGSV,2,1,05,07,33,309,42,08,60,291,50,16,48,089,43,18,36,196,42,1*61
$GPGSV,2,2,05,27,60,025,52,,,,,,,,,,,,,1*52
$GPRMC,045103.00,A,3540.5859999,N,13928.9566016,E,0.21,0.00,210518,0.0,E,D*3F
$GPGGA,045103.00,3540.5859999,N,13928.9566016,E,5,09,1.0,58.589,M,38.824,M,1.0,*70
$GPGSA,A,3,07,08,16,18,27,,,,,,,,4.1,1.5,3.8,1*21
$GPGSV,2,1,05,07,33,309,42,08,60,291,50,16,48,089,43,18,36,196,42,1*61
$GPGSV,2,2,05,27,60,025,52,,,,,,,,,,,,,1*52
$GPRMC,045104.00,A,3540.5860075,N,13928.9565988,E,0.08,0.00,210518,0.0,E,D*3F
$GPGGA,045104.00,3540.5860075,N,13928.9565988,E,5,09,1.0,58.511,M,38.824,M,1.0,*7A
$GPGSA,A,3,07,08,16,18,27,,,,,,,,4.1,1.5,3.8,1*21
$GPGSV,2,1,05,07,33,309,42,08,60,291,50,16,48,089,43,18,36,196,42,1*61
$GPGSV,2,2,05,27,60,025,52,,,,,,,,,,,,,1*52
$GPRMC,045105.00,A,3540.5860170,N,13928.9565923,E,0.07,0.00,210518,0.0,E,D*34
$GPGGA,045105.00,3540.5860170,N,13928.9565923,E,5,09,1.0,58.436,M,38.824,M,1.0,*7A
$GPGSA,A,3,07,08,16,18,27,,,,,,,,4.1,1.5,3.8,1*21
$GPGSV,2,1,05,07,33,309,42,08,60,291,50,16,48,089,43,18,36,196,42,1*61
$GPGSV,2,2,05,27,60,025,52,,,,,,,,,,,,,1*52
$GPRMC,045106.00,A,3540.5860246,N,13928.9565828,E,0.15,0.00,210518,0.0,E,D*38
$GPGGA,045106.00,3540.5860246,N,13928.9565828,E,5,09,1.0,58.398,M,38.824,M,1.0,*76
$GPGSA,A,3,07,08,16,18,27,,,,,,,,4.1,1.5,3.8,1*21
$GPGSV,2,1,05,07,33,309,42,08,60,291,50,16,48,090,43,18,36,196,41,1*6A
$GPGSV,2,2,05,27,60,025,53,,,,,,,,,,,,,1*53
$GPRMC,045107.00,A,3540.5860365,N,13928.9565773,E,0.16,0.00,210518,0.0,E,D*3B
$GPGGA,045107.00,3540.5860365,N,13928.9565773,E,5,08,1.0,58.337,M,38.824,M,1.0,*72
$GPGSA,A,3,07,08,16,18,27,,,,,,,,4.1,1.5,3.8,1*21
$GPGSV,2,1,05,07,33,309,43,08,60,291,50,16,48,090,43,18,36,196,41,1*6B
$GPGSV,2,2,05,27,60,025,53,,,,,,,,,,,,,1*53
$GPRMC,045108.00,A,3540.5860460,N,13928.9565767,E,0.06,0.00,210518,0.0,E,D*32
$GPGGA,045108.00,3540.5860460,N,13928.9565767,E,5,09,1.0,58.261,M,38.824,M,1.0,*79
$GPGSA,A,3,07,08,16,18,27,,,,,,,,4.1,1.5,3.8,1*21
$GPGSV,2,1,05,07,33,309,43,08,60,291,50,16,48,090,43,18,36,196,40,1*6A
$GPGSV,2,2,05,27,60,025,52,,,,,,,,,,,,,1*52
$GPRMC,045109.00,A,3540.5860516,N,13928.9565768,E,0.07,0.00,210518,0.0,E,D*3D
$GPGGA,045109.00,3540.5860516,N,13928.9565768,E,5,09,1.0,58.191,M,38.824,M,1.0,*7B
$GPGSA,A,3,07,08,16,18,27,,,,,,,,4.1,1.5,3.8,1*21
$GPGSV,2,1,05,07,33,309,43,08,60,291,50,16,48,090,43,18,36,196,40,1*6A
$GPGSV,2,2,05,27,60,025,52,,,,,,,,,,,,,1*52
$GPRMC,045110.00,A,3540.5860498,N,13928.9565778,E,0.10,0.00,210518,0.0,E,D*35
$GPGGA,045110.00,3540.5860498,N,13928.9565778,E,5,08,1.0,58.135,M,38.824,M,1.0,*7A
$GPGSA,A,3,07,08,16,27,,,,,,,,,5.2,3.2,4.1,1*21
$GPGSV,1,1,04,07,33,309,44,08,60,291,50,16,48,090,42,27,60,025,53,1*6A
$GPRMC,045111.00,A,3540.5860566,N,13928.9565774,E,0.07,0.00,210518,0.0,E,D*3E
$GPGGA,045111.00,3540.5860566,N,13928.9565774,E,5,09,1.0,58.044,M,38.824,M,1.0,*71
$GPGSA,A,3,07,08,16,18,27,,,,,,,,4.1,1.5,3.8,1*21
$GPGSV,2,1,05,07,33,309,42,08,60,291,51,16,48,090,43,18,36,196,41,1*6B
$GPGSV,2,2,05,27,60,025,52,,,,,,,,,,,,,1*52
$GPRMC,045112.00,A,3540.5860572,N,13928.9565829,E,0.15,0.00,210518,0.0,E,D*3C
$GPGGA,045112.00,3540.5860572,N,13928.9565829,E,5,09,1.0,57.970,M,38.824,M,1.0,*71
$GPGSA,A,3,07,08,16,18,27,,,,,,,,4.1,1.5,3.8,1*21
$GPGSV,2,1,05,07,33,309,44,08,60,291,51,16,48,090,43,18,36,196,41,1*6D
$GPGSV,2,2,05,27,60,025,53,,,,,,,,,,,,,1*53
$GPRMC,045113.00,A,3540.5860618,N,13928.9565806,E,0.11,0.00,210518,0.0,E,D*3B
$GPGGA,045113.00,3540.5860618,N,13928.9565806,E,5,09,1.0,57.891,M,38.824,M,1.0,*7C
$GPGSA,A,3,07,08,16,18,27,,,,,,,,4.1,1.5,3.8,1*21
$GPGSV,2,1,05,07,33,309,43,08,60,291,51,16,48,090,43,18,36,196,41,1*6A
$GPGSV,2,2,05,27,60,025,52,,,,,,,,,,,,,1*52
$GPRMC,045114.00,A,3540.5860654,N,13928.9565771,E,0.11,0.00,210518,0.0,E,D*3B
$GPGGA,045114.00,3540.5860654,N,13928.9565771,E,5,08,1.0,57.847,M,38.824,M,1.0,*76
$GPGSA,A,3,07,08,16,18,27,,,,,,,,4.1,1.5,3.8,1*21
$GPGSV,2,1,05,07,33,309,42,08,60,291,51,16,48,090,43,18,36,196,40,1*6A
$GPGSV,2,2,05,27,60,025,52,,,,,,,,,,,,,1*52
$GPRMC,045115.00,A,3540.5860671,N,13928.9565810,E,0.07,0.00,210518,0.0,E,D*32
$GPGGA,045115.00,3540.5860671,N,13928.9565810,E,5,09,1.0,57.799,M,38.824,M,1.0,*75
$GPGSA,A,3,07,08,16,18,27,,,,,,,,4.1,1.5,3.8,1*21
$GPGSV,2,1,05,07,33,309,45,08,60,291,52,16,48,090,42,18,36,196,40,1*6F
$GPGSV,2,2,05,27,60,025,52,,,,,,,,,,,,,1*52
$GPRMC,045116.00,A,3540.5860660,N,13928.9565996,E,0.28,0.00,210518,0.0,E,D*33
$GPGGA,045116.00,3540.5860660,N,13928.9565996,E,5,09,1.0,57.715,M,38.824,M,1.0,*7D
$GPGSA,A,3,07,08,16,18,27,,,,,,,,4.1,1.5,3.8,1*21
$GPGSV,2,1,05,07,33,309,44,08,60,291,52,16,48,090,42,18,36,196,40,1*6E
$GPGSV,2,2,05,27,60,025,50,,,,,,,,,,,,,1*50
$GPRMC,045117.00,A,3540.5860687,N,13928.9566040,E,0.23,0.00,210518,0.0,E,D*31
$GPGGA,045117.00,3540.5860687,N,13928.9566040,E,5,06,1.0,57.655,M,38.824,M,1.0,*7E
$GPGSA,A,3,07,08,16,27,,,,,,,,,5.2,3.2,4.1,1*21
$GPGSV,1,1,04,07,33,309,42,08,60,291,50,16,48,090,41,27,60,025,51,1*6D
$GPRMC,045118.00,A,3540.5860732,N,13928.9566057,E,0.08,0.00,210518,0.0,E,D*3E
$GPGGA,045118.00,3540.5860732,N,13928.9566057,E,5,06,1.0,57.651,M,38.824,M,1.0,*7C
$GPGSA,A,3,07,08,16,27,,,,,,,,,5.2,3.2,4.1,1*21
$GPGSV,1,1,04,07,33,309,42,08,60,291,49,16,48,090,41,27,60,025,50,1*64
$GPRMC,045119.00,A,3540.5860781,N,13928.9566128,E,0.14,0.00,210518,0.0,E,D*33
$GPGGA,045119.00,3540.5860781,N,13928.9566128,E,5,07,1.0,57.607,M,38.824,M,1.0,*7E
$GPGSA,A,3,07,08,16,18,27,,,,,,,,4.1,1.5,3.8,1*21
$GPGSV,2,1,05,07,33,309,42,08,60,291,51,16,48,090,42,18,36,196,40,1*6B
$GPGSV,2,2,05,27,60,025,52,,,,,,,,,,,,,1*52
$GPRMC,045120.00,A,3540.5860747,N,13928.9566164,E,0.27,0.00,210518,0.0,E,D*3B
$GPGGA,045120.00,3540.5860747,N,13928.9566164,E,5,07,1.0,57.571,M,38.824,M,1.0,*74
$GPGSA,A,3,07,08,16,27,,,,,,,,,5.2,3.2,4.1,1*21
$GPGSV,1,1,04,07,33,309,42,08,60,291,51,16,48,090,40,27,60,025,51,1*6D
$GPRMC,045121.00,A,3540.5860781,N,13928.9566210,E,0.05,0.00,210518,0.0,E,D*30
$GPGGA,045121.00,3540.5860781,N,13928.9566210,E,5,07,1.0,57.544,M,38.824,M,1.0,*79
$GPGSA,A,3,08,16,27,,,,,,,,,,0.0,0.0,0.0,1*25
$GPGSV,1,1,03,08,60,291,51,16,48,090,41,27,60,025,51,,,,,1*50
$GPRMC,045122.00,A,3540.5860765,N,13928.9566189,E,0.32,0.00,210518,0.0,E,D*3E
$GPGGA,045122.00,3540.5860765,N,13928.9566189,E,5,08,1.0,57.519,M,38.824,M,1.0,*74
$GPGSA,A,3,07,08,16,27,,,,,,,,,5.2,3.2,4.1,1*21
$GPGSV,1,1,04,07,33,309,41,08,60,291,51,16,48,090,41,27,60,025,50,1*6E
$GPRMC,045123.00,A,3540.5860784,N,13928.9566123,E,0.12,0.00,210518,0.0,E,D*32
$GPGGA,045123.00,3540.5860784,N,13928.9566123,E,5,08,1.0,57.459,M,38.824,M,1.0,*7F
$GPGSA,A,3,07,08,16,27,,,,,,,,,5.2,3.2,4.1,1*21
$GPGSV,1,1,04,07,33,309,41,08,60,291,52,16,48,090,41,27,60,025,52,1*6F
$GPRMC,045124.00,A,3540.5860764,N,13928.9566067,E,0.16,0.00,210518,0.0,E,D*3E
$GPGGA,045124.00,3540.5860764,N,13928.9566067,E,5,08,1.0,57.416,M,38.824,M,1.0,*7C
$GPGSA,A,3,07,08,16,27,,,,,,,,,5.2,3.2,4.1,1*21
$GPGSV,1,1,04,07,33,309,40,08,60,291,52,16,48,090,41,27,60,025,52,1*6E
$GPRMC,045125.00,A,3540.5860813,N,13928.9566066,E,0.13,0.00,210518,0.0,E,D*34
$GPGGA,045125.00,3540.5860813,N,13928.9566066,E,5,08,1.0,57.365,M,38.824,M,1.0,*70
$GPGSA,A,3,07,08,16,27,,,,,,,,,5.2,3.2,4.1,1*21
$GPGSV,1,1,04,07,33,309,41,08,60,291,52,16,48,090,41,27,60,025,51,1*6C
$GPRMC,045126.00,A,3540.5860919,N,13928.9566026,E,0.08,0.00,210518,0.0,E,D*32
$GPGGA,045126.00,3540.5860919,N,13928.9566026,E,5,08,1.0,57.296,M,38.824,M,1.0,*71
$GPGSA,A,3,07,08,16,27,,,,,,,,,5.2,3.2,4.1,1*21
$GPGSV,1,1,04,07,33,309,41,08,60,291,51,16,48,090,41,27,60,025,51,1*6F
$GPRMC,045127.00,A,3540.5860962,N,13928.9565960,E,0.08,0.00,210518,0.0,E,D*37
$GPGGA,045127.00,3540.5860962,N,13928.9565960,E,5,07,1.0,57.249,M,38.824,M,1.0,*79
$GPGSA,A,3,07,08,27,,,,,,,,,,0.0,0.0,0.0,1*25
$GPGSV,1,1,03,07,33,309,40,08,60,291,50,27,60,025,50,,,,,1*5E
$GPRMC,045128.00,A,3540.5856813,N,13928.9527995,E,0.45,0.00,210518,0.0,E,A*3A
$GPGGA,045128.00,3540.5856813,N,13928.9527995,E,1,09,1.0,51.263,M,38.824,M,1.0,*7C
$GPGSA,A,3,07,08,16,18,27,,,,,,,,4.1,1.5,3.9,1*20
$GPGSV,2,1,05,07,33,309,43,08,60,291,51,16,48,090,41,18,36,196,40,1*69
$GPGSV,2,2,05,27,60,025,51,,,,,,,,,,,,,1*51
$GPRMC,045129.00,A,3540.5863548,N,13928.9574241,E,0.14,0.00,210518,0.0,E,D*3B
$GPGGA,045129.00,3540.5863548,N,13928.9574241,E,5,08,1.0,47.329,M,38.824,M,1.0,*71
$GPGSA,A,3,07,08,16,18,27,,,,,,,,4.1,1.5,3.9,1*20
$GPGSV,2,1,05,07,33,309,43,08,60,291,52,16,48,090,41,18,36,196,40,1*6A
$GPGSV,2,2,05,27,60,025,51,,,,,,,,,,,,,1*51
$GPRMC,045130.00,A,3540.5864308,N,13928.9570230,E,0.14,0.00,210518,0.0,E,D*34
$GPGGA,045130.00,3540.5864308,N,13928.9570230,E,5,09,1.0,50.507,M,38.824,M,1.0,*73
$GPGSA,A,3,07,08,16,18,27,,,,,,,,4.1,1.5,3.9,1*20
$GPGSV,2,1,05,07,33,309,44,08,60,291,52,16,48,090,41,18,36,196,41,1*6C
$GPGSV,2,2,05,27,60,025,51,,,,,,,,,,,,,1*51
$GPRMC,045131.00,A,3540.5864434,N,13928.9571307,E,0.17,0.00,210518,0.0,E,D*3A
$GPGGA,045131.00,3540.5864434,N,13928.9571307,E,5,08,1.0,49.894,M,38.824,M,1.0,*70
$GPGSA,A,3,07,08,16,18,27,,,,,,,,4.1,1.5,3.9,1*20
$GPGSV,2,1,05,07,33,309,45,08,60,291,51,16,48,090,41,18,36,196,40,1*6F
$GPGSV,2,2,05,27,60,025,51,,,,,,,,,,,,,1*51
$GPRMC,045132.00,A,3540.5860696,N,13928.9574161,E,0.22,0.00,210518,0.0,E,D*36
$GPGGA,045132.00,3540.5860696,N,13928.9574161,E,5,08,1.0,49.578,M,38.824,M,1.0,*75
$GPGSA,A,3,07,08,16,18,27,,,,,,,,4.1,1.5,3.9,1*20
$GPGSV,2,1,05,07,33,309,46,08,60,291,52,16,48,090,42,18,36,196,40,1*6C
$GPGSV,2,2,05,27,60,025,51,,,,,,,,,,,,,1*51
$GPRMC,045133.00,A,3540.5860445,N,13928.9574113,E,0.13,0.00,210518,0.0,E,D*3C
$GPGGA,045133.00,3540.5860445,N,13928.9574113,E,5,08,1.0,50.044,M,38.824,M,1.0,*7F
$GPGSA,A,3,07,08,16,18,27,,,,,,,,4.1,1.5,3.9,1*20
$GPGSV,2,1,05,07,33,309,45,08,60,291,52,16,48,090,42,18,36,196,40,1*6F
$GPGSV,2,2,05,27,60,025,52,,,,,,,,,,,,,1*52
$GPRMC,045134.00,A,3540.5860192,N,13928.9573731,E,0.16,0.00,210518,0.0,E,D*30
$GPGGA,045134.00,3540.5860192,N,13928.9573731,E,5,08,1.0,51.348,M,38.824,M,1.0,*78
$GPGSA,A,3,07,08,16,18,27,,,,,,,,4.1,1.5,3.9,1*20
$GPGSV,2,1,05,07,33,309,45,08,60,291,51,16,48,090,41,18,36,196,40,1*6F
$GPGSV,2,2,05,27,60,025,52,,,,,,,,,,,,,1*52
$GPRMC,045135.00,A,3540.5869413,N,13928.9562283,E,0.35,0.00,210518,0.0,E,D*39
$GPGGA,045135.00,3540.5869413,N,13928.9562283,E,5,08,1.0,54.183,M,38.824,M,1.0,*70
$GPGSA,A,3,07,08,16,27,,,,,,,,,5.2,3.2,4.1,1*21
