%  GPST           x-ecef(m)      y-ecef(m)      z-ecef(m)   Q  ns   sdx(m)   sdy(m)   sdz(m)  sdxy(m)  sdyz(m)  sdzx(m) age(s)  ratio
2001 270712  -3943563.8184   3370363.5999   3698855.4384   5   4  66.4918  54.9741  20.6643 -60.3594 -31.7449  35.1178   0.00    0.0
2001 270713  -3943589.1402   3370384.8811   3698849.3112   5   4  66.4016  54.8899  20.6411 -60.2720 -31.6976  35.0694   0.00    0.0
2001 270714  -3943527.8846   3370333.9698   3698862.8970   5   4  66.3113  54.8056  20.6179 -60.1844 -31.6504  35.0211   0.00    0.0
2001 270715  -3943588.7653   3370382.8588   3698844.7767   5   4  66.2217  54.7220  20.5948 -60.0975 -31.6034  34.9730   0.00    0.0
2001 270716  -3943564.3354   3370360.3712   3698850.6722   5   4  66.1320  54.6384  20.5718 -60.0106 -31.5564  34.9250   0.00    0.0
2001 270717  -3943563.8553   3370360.3209   3698847.6494   5   4  66.0427  54.5550  20.5488 -59.9240 -31.5096  34.8771   0.00    0.0
2001 270718  -3943578.7920   3370373.2341   3698845.9217   5   4  65.9537  54.4719  20.5259 -59.8376 -31.4630  34.8293   0.00    0.0
2001 270719  -3943588.1967   3370380.2443   3698842.0619   5   4  65.8649  54.3890  20.5031 -59.7515 -31.4164  34.7817   0.00    0.0
2001 270720  -3943613.0945   3370400.0770   3698833.4274   5   4  65.7763  54.3064  20.4804 -59.6656 -31.3700  34.7342   0.00    0.0
2001 270771  -3943356.8970   3370202.2733   3698895.7347   5   5   7.4053   8.1804   9.3325  -7.1506  -2.1169   3.8400   0.00    0.0
2001 270772  -3943356.1559   3370205.6254   3698894.1806   5   5   7.4061   8.1805   9.3326  -7.1510  -2.1135   3.8400   0.00    0.0
2001 270773  -3943356.9611   3370209.7116   3698891.1661   5   5   7.4070   8.1806   9.3327  -7.1514  -2.1102   3.8401   0.00    0.0
2001 270774  -3943356.5994   3370211.8206   3698887.4837   5   5   7.4078   8.1807   9.3328  -7.1518  -2.1069   3.8402   0.00    0.0
2001 270780  -3943339.6005   3370199.9144   3698883.3363   5   5   7.4127   8.1812   9.3334  -7.1543  -2.0868   3.8407   0.00    0.0
2001 270781  -3943334.5924   3370194.4580   3698883.1186   5   5   7.4135   8.1813   9.3335  -7.1547  -2.0834   3.8408   0.00    0.0
2001 270782  -3943336.0001   3370193.0051   3698881.5850   5   5   7.4143   8.1814   9.3337  -7.1551  -2.0801   3.8409   0.00    0.0
2001 270783  -3943333.1151   3370187.5339   3698878.1477   5   5   7.4151   8.1815   9.3338  -7.1555  -2.0767   3.8410   0.00    0.0
2001 270784  -3943325.2248   3370183.9009   3698887.4629   5   5   7.4159   8.1816   9.3338  -7.1559  -2.0733   3.8410   0.00    0.0
2001 270785  -3943327.6418   3370187.3691   3698886.3099   5   5   7.4167   8.1816   9.3339  -7.1563  -2.0699   3.8411   0.00    0.0
2001 270786  -3943326.8637   3370187.0818   3698879.6924   5   5   7.4175   8.1817   9.3341  -7.1567  -2.0666   3.8412   0.00    0.0
2001 270787  -3943325.8296   3370187.0818   3698875.6166   5   5   7.4184   8.1818   9.3342  -7.1571  -2.0632   3.8413   0.00    0.0
2001 270788  -3943335.4618   3370198.5066   3698882.3299   5   5   7.4192   8.1819   9.3343  -7.1575  -2.0598   3.8414   0.00    0.0
2001 270789  -3943334.1053   3370199.4607   3698888.4952   5   5   7.4200   8.1820   9.3344  -7.1579  -2.0564   3.8414   0.00    0.0
2001 270790  -3943331.7309   3370198.0104   3698888.1316   5   5   7.4208   8.1821   9.3345  -7.1584  -2.0529   3.8415   0.00    0.0
2001 270791  -3943337.8287   3370209.2896   3698896.3538   5   5   7.4216   8.1822   9.3346  -7.1588  -2.0495   3.8416   0.00    0.0
2001 270792  -3943331.7769   3370204.0469   3698895.2447   5   5   7.4224   8.1823   9.3347  -7.1592  -2.0461   3.8417   0.00    0.0
2001 270793  -3943335.7531   3370209.3328   3698903.5019   5   5   7.4232   8.1823   9.3348  -7.1596  -2.0427   3.8418   0.00    0.0
2001 270794  -3943340.2734   3370214.9686   3698901.3556   5   5   7.4240   8.1824   9.3349  -7.1600  -2.0392   3.8418   0.00    0.0
2001 270795  -3943342.8273   3370218.3388   3698901.2856   5   5   7.4248   8.1825   9.3350  -7.1604  -2.0358   3.8419   0.00    0.0
2001 270796  -3943345.5865   3370219.2672   3698897.0605   5   5   7.4256   8.1826   9.3351  -7.1608  -2.0324   3.8420   0.00    0.0
2001 270797  -3943347.2705   3370219.5346   3698893.3563   5   5   7.4265   8.1827   9.3352  -7.1612  -2.0289   3.8421   0.00    0.0
2001 270798  -3943346.5481   3370219.0369   3698893.3356   5   5   7.4273   8.1828   9.3353  -7.1616  -2.0255   3.8422   0.00    0.0
2001 270799  -3943351.3507   3370222.0996   3698892.9310   5   5   7.4281   8.1829   9.3354  -7.1620  -2.0220   3.8422   0.00    0.0
2001 270818  -3943354.3497   3370212.7101   3698938.6655   5   5   7.4433   8.1845   9.3373  -7.1696  -1.9551   3.8436   0.00    0.0
2001 270819  -3943351.1040   3370210.2578   3698941.3972   5   5   7.4441   8.1846   9.3374  -7.1700  -1.9515   3.8437   0.00    0.0
2001 270820  -3943341.3662   3370200.4565   3698941.9909   5   5   7.4449   8.1847   9.3375  -7.1704  -1.9479   3.8438   0.00    0.0
2001 270821  -3943337.9282   3370198.2736   3698940.3535   5   5   7.4457   8.1848   9.3376  -7.1708  -1.9443   3.8438   0.00    0.0
2001 270822  -3943340.3822   3370201.4660   3698938.1736   5   5   7.4465   8.1849   9.3378  -7.1712  -1.9407   3.8439   0.00    0.0
2001 270823  -3943340.8618   3370201.1764   3698930.7381   5   5   7.4473   8.1850   9.3379  -7.1716  -1.9371   3.8440   0.00    0.0
2001 270824  -3943340.8566   3370199.1896   3698924.5568   5   5   7.4482   8.1851   9.3380  -7.1720  -1.9334   3.8440   0.00    0.0
2001 270825  -3943340.0346   3370197.7676   3698911.6973   5   5   7.4490   8.1852   9.3381  -7.1724  -1.9298   3.8441   0.00    0.0
2001 270826  -3943338.6062   3370195.6414   3698908.2339   5   5   7.4498   8.1853   9.3382  -7.1728  -1.9262   3.8442   0.00    0.0
2001 270832  -3943332.3282   3370187.3215   3698886.3023   5   5   7.4546   8.1858   9.3389  -7.1752  -1.9042   3.8446   0.00    0.0
2001 270833  -3943338.1640   3370190.4089   3698887.4689   5   5   7.4554   8.1859   9.3390  -7.1756  -1.9005   3.8446   0.00    0.0
2001 270834  -3943333.5143   3370188.2379   3698892.7350   5   5   7.4562   8.1860   9.3391  -7.1760  -1.8968   3.8447   0.00    0.0
2001 270836  -3943332.6175   3370186.7540   3698892.6427   5   5   7.4577   8.1861   9.3393  -7.1768  -1.8894   3.8448   0.00    0.0
2001 270837  -3943343.6627   3370195.2893   3698891.2570   5   5   7.4586   8.1862   9.3394  -7.1772  -1.8857   3.8449   0.00    0.0
2001 270838  -3943353.5280   3370206.4676   3698891.8311   5   5   7.4594   8.1863   9.3395  -7.1776  -1.8820   3.8449   0.00    0.0
2001 270839  -3943354.6911   3370208.5801   3698891.9010   5   5   7.4602   8.1864   9.3396  -7.1780  -1.8783   3.8450   0.00    0.0
2001 270840  -3943351.1104   3370206.5487   3698895.6180   5   5   7.4609   8.1865   9.3397  -7.1783  -1.8745   3.8451   0.00    0.0
2001 270841  -3943346.3921   3370203.1567   3698892.8696   5   5   7.4617   8.1866   9.3398  -7.1787  -1.8708   3.8451   0.00    0.0
2001 270842  -3943339.1544   3370196.9147   3698897.9379   5   5   7.4625   8.1867   9.3399  -7.1791  -1.8670   3.8452   0.00    0.0
2001 270843  -3943336.4868   3370194.2779   3698895.3506   5   5   7.4633   8.1867   9.3400  -7.1795  -1.8633   3.8452   0.00    0.0
2001 270844  -3943334.0369   3370191.1473   3698889.0160   5   5   7.4641   8.1868   9.3401  -7.1799  -1.8595   3.8453   0.00    0.0
2001 270845  -3943336.8256   3370194.7988   3698888.3721   5   5   7.4649   8.1869   9.3402  -7.1803  -1.8557   3.8453   0.00    0.0
2001 270846  -3943336.2877   3370194.1946   3698888.8220   5   5   7.4657   8.1870   9.3404  -7.1807  -1.8520   3.8454   0.00    0.0
2001 270847  -3943328.9899   3370189.9546   3698891.1123   5   5   7.4665   8.1871   9.3405  -7.1811  -1.8481   3.8455   0.00    0.0
2001 270848  -3943303.1328   3370170.6082   3698893.1122   5   5   7.4672   8.1871   9.3405  -7.1814  -1.8443   3.8455   0.00    0.0
2001 270849  -3943284.2432   3370157.4930   3698899.2781   5   5   7.4680   8.1872   9.3406  -7.1818  -1.8405   3.8455   0.00    0.0
2001 270850  -3943280.3782   3370155.7641   3698900.6964   5   5   7.4688   8.1873   9.3407  -7.1822  -1.8367   3.8456   0.00    0.0
2001 270851  -3943278.2466   3370156.3528   3698897.5382   5   5   7.4696   8.1874   9.3409  -7.1825  -1.8328   3.8456   0.00    0.0
2001 270852  -3943275.1576   3370156.1553   3698903.4076   5   5   7.4703   8.1875   9.3410  -7.1829  -1.8290   3.8457   0.00    0.0
2001 270853  -3943276.2503   3370157.9942   3698902.0503   5   5   7.4711   8.1875   9.3411  -7.1833  -1.8252   3.8457   0.00    0.0
2001 270854  -3943279.4778   3370161.2482   3698900.0894   5   5   7.4719   8.1876   9.3412  -7.1837  -1.8213   3.8458   0.00    0.0
2001 270855  -3943290.4615   3370176.0072   3698906.9645   5   5   7.4727   8.1877   9.3413  -7.1841  -1.8175   3.8458   0.00    0.0
2001 270856  -3943297.5333   3370180.9064   3698907.0309   5   5   7.4735   8.1878   9.3414  -7.1845  -1.8136   3.8459   0.00    0.0
2001 270857  -3943308.1397   3370188.7073   3698899.0118   5   5   7.4743   8.1879   9.3415  -7.1849  -1.8098   3.8460   0.00    0.0
2001 270858  -3943320.2266   3370196.1712   3698890.1688   5   5   7.4751   8.1880   9.3416  -7.1853  -1.8059   3.8460   0.00    0.0
2001 270859  -3943334.6120   3370211.2583   3698896.9913   5   5   7.4759   8.1881   9.3417  -7.1857  -1.8020   3.8461   0.00    0.0
2001 270860  -3943348.2829   3370223.4323   3698887.7790   5   5   7.4767   8.1882   9.3419  -7.1861  -1.7981   3.8462   0.00    0.0
2001 270861  -3943362.4952   3370235.7723   3698879.8425   5   5   7.4776   8.1883   9.3420  -7.1865  -1.7942   3.8462   0.00    0.0
2001 270862  -3943376.0599   3370248.7149   3698883.6845   5   5   7.4783   8.1884   9.3421  -7.1869  -1.7903   3.8463   0.00    0.0
2001 270863  -3943382.1881   3370252.2955   3698888.2108   5   5   7.4791   8.1885   9.3422  -7.1873  -1.7864   3.8464   0.00    0.0
2001 270864  -3943384.1990   3370255.0620   3698895.3615   5   5   7.4799   8.1886   9.3423  -7.1876  -1.7825   3.8464   0.00    0.0
2001 270865  -3943384.2387   3370256.7481   3698898.2166   5   5   7.4807   8.1886   9.3424  -7.1880  -1.7786   3.8464   0.00    0.0
2001 270866  -3943378.3829   3370254.3109   3698900.1877   5   5   7.4815   8.1887   9.3425  -7.1884  -1.7746   3.8465   0.00    0.0
2001 270867  -3943381.1539   3370260.8928   3698902.8495   5   5   7.4823   8.1888   9.3426  -7.1888  -1.7707   3.8465   0.00    0.0
2001 270868  -3943378.5897   3370258.7165   3698906.7458   5   5   7.4830   8.1889   9.3427  -7.1891  -1.7667   3.8466   0.00    0.0
