%  GPST           x-ecef(m)      y-ecef(m)      z-ecef(m)   Q  ns   sdx(m)   sdy(m)   sdz(m)  sdxy(m)  sdyz(m)  sdzx(m) age(s)  ratio
2001 271782  -3943353.6521   3370197.8573   3698870.1488   5   3  12.2327  20.1897  18.8261 -15.6734 -19.2536  14.9689   1.00    0.0
2001 271783  -3943355.0920   3370200.7891   3698870.6836   5   3  12.1975  20.1533  18.7345 -15.6572 -19.3085  15.0115   1.00    0.0
2001 271784  -3943355.5032   3370201.8757   3698871.7265   5   3  12.1878  20.1439  18.6988 -15.6543 -19.3259  15.0257   1.00    0.0
2001 271785  -3943354.4641   3370200.6231   3698873.5895   5   3  12.1846  20.1412  18.6774 -15.6548 -19.3339  15.0325   1.00    0.0
2001 271786  -3943354.1953   3370201.1233   3698877.4366   5   3  12.1841  20.1413  18.6618 -15.6566 -19.3381  15.0365   1.00    0.0
2001 271787  -3943351.9618   3370197.4797   3698879.0827   5   3  12.1849  20.1427  18.6491 -15.6592 -19.3404  15.0389   1.00    0.0
2001 271792  -3943346.1945   3370186.1643   3698889.2396   5   3  12.2008  20.1616  18.6106 -15.6778 -19.3353  15.0382   1.00    0.0
2001 271793  -3943345.5699   3370183.3116   3698889.4293   5   3  12.2029  20.1643  18.6006 -15.6810 -19.3358  15.0392   1.00    0.0
2001 271794  -3943347.8507   3370185.7536   3698885.0066   5   3  12.2053  20.1674  18.5912 -15.6843 -19.3358  15.0399   1.00    0.0
2001 271795  -3943357.4368   3370200.3343   3698869.0247   5   3  12.2080  20.1706  18.5824 -15.6878 -19.3355  15.0403   1.00    0.0
2001 271796  -3943377.1082   3370206.3112   3698846.3046   5   4  30.0000  30.0000  30.0000   0.0000   0.0000   0.0000   1.00    0.0
2001 271797  -3943357.8767   3370194.9161   3698846.9162   5   4  30.0000  30.0000  30.0000   0.0000   0.0000   0.0000   1.00    0.0
2001 271798  -3943360.3900   3370192.7304   3698836.8937   5   4  30.0000  30.0000  30.0000   0.0000   0.0000   0.0000   1.00    0.0
2001 271799  -3943365.4459   3370197.4685   3698838.7194   5   4  30.0000  30.0000  30.0000   0.0000   0.0000   0.0000   1.00    0.0
2001 271800  -3943374.8865   3370217.4397   3698859.5275   5   4  30.0000  30.0000  30.0000   0.0000   0.0000   0.0000   1.00    0.0
2001 271801  -3943381.1249   3370229.7196   3698867.1495   5   4  30.0000  30.0000  30.0000   0.0000   0.0000   0.0000   1.00    0.0
2001 271802  -3943380.1229   3370229.1682   3698867.2304   5   4  30.0000  30.0000  30.0000   0.0000   0.0000   0.0000   1.00    0.0
2001 271803  -3943381.4620   3370223.4016   3698854.2905   5   4  30.0000  30.0000  30.0000   0.0000   0.0000   0.0000   1.00    0.0
2001 271804  -3943377.9816   3370221.2943   3698845.1209   5   4  30.0000  30.0000  30.0000   0.0000   0.0000   0.0000   1.00    0.0
2001 271835  -3943344.6724   3370208.7515   3698845.9629   5   4  30.0000  30.0000  30.0000   0.0000   0.0000   0.0000   1.00    0.0
2001 271836  -3943350.8109   3370196.6726   3698819.2476   5   4  30.0000  30.0000  30.0000   0.0000   0.0000   0.0000   1.00    0.0
2001 271837  -3943355.0895   3370220.2760   3698842.2336   5   4  30.0000  30.0000  30.0000   0.0000   0.0000   0.0000   1.00    0.0
2001 271838  -3943357.1959   3370223.2771   3698844.7899   5   4  30.0000  30.0000  30.0000   0.0000   0.0000   0.0000   1.00    0.0
2001 271839  -3943357.9579   3370233.4160   3698856.2318   5   4  30.0000  30.0000  30.0000   0.0000   0.0000   0.0000   1.00    0.0
2001 271840  -3943365.2115   3370239.8948   3698858.5307   5   4  30.0000  30.0000  30.0000   0.0000   0.0000   0.0000   1.00    0.0
2001 271841  -3943368.5367   3370245.2514   3698866.6179   5   4  30.0000  30.0000  30.0000   0.0000   0.0000   0.0000   1.00    0.0
2001 271842  -3943367.7491   3370245.8770   3698871.5908   5   4  30.0000  30.0000  30.0000   0.0000   0.0000   0.0000  -0.00    0.0
2001 271843  -3943368.0632   3370244.9861   3698871.8460   5   4  30.0000  30.0000  30.0000   0.0000   0.0000   0.0000   1.00    0.0
2001 271844  -3943366.4906   3370239.1291   3698871.8213   5   4  30.0000  30.0000  30.0000   0.0000   0.0000   0.0000   1.00    0.0
2001 271845  -3943362.4107   3370235.8011   3698875.8308   5   4  30.0000  30.0000  30.0000   0.0000   0.0000   0.0000   1.00    0.0
2001 271846  -3943355.6259   3370230.6909   3698878.8192   5   4  30.0000  30.0000  30.0000   0.0000   0.0000   0.0000   1.00    0.0
2001 271847  -3943349.0403   3370225.1819   3698879.7238   5   4  30.0000  30.0000  30.0000   0.0000   0.0000   0.0000   1.00    0.0
2001 271864  -3943350.4952   3370184.1174   3698833.8088   5   4  30.0000  30.0000  30.0000   0.0000   0.0000   0.0000   1.00    0.0
2001 271865  -3943358.3451   3370197.6470   3698839.2089   5   4  30.0000  30.0000  30.0000   0.0000   0.0000   0.0000   1.00    0.0
2001 271866  -3943360.1735   3370207.8543   3698848.6758   5   4  30.0000  30.0000  30.0000   0.0000   0.0000   0.0000   1.00    0.0
2001 271867  -3943364.4848   3370217.1190   3698860.9806   5   4  30.0000  30.0000  30.0000   0.0000   0.0000   0.0000   1.00    0.0
2001 271869  -3943427.3313   3370365.8563   3699050.7274   5   4  30.0000  30.0000  30.0000   0.0000   0.0000   0.0000   1.00    0.0
2001 271870  -3943378.6598   3370243.3119   3698880.1545   5   4  30.0000  30.0000  30.0000   0.0000   0.0000   0.0000   1.00    0.0
2001 271871  -3943379.9278   3370246.0954   3698879.5729   5   4  30.0000  30.0000  30.0000   0.0000   0.0000   0.0000   1.00    0.0
2001 271874  -3943390.7832   3370249.1852   3698869.6765   5   4  30.0000  30.0000  30.0000   0.0000   0.0000   0.0000   1.00    0.0
2001 271875  -3943390.0043   3370253.8772   3698877.1916   5   4  30.0000  30.0000  30.0000   0.0000   0.0000   0.0000   1.00    0.0
2001 271877  -3943382.4481   3370254.7148   3698901.4802   5   4  30.0000  30.0000  30.0000   0.0000   0.0000   0.0000   1.00    0.0
2001 271878  -3943386.8122   3370269.4756   3698913.8310   5   4  30.0000  30.0000  30.0000   0.0000   0.0000   0.0000   1.00    0.0
2001 271879  -3943384.2495   3370273.1469   3698921.6596   5   4  30.0000  30.0000  30.0000   0.0000   0.0000   0.0000   1.00    0.0
2001 271880  -3943380.2594   3370275.8933   3698932.7133   5   4  30.0000  30.0000  30.0000   0.0000   0.0000   0.0000   1.00    0.0
2001 271892  -3943357.0322   3370326.5089   3698941.1159   5   4  30.0000  30.0000  30.0000   0.0000   0.0000   0.0000   1.00    0.0
2001 271893  -3943358.2975   3370326.4355   3698938.0852   5   4  30.0000  30.0000  30.0000   0.0000   0.0000   0.0000   1.00    0.0
2001 271894  -3943356.3038   3370316.9781   3698928.6022   5   4  30.0000  30.0000  30.0000   0.0000   0.0000   0.0000   1.00    0.0
2001 271895  -3943351.7250   3370307.0056   3698924.9406   5   4  30.0000  30.0000  30.0000   0.0000   0.0000   0.0000   1.00    0.0
2001 271896  -3943349.9283   3370303.6619   3698926.4731   5   4  30.0000  30.0000  30.0000   0.0000   0.0000   0.0000   1.00    0.0
2001 271897  -3943348.1130   3370294.9114   3698919.4798   5   4  30.0000  30.0000  30.0000   0.0000   0.0000   0.0000   1.00    0.0
2001 271910  -3943232.3829   3370044.9864   3699123.0452   5   4  30.0000  30.0000  30.0000   0.0000   0.0000   0.0000   1.00    0.0
2001 271911  -3943252.9345   3370074.0154   3699091.9020   5   4  30.0000  30.0000  30.0000   0.0000   0.0000   0.0000   1.00    0.0
2001 271912  -3943257.9229   3370081.1269   3699087.6536   5   4  30.0000  30.0000  30.0000   0.0000   0.0000   0.0000   1.00    0.0
2001 271913  -3943258.9250   3370081.4231   3699084.1479   5   4  30.0000  30.0000  30.0000   0.0000   0.0000   0.0000   1.00    0.0
2001 271914  -3943263.5322   3370084.7562   3699068.8844   5   4  30.0000  30.0000  30.0000   0.0000   0.0000   0.0000   1.00    0.0
2001 271915  -3943272.2794   3370097.0150   3699044.2497   5   4  30.0000  30.0000  30.0000   0.0000   0.0000   0.0000   1.00    0.0
2001 271918  -3943288.0025   3370110.5522   3699011.0939   5   4  30.0000  30.0000  30.0000   0.0000   0.0000   0.0000   1.00    0.0
2001 271920  -3943362.0526   3370201.6250   3698850.5928   5   5  30.0000  30.0000  30.0000   0.0000   0.0000   0.0000   1.00    0.0
2001 271922  -3943372.4731   3370201.5503   3698832.9532   5   4  30.0000  30.0000  30.0000   0.0000   0.0000   0.0000   1.00    0.0
2001 271925  -3943378.4593   3370217.8069   3698834.7236   5   5  30.0000  30.0000  30.0000   0.0000   0.0000   0.0000   1.00    0.0
2001 271926  -3943324.3970   3370144.4101   3698959.2642   5   4  30.0000  30.0000  30.0000   0.0000   0.0000   0.0000   1.00    0.0
2001 271927  -3943331.0466   3370153.3500   3698958.2550   5   4  30.0000  30.0000  30.0000   0.0000   0.0000   0.0000   1.00    0.0
2001 271928  -3943336.9075   3370161.7094   3698945.2927   5   4  30.0000  30.0000  30.0000   0.0000   0.0000   0.0000   1.00    0.0
2001 271929  -3943336.1601   3370161.9325   3698952.6249   5   4  30.0000  30.0000  30.0000   0.0000   0.0000   0.0000   1.00    0.0
2001 271930  -3943337.1633   3370163.7547   3698954.4574   5   4  30.0000  30.0000  30.0000   0.0000   0.0000   0.0000   1.00    0.0
2001 271931  -3943341.8021   3370172.1560   3698957.6996   5   4  30.0000  30.0000  30.0000   0.0000   0.0000   0.0000   1.00    0.0
2001 271932  -3943344.2241   3370175.7945   3698946.9806   5   4  30.0000  30.0000  30.0000   0.0000   0.0000   0.0000   1.00    0.0
2001 271933  -3943329.9251   3370158.7626   3698968.0121   5   4  30.0000  30.0000  30.0000   0.0000   0.0000   0.0000   2.00    0.0
2001 271934  -3943336.0709   3370167.3400   3698945.6952   5   4  30.0000  30.0000  30.0000   0.0000   0.0000   0.0000   3.00    0.0
2001 271935  -3943345.3933   3370178.9824   3698911.0041   5   4  30.0000  30.0000  30.0000   0.0000   0.0000   0.0000   4.00    0.0
2001 271936  -3943347.2849   3370183.0618   3698908.8181   5   4  30.0000  30.0000  30.0000   0.0000   0.0000   0.0000   5.00    0.0
2001 271937  -3943358.6107   3370196.0134   3698867.4626   5   4  30.0000  30.0000  30.0000   0.0000   0.0000   0.0000   6.00    0.0
2001 271938  -3943379.6656   3370225.9499   3698820.3818   5   4  30.0000  30.0000  30.0000   0.0000   0.0000   0.0000   7.00    0.0
2001 271939  -3943392.1702   3370245.0604   3698787.9897   5   4  30.0000  30.0000  30.0000   0.0000   0.0000   0.0000   8.00    0.0
2001 271940  -3943394.5589   3370248.3016   3698771.3863   5   4  30.0000  30.0000  30.0000   0.0000   0.0000   0.0000   9.00    0.0
2001 271941  -3943411.1765   3370265.6295   3698732.5967   5   4  30.0000  30.0000  30.0000   0.0000   0.0000   0.0000  10.00    0.0
2001 271942  -3943429.9386   3370292.4414   3698685.9916   5   4  30.0000  30.0000  30.0000   0.0000   0.0000   0.0000  11.00    0.0
2001 271943  -3943453.1059   3370321.2006   3698634.8348   5   4  30.0000  30.0000  30.0000   0.0000   0.0000   0.0000  12.00    0.0
2001 271944  -3943468.3380   3370344.7825   3698597.8859   5   4  30.0000  30.0000  30.0000   0.0000   0.0000   0.0000  13.00    0.0
2001 271945  -3943476.9407   3370358.5428   3698577.1345   5   4  30.0000  30.0000  30.0000   0.0000   0.0000   0.0000  14.00    0.0
2001 271946  -3943469.0419   3370349.6918   3698591.1215   5   4  30.0000  30.0000  30.0000   0.0000   0.0000   0.0000  15.00    0.0
2001 271947  -3943474.6855   3370357.7592   3698584.9110   5   4  30.0000  30.0000  30.0000   0.0000   0.0000   0.0000  16.00    0.0
2001 271948  -3943471.1801   3370356.6220   3698594.8749   5   4  30.0000  30.0000  30.0000   0.0000   0.0000   0.0000  17.00    0.0
2001 271949  -3943456.2314   3370338.3243   3698626.0712   5   4  30.0000  30.0000  30.0000   0.0000   0.0000   0.0000  18.00    0.0
2001 271950  -3943447.2890   3370329.8590   3698650.2761   5   4  30.0000  30.0000  30.0000   0.0000   0.0000   0.0000  19.00    0.0
2001 271951  -3943444.1425   3370327.1561   3698659.4203   5   4  30.0000  30.0000  30.0000   0.0000   0.0000   0.0000  20.00    0.0
2001 271952  -3943435.2880   3370318.4958   3698670.5100   5   4  30.0000  30.0000  30.0000   0.0000   0.0000   0.0000  21.00    0.0
2001 271953  -3943430.2195   3370312.2672   3698684.8691   5   4  30.0000  30.0000  30.0000   0.0000   0.0000   0.0000  22.00    0.0
2001 271954  -3943426.6178   3370308.6212   3698693.5348   5   4  30.0000  30.0000  30.0000   0.0000   0.0000   0.0000  23.00    0.0
2001 271955  -3943416.8892   3370295.3751   3698694.9763   5   4  30.0000  30.0000  30.0000   0.0000   0.0000   0.0000  24.00    0.0
2001 271956  -3943431.9382   3370314.5941   3698653.2163   5   4  30.0000  30.0000  30.0000   0.0000   0.0000   0.0000  25.00    0.0
2001 271957  -3943425.7504   3370306.4804   3698662.2061   5   4  30.0000  30.0000  30.0000   0.0000   0.0000   0.0000  26.00    0.0
2001 271958  -3943428.5632   3370312.6740   3698647.4821   5   4  30.0000  30.0000  30.0000   0.0000   0.0000   0.0000  27.00    0.0
2001 271959  -3943436.0030   3370315.5992   3698640.1285   5   4  30.0000  30.0000  30.0000   0.0000   0.0000   0.0000  28.00    0.0
2001 271960  -3943441.6104   3370310.5506   3698645.1425   5   4  30.0000  30.0000  30.0000   0.0000   0.0000   0.0000  29.00    0.0
2001 271961  -3943490.2814   3370258.7664   3698825.2622   5   4  30.0000  30.0000  30.0000   0.0000   0.0000   0.0000  30.00    0.0
2001 271966  -3943440.0461   3370297.1374   3698641.6730   5   4  17.2547  22.8991  34.3353 -19.5009 -26.3295  22.7301  35.00    0.0
2001 271967  -3943436.1723   3370296.8240   3698640.3224   5   4  17.2381  22.8709  34.2958 -19.4786 -26.2936  22.7025  36.00    0.0
2001 271968  -3943426.2646   3370288.3708   3698666.7453   5   4  17.2214  22.8426  34.2563 -19.4564 -26.2577  22.6749  37.00    0.0
2001 271977  -3943392.8559   3370258.3705   3698728.4562   5   4  17.0737  22.5921  33.9061 -19.2590 -25.9389  22.4295  46.00    0.0
2001 271978  -3943386.8565   3370252.4669   3698752.1076   5   4  17.0574  22.5646  33.8676 -19.2373 -25.9039  22.4025  47.00    0.0
2001 271979  -3943381.0212   3370246.8257   3698773.2362   5   4  17.0412  22.5371  33.8292 -19.2157 -25.8689  22.3756  48.00    0.0
2001 271980  -3943375.4819   3370239.5948   3698781.7329   5   4  17.0251  22.5098  33.7909 -19.1941 -25.8340  22.3487  49.00    0.0
2001 271981  -3943376.2879   3370239.7423   3698785.9416   5   4  17.0090  22.4825  33.7528 -19.1726 -25.7993  22.3220  50.00    0.0
2001 271982  -3943375.8867   3370236.2379   3698795.8013   5   4  16.9929  22.4553  33.7147 -19.1511 -25.7646  22.2952  51.00    0.0
2001 271983  -3943371.2982   3370229.8918   3698812.3899   5   4  16.9769  22.4281  33.6767 -19.1297 -25.7299  22.2686  52.00    0.0
2001 271984  -3943367.7250   3370221.2154   3698847.4199   5   4  16.9608  22.4010  33.6387 -19.1083 -25.6953  22.2419  53.00    0.0
2001 271985  -3943356.3734   3370207.2011   3698875.1384   5   4  16.9448  22.3739  33.6008 -19.0869 -25.6608  22.2153  54.00    0.0
2001 271986  -3943346.5300   3370197.9994   3698907.2557   5   4  16.9289  22.3469  33.5630 -19.0656 -25.6263  22.1888  55.00    0.0
2001 271987  -3943335.2637   3370183.6399   3698943.4821   5   4  16.9129  22.3199  33.5253 -19.0443 -25.5919  22.1623  56.00    0.0
2001 271988  -3943315.4806   3370162.6238   3698993.1136   5   4  16.8970  22.2930  33.4877 -19.0231 -25.5575  22.1358  57.00    0.0
2001 271989  -3943288.2094   3370134.3230   3699051.2286   5   4  16.8811  22.2661  33.4500 -19.0018 -25.5232  22.1094  58.00    0.0
2001 271990  -3943309.0572   3370159.0992   3699022.2233   5   4  16.8654  22.2396  33.4129 -18.9809 -25.4893  22.0833  59.00    0.0
2001 271991  -3943297.4925   3370149.5346   3699047.1557   5   4  16.8497  22.2129  33.3756 -18.9599 -25.4553  22.0571  60.00    0.0
2001 271992  -3943293.6254   3370145.2993   3699061.5545   5   4  16.8340  22.1864  33.3384 -18.9389 -25.4213  22.0309  61.00    0.0
2001 271993  -3943296.1709   3370149.2847   3699065.0772   5   4  16.8184  22.1599  33.3014 -18.9180 -25.3875  22.0049  62.00    0.0
2001 271994  -3943323.4101   3370179.6438   3699024.6014   5   4  16.8029  22.1337  33.2647 -18.8973 -25.3539  21.9791  63.00    0.0
2001 271995  -3943310.6997   3370163.3845   3699057.2322   5   4  16.7873  22.1073  33.2277 -18.8765 -25.3202  21.9531  64.00    0.0
2001 271996  -3943318.8511   3370175.1676   3699045.0145   5   4  16.7718  22.0811  33.1910 -18.8558 -25.2866  21.9273  65.00    0.0
2001 271997  -3943320.9747   3370178.3656   3699054.0527   5   4  16.7563  22.0549  33.1543 -18.8351 -25.2531  21.9014  66.00    0.0
2001 271998  -3943315.4148   3370173.5564   3699068.6308   5   4  16.7409  22.0287  33.1177 -18.8144 -25.2196  21.8757  67.00    0.0
2001 271999  -3943314.3627   3370170.4384   3699069.4676   5   4  16.7255  22.0027  33.0812 -18.7938 -25.1862  21.8500  68.00    0.0
2001 272000  -3943321.8827   3370175.8093   3699064.2806   5   4  16.7101  21.9767  33.0449 -18.7733 -25.1530  21.8244  69.00    0.0
2001 272001  -3943324.6229   3370184.1205   3699054.4052   5   4  16.6948  21.9508  33.0086 -18.7529 -25.1198  21.7988  70.00    0.0
2001 272002  -3943323.8884   3370185.1860   3699062.0748   5   4  16.6795  21.9249  32.9724 -18.7324 -25.0867  21.7733  71.00    0.0
2001 272003  -3943318.9650   3370179.4322   3699076.9533   5   4  16.6642  21.8991  32.9362 -18.7120 -25.0536  21.7478  72.00    0.0
2001 272004  -3943329.3372   3370193.6784   3699049.6776   5   4  16.6491  21.8735  32.9003 -18.6918 -25.0207  21.7225  73.00    0.0
2001 272005  -3943330.7093   3370192.0494   3699039.6013   5   4  16.6339  21.8478  32.8644 -18.6715 -24.9878  21.6972  74.00    0.0
2001 272006  -3943316.6049   3370173.3157   3699060.2949   5   4  30.0000  30.0000  30.0000   0.0000   0.0000   0.0000   1.00    0.0
2001 272007  -3943323.6090   3370183.1484   3699053.7278   5   4  30.0000  30.0000  30.0000   0.0000   0.0000   0.0000   1.00    0.0
2001 272008  -3943322.7736   3370183.9822   3699057.8905   5   4  30.0000  30.0000  30.0000   0.0000   0.0000   0.0000   1.00    0.0
2001 272009  -3943322.7971   3370183.4594   3699055.1948   5   4  30.0000  30.0000  30.0000   0.0000   0.0000   0.0000   1.00    0.0
2001 272010  -3943322.9803   3370184.0474   3699039.4648   5   4  30.0000  30.0000  30.0000   0.0000   0.0000   0.0000   1.00    0.0
2001 272011  -3943328.2540   3370195.4251   3699024.9265   5   4  30.0000  30.0000  30.0000   0.0000   0.0000   0.0000   1.00    0.0
2001 272012  -3943337.7493   3370198.1359   3699007.3452   5   2  23.3540  21.8560  27.9254 -19.6716 -15.0093 -14.3676   1.00    0.0
2001 272013  -3943353.9991   3370229.2161   3698962.7534   5   2  23.3427  21.8415  27.9202 -19.6864 -15.0239 -14.3815   1.00    0.0
2001 272014  -3943370.8560   3370256.4744   3698926.0985   5   2  23.3395  21.8373  27.9174 -19.6905 -15.0305 -14.3877   2.00    0.0
2001 272015  -3943368.6778   3370251.2554   3698923.8694   5   2  23.3384  21.8358  27.9152 -19.6920 -15.0350 -14.3920   3.00    0.0
2001 272016  -3943379.2632   3370266.2667   3698905.3248   5   2  23.3381  21.8352  27.9132 -19.6925 -15.0386 -14.3954   2.00    0.0
2001 272017  -3943388.7366   3370253.1164   3698902.8761   5   2  23.3587  21.8613  27.9171 -19.6659 -15.0217 -14.3792   1.00    0.0
2001 272018  -3943378.0611   3370239.0784   3698915.0899   5   2  23.3475  21.8468  27.9120 -19.6805 -15.0362 -14.3930   1.00    0.0
2001 272019  -3943366.5864   3370231.5751   3698915.2730   5   2  23.3444  21.8427  27.9091 -19.6847 -15.0428 -14.3992   1.00    0.0
2001 272020  -3943361.8793   3370220.5815   3698931.2317   5   2  23.3433  21.8411  27.9069 -19.6862 -15.0473 -14.4034   1.00    0.0
2001 272021  -3943347.4054   3370198.2379   3698954.7373   5   2  23.3430  21.8406  27.9049 -19.6866 -15.0510 -14.4069   1.00    0.0
2001 272022  -3943340.5600   3370186.0914   3698971.0872   5   2  23.3432  21.8406  27.9030 -19.6865 -15.0542 -14.4100   1.00    0.0
2001 272023  -3943368.3600   3370258.3501   3698888.7376   5   2  23.3435  21.8410  27.9011 -19.6861 -15.0573 -14.4128   1.00    0.0
2001 272034  -3943363.6751   3370245.9152   3698924.3583   5   7  30.0000  30.0000  30.0000   0.0000   0.0000   0.0000   1.00    0.0
2001 272035  -3943367.2872   3370249.5160   3698925.3191   5   7  30.0000  30.0000  30.0000   0.0000   0.0000   0.0000   1.00    0.0
2001 272036  -3943363.5854   3370245.6214   3698923.1996   5   7  30.0000  30.0000  30.0000   0.0000   0.0000   0.0000   1.00    0.0
2001 272037  -3943367.4517   3370245.2078   3698920.6439   5   7  30.0000  30.0000  30.0000   0.0000   0.0000   0.0000   1.00    0.0
2001 272038  -3943362.8380   3370231.3178   3698897.9841   5   6  30.0000  30.0000  30.0000   0.0000   0.0000   0.0000   1.00    0.0
2001 272039  -3943364.5586   3370230.8775   3698898.8093   5   6  30.0000  30.0000  30.0000   0.0000   0.0000   0.0000   1.00    0.0
2001 272040  -3943364.3809   3370228.8375   3698893.2333   5   6  30.0000  30.0000  30.0000   0.0000   0.0000   0.0000   1.00    0.0
2001 272041  -3943365.9785   3370223.7257   3698882.4727   5   6  30.0000  30.0000  30.0000   0.0000   0.0000   0.0000   1.00    0.0
2001 272042  -3943359.9961   3370217.0020   3698874.9572   5   6  30.0000  30.0000  30.0000   0.0000   0.0000   0.0000   1.00    0.0
2001 272043  -3943355.0358   3370213.7295   3698877.2700   5   6  30.0000  30.0000  30.0000   0.0000   0.0000   0.0000   1.00    0.0
2001 272044  -3943352.5483   3370213.9318   3698874.8310   5   6  30.0000  30.0000  30.0000   0.0000   0.0000   0.0000   1.00    0.0
2001 272045  -3943348.8110   3370214.4224   3698873.1506   5   6  30.0000  30.0000  30.0000   0.0000   0.0000   0.0000   1.00    0.0
2001 272046  -3943349.3018   3370213.4356   3698869.5618   5   6  30.0000  30.0000  30.0000   0.0000   0.0000   0.0000   1.00    0.0
2001 272047  -3943349.9612   3370212.1059   3698867.2435   5   6  30.0000  30.0000  30.0000   0.0000   0.0000   0.0000   1.00    0.0
2001 272048  -3943348.7021   3370211.3727   3698865.7040   5   6  30.0000  30.0000  30.0000   0.0000   0.0000   0.0000   1.00    0.0
2001 272049  -3943346.2954   3370207.7172   3698860.9490   5   6  30.0000  30.0000  30.0000   0.0000   0.0000   0.0000   1.00    0.0
2001 272050  -3943345.3541   3370206.6468   3698859.1112   5   6  30.0000  30.0000  30.0000   0.0000   0.0000   0.0000   1.00    0.0
2001 272051  -3943345.6232   3370204.5896   3698855.7992   5   6  30.0000  30.0000  30.0000   0.0000   0.0000   0.0000   1.00    0.0
2001 272052  -3943350.2632   3370210.8761   3698859.9776   5   6  30.0000  30.0000  30.0000   0.0000   0.0000   0.0000   1.00    0.0
2001 272053  -3943346.3552   3370206.1357   3698859.1120   5   6  30.0000  30.0000  30.0000   0.0000   0.0000   0.0000   1.00    0.0
2001 272054  -3943345.6787   3370202.0480   3698853.6999   5   6  30.0000  30.0000  30.0000   0.0000   0.0000   0.0000   1.00    0.0
2001 272055  -3943344.4985   3370200.0807   3698853.1230   5   6  30.0000  30.0000  30.0000   0.0000   0.0000   0.0000   1.00    0.0
2001 272056  -3943346.2678   3370200.5362   3698856.6009   5   6  30.0000  30.0000  30.0000   0.0000   0.0000   0.0000   1.00    0.0
2001 272057  -3943346.7325   3370200.3870   3698857.6623   5   6  30.0000  30.0000  30.0000   0.0000   0.0000   0.0000   1.00    0.0
2001 272058  -3943348.2208   3370202.0253   3698867.4249   5   6  30.0000  30.0000  30.0000   0.0000   0.0000   0.0000   1.00    0.0
2001 272059  -3943363.2549   3370224.4108   3698888.1030   5   5  30.0000  30.0000  30.0000   0.0000   0.0000   0.0000   1.00    0.0
2001 272060  -3943363.6657   3370216.0251   3698871.9858   5   6  30.0000  30.0000  30.0000   0.0000   0.0000   0.0000   1.00    0.0
2001 272061  -3943361.9493   3370215.0897   3698872.5477   5   6  30.0000  30.0000  30.0000   0.0000   0.0000   0.0000   1.00    0.0
2001 272062  -3943361.3345   3370213.5120   3698873.8505   5   5  30.0000  30.0000  30.0000   0.0000   0.0000   0.0000   1.00    0.0
2001 272063  -3943370.4758   3370226.5753   3698852.4998   5   4  30.0000  30.0000  30.0000   0.0000   0.0000   0.0000   1.00    0.0
2001 272064  -3943354.0470   3370204.6472   3698871.7002   5   4  30.0000  30.0000  30.0000   0.0000   0.0000   0.0000   1.00    0.0
2001 272065  -3943354.9813   3370206.2324   3698868.8746   5   4  30.0000  30.0000  30.0000   0.0000   0.0000   0.0000   1.00    0.0
2001 272066  -3943344.9769   3370193.4769   3698884.4797   5   4  30.0000  30.0000  30.0000   0.0000   0.0000   0.0000   1.00    0.0
2001 272074  -3943349.2430   3370189.2936   3698906.4211   5   4  30.0000  30.0000  30.0000   0.0000   0.0000   0.0000   1.00    0.0
2001 272080  -3943318.8250   3370139.0120   3698929.8040   5   4  30.0000  30.0000  30.0000   0.0000   0.0000   0.0000   1.00    0.0
2001 272081  -3943333.9638   3370158.1791   3698904.8281   5   4  30.0000  30.0000  30.0000   0.0000   0.0000   0.0000   1.00    0.0
2001 272082  -3943341.0254   3370168.4252   3698880.5211   5   4  30.0000  30.0000  30.0000   0.0000   0.0000   0.0000   1.00    0.0
2001 272083  -3943359.9020   3370199.8640   3698862.6244   5   4  30.0000  30.0000  30.0000   0.0000   0.0000   0.0000   1.00    0.0
2001 272084  -3943356.3611   3370191.0153   3698869.7178   5   4  30.0000  30.0000  30.0000   0.0000   0.0000   0.0000   1.00    0.0
2001 272085  -3943358.7554   3370193.0684   3698854.2480   5   4  30.0000  30.0000  30.0000   0.0000   0.0000   0.0000   1.00    0.0
2001 272086  -3943345.6888   3370176.7334   3698874.2467   5   4  30.0000  30.0000  30.0000   0.0000   0.0000   0.0000   1.00    0.0
2001 272087  -3943345.5154   3370173.4812   3698874.0034   5   4  30.0000  30.0000  30.0000   0.0000   0.0000   0.0000   1.00    0.0
2001 272169  -3943374.9684   3370371.9978   3698859.6461   5   5  30.0000  30.0000  30.0000   0.0000   0.0000   0.0000   1.00    0.0
2001 272170  -3943371.0793   3370357.0304   3698853.6819   5   4  30.0000  30.0000  30.0000   0.0000   0.0000   0.0000   1.00    0.0
2001 272171  -3943304.0011   3370227.9722   3698736.7575   5   5  30.0000  30.0000  30.0000   0.0000   0.0000   0.0000   1.00    0.0
2001 272176  -3943393.0781   3370353.1869   3698917.9805   5   2  13.5781  28.2968  28.5851 -16.3268   9.5249  15.6064   1.00    0.0
2001 272177  -3943398.0169   3370313.3649   3698881.0924   5   5  30.0000  30.0000  30.0000   0.0000   0.0000   0.0000   1.00    0.0
2001 272178  -3943402.3132   3370329.4453   3698885.1564   5   3  21.1893  19.8896   7.5668 -20.5009  12.2263 -12.6160   1.00    0.0
2001 272179  -3943408.0385   3370325.1588   3698889.3641   5   2  27.3107  29.8542  12.7771  -6.0556  -8.9540 -18.3569   1.00    0.0
2001 272181  -3943400.8239   3370232.1957   3698825.1610   5   4  30.0000  30.0000  30.0000   0.0000   0.0000   0.0000   1.00    0.0
2001 272182  -3943414.8667   3370297.8275   3698866.9773   5   4  30.0000  30.0000  30.0000   0.0000   0.0000   0.0000   1.00    0.0
2001 272183  -3943421.2710   3370355.8594   3698911.9441   5   4  30.0000  30.0000  30.0000   0.0000   0.0000   0.0000   1.00    0.0
2001 272193  -3943351.3258   3370232.1674   3698854.6356   2   6   1.9488   1.1367   1.4469  -1.2102   0.7302   0.8602   1.00    0.0
2001 272194  -3943347.3684   3370231.5895   3698856.7112   2   7   1.2763   0.9065   1.0496  -0.8684   0.6489   0.4409   1.00    1.9
2001 272198  -3943347.4984   3370233.5862   3698864.1111   2   6   1.5608   1.5987   2.0811  -1.3599   1.3692   0.2978   1.00   12.1
2001 272200  -3943336.1148   3370227.1097   3698853.6701   2   5  18.2863   9.2259  11.5551 -12.9702  10.3022 -14.5149   1.00    1.1
2001 272202  -3943348.3758   3370235.4845   3698861.7680   2   6   1.5635   1.0773   1.0423  -1.2044   0.9245  -1.1377   1.00    2.7
2001 272257  -3943398.8684   3370302.1247   3698881.2216   5   3  22.8990  11.7768  15.5766 -16.3757  13.4807 -18.7480   1.00    0.0
2001 272258  -3943400.0268   3370303.8635   3698881.1345   5   3  22.8825  11.7600  15.5235 -16.3809  13.4791 -18.7769   1.00    0.0
2001 272259  -3943402.3349   3370305.9955   3698882.2039   5   3  22.8781  11.7533  15.5044 -16.3824  13.4776 -18.7867   1.00    0.0
2001 272260  -3943390.9101   3370301.0212   3698873.9575   5   3  22.8767  11.7491  15.4942 -16.3829  13.4761 -18.7915   1.00    0.0
2001 272261  -3943418.1472   3370315.8614   3698891.1494   1   4   1.4800   0.7599   1.0012  -1.0604   0.8721  -1.2171   1.00    5.3
2001 272262  -3943401.2923   3370305.7414   3698867.1851   5   3  22.9033  11.7436  15.5711 -16.3846  13.4700 -18.7478   1.00    0.0
2001 272264  -3943406.3326   3370295.3459   3698801.3621   5   2  28.2218  11.7906  29.4172 -16.7536  12.7409   7.7379   1.00    0.0
2001 272290  -3943430.0477   3370345.8306   3698848.9292   5   7  30.0000  30.0000  30.0000   0.0000   0.0000   0.0000   1.00    0.0
2001 272291  -3943351.9847   3370322.5639   3698854.3875   5   6  30.0000  30.0000  30.0000   0.0000   0.0000   0.0000   1.00    0.0
2001 272306  -3943360.6059   3370291.9433   3698837.3463   5   5  30.0000  30.0000  30.0000   0.0000   0.0000   0.0000   1.00    0.0
2001 272308  -3943299.4857   3370261.5498   3698856.6465   5   5  30.0000  30.0000  30.0000   0.0000   0.0000   0.0000   1.00    0.0
2001 272309  -3943392.7849   3370282.3853   3698864.5245   5   4  30.0000  30.0000  30.0000   0.0000   0.0000   0.0000   1.00    0.0
2001 272313  -3943410.7824   3370303.0204   3698808.5201   5   2  25.6402  25.1594  22.7475  15.9530  17.8773 -17.4537   1.00    0.0
2001 272451  -3943416.8779   3370335.9393   3698869.3425   5   9  30.0000  30.0000  30.0000   0.0000   0.0000   0.0000   1.00    0.0
2001 272452  -3943385.0633   3370318.5324   3698866.1104   5   6  30.0000  30.0000  30.0000   0.0000   0.0000   0.0000   1.00    0.0
2001 272455  -3943428.7318   3370341.4799   3698881.3471   5   2  14.3965  27.9245  28.5473 -16.9878  10.0558  15.5799   1.00    0.0
2001 272469  -3943429.3867   3370285.6937   3698867.2071   5   8  30.0000  30.0000  30.0000   0.0000   0.0000   0.0000   1.00    0.0
2001 272491  -3943274.7867   3370266.1934   3698866.6141   2   5   1.3630   1.3993   1.5330  -1.1271   1.0515  -0.2065   1.00    0.0
2001 272492  -3943273.1107   3370265.3410   3698865.9273   2   5   1.7319   1.5456   1.5615  -1.4050   1.1594  -0.6433   1.00    2.4
2001 272519  -3943295.9047   3370275.1763   3698883.5250   5   2  17.2820  28.9527  25.7988 -13.8811  10.9685  19.3767   1.00    0.0
2001 272522  -3943272.3792   3370282.8216   3698850.3616   5   6  30.0000  30.0000  30.0000   0.0000   0.0000   0.0000   1.00    0.0
2001 272523  -3943256.6880   3370282.1368   3698872.5922   5   7  30.0000  30.0000  30.0000   0.0000   0.0000   0.0000   1.00    0.0
2001 272527  -3943258.4942   3370302.7206   3698872.9615   5   9  30.0000  30.0000  30.0000   0.0000   0.0000   0.0000   1.00    0.0
2001 272581  -3943254.2958   3370326.1651   3698880.7502   5   9  30.0000  30.0000  30.0000   0.0000   0.0000   0.0000   1.00    0.0
2001 272585  -3943240.6215   3370337.0866   3698868.7404   5   3   4.2258  28.0298  10.8608  -8.4860  17.0224  -4.1442   1.00    0.0
2001 272586  -3943238.8783   3370343.7178   3698855.8511   5   8  30.0000  30.0000  30.0000   0.0000   0.0000   0.0000   1.00    0.0
2001 272587  -3943240.2590   3370353.3697   3698873.6510   5   7  30.0000  30.0000  30.0000   0.0000   0.0000   0.0000   1.00    0.0
2001 272588  -3943247.1010   3370365.1960   3698883.8839   5   8  30.0000  30.0000  30.0000   0.0000   0.0000   0.0000   1.00    0.0
2001 272589  -3943238.0359   3370357.1840   3698894.3687   5   7  30.0000  30.0000  30.0000   0.0000   0.0000   0.0000   1.00    0.0
2001 272591  -3943227.6373   3370336.3216   3698895.5712   5   8  30.0000  30.0000  30.0000   0.0000   0.0000   0.0000   1.00    0.0
2001 272592  -3943230.0242   3370333.4073   3698896.3888   5   8  30.0000  30.0000  30.0000   0.0000   0.0000   0.0000   1.00    0.0
2001 272596  -3943213.1575   3370318.6055   3698915.2255   5   9  30.0000  30.0000  30.0000   0.0000   0.0000   0.0000   1.00    0.0
2001 272599  -3943229.4181   3370329.6009   3698927.3297   5  10  30.0000  30.0000  30.0000   0.0000   0.0000   0.0000   1.00    0.0
2001 272600  -3943223.3872   3370325.1184   3698928.1612   5   8  30.0000  30.0000  30.0000   0.0000   0.0000   0.0000   1.00    0.0
2001 272602  -3943212.4492   3370335.3135   3698926.3798   5   2  17.8966  28.8948  25.4413 -13.9375  11.3253  19.5647   1.00    0.0
2001 272603  -3943214.0674   3370330.5877   3698921.5052   5   3  20.5518  21.5870   3.8734 -21.0277  -8.8586   8.5905   1.00    0.0
2001 272604  -3943218.4427   3370331.0958   3698932.3704   5   3  20.5443  21.5791   3.8708 -21.0359  -8.8523   8.5906   1.00    0.0
2001 272606  -3943198.1177   3370316.4454   3698940.3831   5   3  20.5555  21.5849   3.8675 -21.0285  -8.8483   8.5814   1.00    0.0
2001 272607  -3943185.7833   3370321.3437   3698973.8163   5   5  30.0000  30.0000  30.0000   0.0000   0.0000   0.0000   1.00    0.0
2001 272611  -3943188.5166   3370275.8830   3698935.8308   5   2  25.6060  25.7413  22.1284  15.5189  17.6664 -17.7943   1.00    0.0
2001 272612  -3943179.7530   3370296.6821   3698954.0333   5   2  25.5851  25.7231  22.0860  15.5510  17.7039 -17.8340   1.00    0.0
2001 272613  -3943174.9887   3370303.0568   3698963.1880   5   2  25.5779  25.7182  22.0700  15.5611  17.7162 -17.8484   1.00    0.0
2001 272614  -3943184.6120   3370273.5782   3698948.3596   5   5  30.0000  30.0000  30.0000   0.0000   0.0000   0.0000   1.00    0.0
2001 272615  -3943177.1463   3370296.3285   3698961.4910   5   6  30.0000  30.0000  30.0000   0.0000   0.0000   0.0000   1.00    0.0
2001 272616  -3943184.0851   3370283.6016   3698966.5139   5   7  30.0000  30.0000  30.0000   0.0000   0.0000   0.0000   1.00    0.0
2001 272617  -3943189.5235   3370284.1489   3698966.9983   5   7  30.0000  30.0000  30.0000   0.0000   0.0000   0.0000   1.00    0.0
2001 272618  -3943175.1145   3370283.8097   3698973.1322   5   6  30.0000  30.0000  30.0000   0.0000   0.0000   0.0000   1.00    0.0
2001 272619  -3943165.8357   3370279.6145   3698983.5783   5   8  30.0000  30.0000  30.0000   0.0000   0.0000   0.0000   1.00    0.0
2001 272620  -3943165.4705   3370241.0462   3698985.3046   5   2  25.6049  25.7584  22.1098  15.5053  17.6588 -17.8042   1.00    0.0
2001 272621  -3943169.0588   3370276.5955   3699005.6812   5   2  18.0324  28.8817  25.3595 -13.9482  11.4044  19.6031   1.00    0.0
2001 272622  -3943161.8376   3370262.1990   3699007.5610   5   2  18.0184  28.8795  25.3485 -13.9580  11.4161  19.6181   1.00    0.0
2001 272623  -3943157.6150   3370287.1942   3699021.4896   5   8  30.0000  30.0000  30.0000   0.0000   0.0000   0.0000   1.00    0.0
2001 272624  -3943154.3154   3370277.4212   3699023.0550   5   2  13.9739  29.8697  27.0554   8.6112   6.0171 -18.5496   1.00    0.0
2001 272625  -3943198.2946   3370273.2209   3699035.0961   5   7  30.0000  30.0000  30.0000   0.0000   0.0000   0.0000   1.00    0.0
2001 272626  -3943153.1412   3370250.7519   3699031.9666   5   9  30.0000  30.0000  30.0000   0.0000   0.0000   0.0000   1.00    0.0
2001 272627  -3943159.5967   3370258.3954   3699051.9127   5   8  30.0000  30.0000  30.0000   0.0000   0.0000   0.0000   1.00    0.0
2001 272628  -3943128.5628   3370236.1206   3699048.7058   5   9  30.0000  30.0000  30.0000   0.0000   0.0000   0.0000   1.00    0.0
2001 272629  -3943132.4439   3370246.3688   3699061.7130   5   9  30.0000  30.0000  30.0000   0.0000   0.0000   0.0000   1.00    0.0
2001 272630  -3943135.5752   3370239.4710   3699062.2086   5   9  30.0000  30.0000  30.0000   0.0000   0.0000   0.0000   1.00    0.0
2001 272632  -3943131.2222   3370224.7668   3699088.0033   5   8  30.0000  30.0000  30.0000   0.0000   0.0000   0.0000   1.00    0.0
2001 272633  -3943128.2493   3370218.9076   3699094.2259   5   9  30.0000  30.0000  30.0000   0.0000   0.0000   0.0000   1.00    0.0
2001 272634  -3943104.8457   3370204.7864   3699101.0453   5   3   3.1409  24.8724  16.7794   8.1857  20.2238   6.8680   1.00    0.0
2001 272635  -3943114.0986   3370211.8290   3699095.7088   5   3   4.1781  27.9183  11.2132  -8.0556  17.2711  -3.8476   1.00    0.0
2001 272636  -3943109.9846   3370221.5492   3699110.1434   5   2  18.1178  28.8700  25.2882 -13.9652  11.4736  19.6451   1.00    0.0
2001 272637  -3943102.0098   3370207.5977   3699121.6207   2   4   5.7475  28.7883   6.4836 -12.5401  13.5967  -5.9365   1.00    0.0
2001 272638  -3943098.6144   3370201.4630   3699126.0407   5   8  30.0000  30.0000  30.0000   0.0000   0.0000   0.0000   1.00    0.0
2001 272639  -3943107.0933   3370201.9465   3699133.2331   5   8  30.0000  30.0000  30.0000   0.0000   0.0000   0.0000   1.00    0.0
2001 272640  -3943081.3273   3370187.0251   3699142.4371   5   8  30.0000  30.0000  30.0000   0.0000   0.0000   0.0000   1.00    0.0
2001 272641  -3943084.7265   3370188.0006   3699145.2311   5   7  30.0000  30.0000  30.0000   0.0000   0.0000   0.0000   1.00    0.0
2001 272642  -3943080.9853   3370188.8851   3699150.3150   5   8  30.0000  30.0000  30.0000   0.0000   0.0000   0.0000   1.00    0.0
2001 272643  -3943076.8114   3370183.6054   3699154.2130   5   8  30.0000  30.0000  30.0000   0.0000   0.0000   0.0000   1.00    0.0
2001 272644  -3943072.1380   3370185.0218   3699169.3837   5   7  30.0000  30.0000  30.0000   0.0000   0.0000   0.0000   1.00    0.0
2001 272645  -3943061.5308   3370189.2651   3699171.4583   5   2   3.6682  29.8188  30.0000   9.9010   0.1378  -0.4144   1.00    0.0
2001 272646  -3943060.1407   3370178.5467   3699197.4411   5   3   3.1352  24.9012  16.7368   8.1817  20.2099   6.8543   1.00    0.0
2001 272647  -3943063.6043   3370180.0890   3699191.7895   5   8  30.0000  30.0000  30.0000   0.0000   0.0000   0.0000   1.00    0.0
2001 272648  -3943057.5925   3370154.9640   3699188.2068   5   8  30.0000  30.0000  30.0000   0.0000   0.0000   0.0000   1.00    0.0
2001 272649  -3943058.0006   3370149.8640   3699195.8002   5   8  30.0000  30.0000  30.0000   0.0000   0.0000   0.0000   1.00    0.0
2001 272650  -3943050.5547   3370143.7195   3699200.7912   5   9  30.0000  30.0000  30.0000   0.0000   0.0000   0.0000   1.00    0.0
2001 272651  -3943055.6215   3370154.8851   3699210.1980   5  10  30.0000  30.0000  30.0000   0.0000   0.0000   0.0000   1.00    0.0
2001 272652  -3943052.8872   3370152.6978   3699210.1532   5   2  13.4414  29.8702  27.3317   8.6470   5.8720 -18.2133   1.00    0.0
2001 272653  -3943051.0979   3370148.9636   3699217.2515   5   9  30.0000  30.0000  30.0000   0.0000   0.0000   0.0000   1.00    0.0
2001 272654  -3943043.0683   3370142.8531   3699222.6416   5   9  30.0000  30.0000  30.0000   0.0000   0.0000   0.0000   1.00    0.0
2001 272655  -3943040.7619   3370129.7085   3699231.7328   5   3   3.1363  24.9227  16.7050   8.1781  20.1994   6.8436   1.00    0.0
2001 272656  -3943044.6602   3370135.7817   3699234.3310   5   3   4.1293  27.8684  11.3606  -7.8509  17.3766  -3.7173   1.00    0.0
2001 272657  -3943046.1508   3370136.4809   3699235.6135   5   3   3.3023  27.8576  11.1666  -7.7556  17.4230  -4.2809   0.99    0.0
2001 272658  -3943042.5391   3370132.4138   3699230.1098   5   2  12.9104  29.8684  27.3488   8.7192   5.8836 -18.2732   0.99    0.0
2001 272659  -3943038.0424   3370122.9928   3699238.1106   5  10  30.0000  30.0000  30.0000   0.0000   0.0000   0.0000   0.99    0.0
2001 272660  -3943040.2267   3370127.4224   3699239.6975   5  10  30.0000  30.0000  30.0000   0.0000   0.0000   0.0000   0.99    0.0
2001 272661  -3943056.8599   3370129.7295   3699232.2839   5   3   4.1559  27.8563  11.4016  -7.8036  17.4008  -3.6566   0.99    0.0
2001 272662  -3943041.5886   3370130.2593   3699253.6672   5   9  30.0000  30.0000  30.0000   0.0000   0.0000   0.0000   0.99    0.0
2001 272663  -3943037.1355   3370126.4667   3699250.0790   5   2  18.3274  28.8532  25.1792 -13.9687  11.5754  19.6817   0.99    0.0
2001 272664  -3943037.0667   3370124.3153   3699256.4136   5   3   3.4445  27.8414  11.2503  -7.7020  17.4523  -4.1218   0.99    0.0
2001 272665  -3943035.2108   3370127.0527   3699259.1185   5   9  30.0000  30.0000  30.0000   0.0000   0.0000   0.0000   0.99    0.0
2001 272666  -3943029.2119   3370118.1013   3699256.7334   5   9  30.0000  30.0000  30.0000   0.0000   0.0000   0.0000   0.99    0.0
2001 272667  -3943026.4003   3370110.1301   3699260.8134   5   9  30.0000  30.0000  30.0000   0.0000   0.0000   0.0000   0.99    0.0
2001 272668  -3943029.7064   3370117.1961   3699269.4695   5   9  30.0000  30.0000  30.0000   0.0000   0.0000   0.0000   0.99    0.0
2001 272669  -3943027.9614   3370117.5575   3699272.2492   5   2   3.5595  29.8324  29.9996   9.7125  -0.6949   2.1313   0.99    0.0
2001 272670  -3943026.1784   3370110.8223   3699274.5390   5  10  30.0000  30.0000  30.0000   0.0000   0.0000   0.0000   0.99    0.0
2001 272671  -3943030.1572   3370111.7153   3699279.7958   5   9  30.0000  30.0000  30.0000   0.0000   0.0000   0.0000   0.99    0.0
2001 272672  -3943030.1067   3370110.5624   3699283.0815   5   2  13.0528  29.8706  27.5249   8.6704   5.7627 -17.9530   0.99    0.0
2001 272673  -3943027.5976   3370100.5989   3699286.0228   5   2  26.0086  28.0899  18.3526 -12.5497  15.8107  18.8368   0.99    0.0
2001 272674  -3943013.4799   3370095.1325   3699291.0497   5   2   3.5302  29.8352  29.9994   9.6729  -0.7633   2.3508   0.99    0.0
2001 272675  -3943015.6498   3370092.9877   3699293.7745   5   9  30.0000  30.0000  30.0000   0.0000   0.0000   0.0000   0.99    0.0
2001 272676  -3943032.0797   3370104.0046   3699293.4564   5   2  26.0100  28.0858  18.3578 -12.5551  15.8175  18.8336   0.99    0.0
2001 272677  -3943019.7042   3370086.7464   3699299.8836   5   2  26.0104  28.0844  18.3591 -12.5571  15.8200  18.8329   0.99    0.0
2001 272678  -3943019.5583   3370078.5005   3699312.3245   5   7  30.0000  30.0000  30.0000   0.0000   0.0000   0.0000   0.99    0.0
2001 272679  -3943325.6104   3370204.8867   3699410.4971   5   2  27.8518  11.6163  29.8367 -17.5598   9.2982   5.9030   0.99    0.0
2001 272680  -3943031.5099   3370071.2912   3699329.6321   5  10  30.0000  30.0000  30.0000   0.0000   0.0000   0.0000   0.99    0.0
2001 272681  -3943008.0936   3370060.0124   3699334.5898   5   2  27.8500  11.6172  29.8381 -17.5632   9.2781   5.8914   0.99    0.0
2001 272682  -3943008.4634   3370051.3834   3699342.6917   5   2  26.3611  15.1271  29.8023  19.2618   9.4377  -7.0169   0.99    0.0
2001 272683  -3943005.1907   3370050.1153   3699348.7379   5   8  30.0000  30.0000  30.0000   0.0000   0.0000   0.0000   0.99    0.0
2001 272684  -3943005.0613   3370049.7053   3699353.4827   5   8  30.0000  30.0000  30.0000   0.0000   0.0000   0.0000   0.99    0.0
2001 272685  -3943019.7971   3370049.7161   3699365.3828   5   7  30.0000  30.0000  30.0000   0.0000   0.0000   0.0000   0.99    0.0
2001 272686  -3942994.8326   3370035.4850   3699376.9701   5   8  30.0000  30.0000  30.0000   0.0000   0.0000   0.0000   0.99    0.0
2001 272687  -3942969.2508   3370026.4025   3699380.8806   5   7  30.0000  30.0000  30.0000   0.0000   0.0000   0.0000   0.99    0.0
2001 272688  -3942985.3711   3370035.6304   3699387.2999   5   9  30.0000  30.0000  30.0000   0.0000   0.0000   0.0000   0.99    0.0
2001 272689  -3942978.2148   3370032.7339   3699399.3730   5   8  30.0000  30.0000  30.0000   0.0000   0.0000   0.0000   0.99    0.0
2001 272690  -3942981.3455   3370033.4944   3699410.0161   5   2  29.3743  29.5190   8.1603   5.7109  12.4286 -13.2650   0.99    0.0
2001 272691  -3942960.8026   3370033.7064   3699417.6431   2   4   8.9716  27.8665   7.0391 -15.4834  13.9540  -7.7748   0.99   66.9
2001 272692  -3942977.0099   3370022.1042   3699414.2255   5   3   4.0100  27.7715  11.5051  -7.4320  17.5858  -3.6305   0.99    0.0
2001 272693  -3942964.2950   3370028.2086   3699431.1248   5   2  26.0096  28.0589  18.3570 -12.5978  15.8711  18.8343   0.99    0.0
2001 272694  -3942950.6032   3370017.3208   3699435.4133   5   2  12.6084  29.8712  27.7320   8.6951   5.6375 -17.6492   0.99    0.0
2001 272695  -3942933.9860   3369998.6102   3699453.4829   5   3   4.0927  27.7705  11.6481  -7.4360  17.5717  -3.3871   0.99    0.0
2001 272696  -3942954.0754   3370014.6984   3699458.9876   5   8  30.0000  30.0000  30.0000   0.0000   0.0000   0.0000   0.99    0.0
2001 272697  -3942953.9585   3370011.3631   3699470.2291   5   9  30.0000  30.0000  30.0000   0.0000   0.0000   0.0000   0.99    0.0
2001 272698  -3942932.8061   3369997.6648   3699471.5315   5   7  30.0000  30.0000  30.0000   0.0000   0.0000   0.0000   0.99    0.0
2001 272699  -3942937.4131   3370004.0220   3699484.5396   5   7  30.0000  30.0000  30.0000   0.0000   0.0000   0.0000   0.99    0.0
2001 272700  -3942946.0167   3370003.1404   3699499.6730   5   2  29.3758  29.5165   8.1639   5.7147  12.4440 -13.2571   0.99    0.0
2001 272701  -3942911.9493   3369991.8553   3699499.9112   5   2  29.3756  29.5161   8.1415   5.7164  12.4483 -13.2592   0.99    0.0
2001 272702  -3942904.2751   3369979.9846   3699505.5414   2   4   5.8254  28.7537   6.5715 -12.6188  13.6828  -6.0180   0.99    0.0
2001 272703  -3942902.0880   3369969.0219   3699511.0579   2   5   3.6216  16.3772   4.0112  -7.4306   8.0208  -3.6089   0.99    2.8
2001 272704  -3942885.0968   3369973.4948   3699517.3044   5   2  29.3761  29.5153   8.1423   5.7175  12.4529 -13.2569   0.99    0.0
2001 272705  -3942901.5901   3369974.4923   3699536.4853   5   6  30.0000  30.0000  30.0000   0.0000   0.0000   0.0000   0.99    0.0
2001 272706  -3942888.9283   3369975.4869   3699544.2767   5   8  30.0000  30.0000  30.0000   0.0000   0.0000   0.0000   0.99    0.0
2001 272707  -3942889.0916   3369968.0113   3699551.0226   5   8  30.0000  30.0000  30.0000   0.0000   0.0000   0.0000   0.99    0.0
2001 272708  -3942878.5368   3369962.6382   3699556.6189   5   8  30.0000  30.0000  30.0000   0.0000   0.0000   0.0000   0.99    0.0
2001 272709  -3942869.0374   3369964.6826   3699566.4899   5   2  26.0236  28.0402  18.4078 -12.6168  15.8948  18.8034   0.99    0.0
2001 272710  -3942865.2663   3369963.2552   3699577.3539   5   2  26.0185  28.0362  18.3898 -12.6268  15.9073  18.8145   0.99    0.0
2001 272711  -3942859.9538   3369958.5975   3699588.1739   5   9  30.0000  30.0000  30.0000   0.0000   0.0000   0.0000   0.99    0.0
2001 272712  -3942876.9076   3369958.9104   3699602.3739   5   8  30.0000  30.0000  30.0000   0.0000   0.0000   0.0000   0.99    0.0
2001 272713  -3942853.1818   3369955.7046   3699605.9957   5   7  30.0000  30.0000  30.0000   0.0000   0.0000   0.0000   0.99    0.0
2001 272714  -3942861.8509   3369960.9281   3699620.8286   5   8  30.0000  30.0000  30.0000   0.0000   0.0000   0.0000   0.99    0.0
2001 272716  -3942808.4302   3369944.4469   3699627.2387   5   6  30.0000  30.0000  30.0000   0.0000   0.0000   0.0000   0.99    0.0
2001 272717  -3942812.5040   3369943.1963   3699636.8310   5   5  30.0000  30.0000  30.0000   0.0000   0.0000   0.0000   0.99    0.0
2001 272718  -3942813.3420   3369939.6104   3699646.4252   5   9  30.0000  30.0000  30.0000   0.0000   0.0000   0.0000   0.99    0.0
2001 272719  -3942810.3036   3369929.9057   3699655.2753   5   2  18.7088  28.8159  24.9402 -13.9897  11.7958  19.7739   0.99    0.0
2001 272720  -3942803.6708   3369939.7023   3699665.8933   5   3   3.6041  27.7035  11.8177  -7.1178  17.6996  -3.3302   0.99    0.0
2001 272721  -3942808.0666   3369931.9283   3699676.9449   5   9  30.0000  30.0000  30.0000   0.0000   0.0000   0.0000   0.99    0.0
2001 272722  -3942829.6250   3369936.3289   3699698.0979   5   8  30.0000  30.0000  30.0000   0.0000   0.0000   0.0000   0.99    0.0
2001 272723  -3942794.6062   3369926.1961   3699690.5365   5   9  30.0000  30.0000  30.0000   0.0000   0.0000   0.0000   0.99    0.0
2001 272724  -3942810.5521   3369927.6776   3699709.4559   5   6  30.0000  30.0000  30.0000   0.0000   0.0000   0.0000   0.99    0.0
2001 272725  -3942816.2390   3369929.1339   3699718.7573   5   7  30.0000  30.0000  30.0000   0.0000   0.0000   0.0000   0.99    0.0
2001 272726  -3942775.6647   3369903.3061   3699720.8867   5   8  30.0000  30.0000  30.0000   0.0000   0.0000   0.0000   0.99    0.0
2001 272727  -3942796.3913   3369931.1372   3699731.7019   5  10  30.0000  30.0000  30.0000   0.0000   0.0000   0.0000   0.99    0.0
2001 272728  -3942771.9308   3369898.2634   3699739.0741   5   8  30.0000  30.0000  30.0000   0.0000   0.0000   0.0000   0.99    0.0
2001 272729  -3942756.6974   3369899.4444   3699744.6439   2   4   1.5739   1.3660   3.4170  -1.0318   1.1739   1.5310   0.99    0.0
2001 272730  -3942755.2336   3369876.6797   3699745.6264   2   7   0.9088   4.6369   1.3932  -1.0167   2.3541  -0.5722   0.99    0.0
2001 272731  -3942751.0260   3369870.5047   3699752.6436   2   6   0.9305   7.1734   1.9436  -1.7541   3.5817  -0.9988   0.99    0.0
2001 272732  -3942757.8522   3369888.8602   3699767.9221   5   2  27.8032  11.6305  29.8719 -17.6529   8.7510   5.5862   0.99    0.0
2001 272733  -3942734.9203   3369874.7524   3699768.1826   5  10  30.0000  30.0000  30.0000   0.0000   0.0000   0.0000   0.99    0.0
2001 272734  -3942743.5369   3369877.1836   3699780.5458   5  10  30.0000  30.0000  30.0000   0.0000   0.0000   0.0000   0.99    0.0
2001 272735  -3942735.3874   3369847.4099   3699781.5201   2   6   1.3144   5.8616   1.7273  -1.2855   2.9850  -0.6859   0.99    0.0
2001 272736  -3942733.0123   3369872.6294   3699799.2621   5   3   1.9520  27.6400  11.5909  -6.6901  17.8623  -4.2916   0.99    0.0
2001 272737  -3942733.0703   3369871.0635   3699803.5902   5   2  26.0267  27.9971  18.4215 -12.6810  15.9750  18.7957   0.99    0.0
2001 272738  -3942729.2549   3369870.6097   3699805.1792   5  10  30.0000  30.0000  30.0000   0.0000   0.0000   0.0000   0.99    0.0
2001 272739  -3942724.3000   3369868.8531   3699808.3952   5   2   3.2798  29.8693  29.9937   9.1339  -1.3122   4.2839   0.99    0.0
2001 272740  -3942722.9347   3369865.2492   3699814.1889   2   5   1.0740   1.2260   2.1002  -0.7124   1.1748   0.7397   0.99    0.0
2001 272741  -3942722.4024   3369865.1610   3699815.2813   2   5   0.8272   0.9727   0.9631  -0.7017   0.4248   0.0731   0.99    0.0
2001 272742  -3942722.2137   3369865.0191   3699815.5314   2   4   0.7198   0.9453   0.8905  -0.5939   0.4873   0.2026   0.99    0.0
2001 272743  -3942721.5177   3369864.4723   3699815.9238   2   4   0.6461   0.9135   0.8248  -0.5246   0.4950   0.2244   0.99    0.0
2001 272744  -3942726.1460   3369885.3651   3699813.0426   2   7   1.2817   1.4623   0.6988  -1.0848  -0.1861  -0.5549   0.99   27.9
2001 272745  -3942727.5634   3369882.6329   3699812.1265   1   7   0.1698   0.8642   0.1979  -0.3821   0.4134  -0.1828   0.99    7.9
2001 272746  -3942728.4239   3369883.4005   3699812.0153   2   8   0.7622   0.8045   0.4284  -0.6573   0.3163  -0.3590   0.99    1.8
2001 272747  -3942729.1213   3369884.3482   3699811.5051   2   9   0.6627   0.6681   0.3699  -0.5700   0.3125  -0.3195   0.99    2.1
2001 272748  -3942729.2838   3369884.9120   3699811.7128   2   9   0.5943   0.5882   0.3319  -0.5112   0.2943  -0.2900   0.99    2.5
2001 272749  -3942729.2200   3369885.0630   3699812.1814   2   9   0.5436   0.5328   0.3040  -0.4677   0.2765  -0.2673   0.99    2.2
2001 272750  -3942730.4014   3369890.9338   3699813.4703   2   8   0.5305   0.9768   0.3487  -0.5748   0.4864  -0.3092   0.99    2.6
2001 272751  -3942731.1393   3369894.0513   3699813.8032   2   8   0.4848   0.7251   0.3022  -0.4790   0.3698  -0.2649   0.99    2.3
2001 272752  -3942730.3707   3369890.6747   3699813.6517   2   7   0.4561   0.6706   0.2805  -0.4461   0.3338  -0.2455   0.99    1.4
2001 272753  -3942729.4379   3369874.5553   3699808.5291   5   3   1.5601  27.5878  11.6926  -6.4346  17.9581  -4.1858   0.99    0.0
2001 272754  -3942728.7921   3369871.9830   3699810.1307   5   3   1.5511  27.5848  11.7005  -6.4193  17.9633  -4.1773   0.99    0.0
2001 272755  -3942728.3412   3369872.5622   3699812.9565   5   3   1.5424  27.5818  11.7085  -6.4039  17.9684  -4.1687   0.99    0.0
2001 272756  -3942722.9912   3369866.2350   3699816.1139   5   2  26.0320  27.9690  18.4426 -12.7198  16.0232  18.7834   0.99    0.0
2001 272757  -3942718.6713   3369861.7449   3699825.9046   5  10  30.0000  30.0000  30.0000   0.0000   0.0000   0.0000   0.99    0.0
2001 272758  -3942723.6096   3369864.6412   3699826.6575   5  10  30.0000  30.0000  30.0000   0.0000   0.0000   0.0000   0.99    0.0
2001 272759  -3942719.9298   3369868.0229   3699836.3868   5   2  18.9724  28.7897  24.7703 -14.0010  11.9483  19.8318   0.99    0.0
2001 272760  -3942715.4931   3369853.1145   3699837.5992   5   2  18.9604  28.7874  24.7585 -14.0103  11.9598  19.8461   0.99    0.0
2001 272761  -3942716.9972   3369858.2623   3699848.2163   5   2  26.0447  27.9672  18.4883 -12.7131  16.0146  18.7553   0.99    0.0
2001 272762  -3942710.6768   3369839.8939   3699851.0025   5   2  18.9916  28.7877  24.7575 -14.0018  11.9597  19.8361   0.99    0.0
2001 272763  -3942705.3288   3369845.9375   3699856.9322   5  10  30.0000  30.0000  30.0000   0.0000   0.0000   0.0000   0.99    0.0
2001 272764  -3942703.6179   3369842.4542   3699861.9896   5   9  30.0000  30.0000  30.0000   0.0000   0.0000   0.0000   0.99    0.0
2001 272765  -3942697.5457   3369838.7910   3699873.3248   5   2   3.2128  29.8819  29.9897   8.9067  -1.4476   4.8477   0.99    0.0
2001 272766  -3942694.4762   3369837.5974   3699878.1102   2   4   9.2564  27.7407   7.1603 -15.7148  14.0438  -7.9752   0.99    0.0
2001 272767  -3942694.6547   3369829.3583   3699887.6456   5   2  29.3853  29.4998   8.1654   5.7411  12.5493 -13.2064   0.99    0.0
2001 272768  -3942698.8999   3369822.5857   3699900.2460   5   9  30.0000  30.0000  30.0000   0.0000   0.0000   0.0000   0.99    0.0
2001 272769  -3942702.0343   3369817.4746   3699912.1596   5   9  30.0000  30.0000  30.0000   0.0000   0.0000   0.0000   0.99    0.0
2001 272770  -3942690.5434   3369817.1163   3699919.8242   5   2  29.3860  29.4993   8.1889   5.7409  12.5511 -13.2011   0.99    0.0
2001 272771  -3942669.7482   3369803.1722   3699922.7223   5   6  30.0000  30.0000  30.0000   0.0000   0.0000   0.0000   0.99    0.0
2001 272773  -3942674.7807   3369798.9975   3699943.3739   5   7  30.0000  30.0000  30.0000   0.0000   0.0000   0.0000   0.99    0.0
2001 272774  -3942646.5366   3369783.6698   3699946.0305   5   7  30.0000  30.0000  30.0000   0.0000   0.0000   0.0000   0.99    0.0
2001 272775  -3942652.2844   3369787.6777   3699960.2631   5   6  30.0000  30.0000  30.0000   0.0000   0.0000   0.0000   0.99    0.0
2001 272776  -3942651.8873   3369785.6265   3699968.4962   5   9  30.0000  30.0000  30.0000   0.0000   0.0000   0.0000   0.99    0.0
2001 272777  -3942651.5405   3369775.8254   3699975.9898   5   9  30.0000  30.0000  30.0000   0.0000   0.0000   0.0000   0.99    0.0
2001 272778  -3942649.6796   3369777.5695   3699987.5345   5   7  30.0000  30.0000  30.0000   0.0000   0.0000   0.0000   0.99    0.0
2001 272779  -3942644.4205   3369770.6675   3699996.1577   5   8  30.0000  30.0000  30.0000   0.0000   0.0000   0.0000   0.99    0.0
2001 272780  -3942633.9564   3369768.5288   3699999.0305   5   2   3.1736  29.8889  29.9869   8.7725  -1.5130   5.1453   0.99    0.0
2001 272781  -3942629.4857   3369765.3998   3700004.8634   5   3   2.8851  25.2048  16.2510   8.1328  20.0637   6.6031   0.99    0.0
2001 272783  -3942624.8295   3369754.2780   3700002.5665   2   5   0.9004   1.1335   1.8464  -0.5473   1.0473   0.7270   0.99    0.0
2001 272784  -3942618.6481   3369794.1448   3700034.8174   2   4   1.6914  15.4185   9.3370   4.7885  11.9462   3.7710   0.99    0.0
2001 272785  -3942619.2948   3369764.1966   3700019.0920   2   4   1.5118  11.5896   6.8968   3.4784   8.8707   2.6304   0.99    0.0
2001 272786  -3942621.7644   3369749.3834   3700011.8891   2   5   1.4612   1.3421   2.1065  -1.0362   1.0842   0.9085   0.99    1.5
2001 272788  -3942620.2172   3369745.8377   3700008.7137   1   8   0.0402   0.5598   0.2451  -0.1215   0.3690  -0.0753   0.99    8.2
2001 272789  -3942622.1386   3369749.0117   3700010.5628   2   7   0.7578   0.6663   0.6173  -0.6065   0.4137  -0.2531   0.99    1.1
2001 272790  -3942622.9946   3369751.3477   3700012.5932   1   7   0.0303   0.4060   0.1777  -0.0885   0.2676  -0.0551   0.99   43.9
2001 272791  -3942623.0315   3369752.5214   3700014.4496   2   7   0.5959   0.5368   0.4525  -0.4896   0.3219  -0.2242   0.99    2.2
2001 272792  -3942623.1022   3369759.0461   3700018.8854   2   7   0.5482   0.9068   0.5176  -0.4931   0.5726  -0.2447   0.99    1.1
2001 272793  -3942622.7572   3369758.7074   3700019.8740   2   7   0.5085   0.6867   0.4284  -0.4459   0.4243  -0.2184   0.99    1.4
2001 272794  -3942622.3023   3369758.4242   3700020.4634   2   9   0.4752   0.5851   0.3763  -0.4128   0.3541  -0.1958   0.99    1.2
2001 272795  -3942621.9005   3369758.5784   3700021.1649   2   9   0.4479   0.5224   0.3413  -0.3873   0.3111  -0.1796   0.99    1.7
2001 272796  -3942620.4013   3369756.8557   3700021.5076   2  11   0.4163   0.4519   0.3038  -0.3505   0.2686  -0.1668   0.99    1.5
2001 272797  -3942619.5901   3369755.1386   3700020.8001   2   9   0.3942   0.4074   0.2916  -0.3227   0.2461  -0.1437   0.99    1.0
2001 272798  -3942618.8697   3369753.7520   3700020.2517   2  10   0.3741   0.3740   0.2744  -0.3014   0.2282  -0.1333   0.99    1.3
2001 272799  -3942618.4620   3369754.2229   3700020.7683   2   9   0.3665   0.3595   0.2554  -0.2968   0.2156  -0.1351   0.99    1.1
2001 272800  -3942618.3837   3369754.6201   3700021.0025   2  10   0.3516   0.3451   0.2401  -0.2874   0.2054  -0.1351   0.99    1.3
2001 272801  -3942618.3462   3369754.8650   3700021.0959   2  10   0.3388   0.3325   0.2274  -0.2788   0.1966  -0.1338   0.99    1.3
2001 272802  -3942618.4733   3369755.0288   3700021.4670   2   6   0.3291   0.3229   0.2245  -0.2705   0.1900  -0.1252   0.99    1.2
2001 272803  -3942617.7318   3369754.5400   3700022.7412   2   6   0.6735   8.4434   3.3449  -2.2503   5.3099  -1.4103   0.99    1.8
2001 272804  -3942612.6290   3369748.9155   3700025.1585   5   3   3.0768  26.4009  14.0284   8.3303  19.2178   6.1940   0.99    0.0
2001 272805  -3942613.0705   3369755.1848   3700025.9756   5   2   2.8967  29.8999  29.9815   8.5498  -1.6066   5.6110   0.99    0.0
2001 272806  -3942613.2248   3369753.7979   3700030.3578   5   3   4.1149  27.4485  12.5194  -5.8896  18.1229  -1.5412   0.99    0.0
2001 272807  -3942618.5273   3369754.7829   3700027.9778   5   2  19.2616  28.7571  24.5598 -14.0196  12.1338  19.9060   0.99    0.0
2001 272808  -3942636.9209   3369756.0462   3700036.3265   5  11  30.0000  30.0000  30.0000   0.0000   0.0000   0.0000   0.99    0.0
2001 272809  -3942610.9169   3369743.6663   3700041.2433   5   9  30.0000  30.0000  30.0000   0.0000   0.0000   0.0000   0.99    0.0
2001 272810  -3942604.2441   3369734.7168   3700049.6897   5   3   3.9410  27.4258  12.4292  -5.7443  18.1778  -2.0188   0.99    0.0
2001 272811  -3942606.9053   3369732.4119   3700050.9707   5   3   3.0869  26.3994  14.1133   8.3245  19.2051   6.1484   0.99    0.0
2001 272812  -3942602.5901   3369735.9939   3700056.8691   5   3   3.9457  27.4194  12.4486  -5.7097  18.1869  -1.9586   0.99    0.0
2001 272813  -3942614.4316   3369736.9618   3700061.2081   5  11  30.0000  30.0000  30.0000   0.0000   0.0000   0.0000   0.99    0.0
2001 272814  -3942599.4370   3369731.7196   3700068.0631   5  10  30.0000  30.0000  30.0000   0.0000   0.0000   0.0000   0.99    0.0
2001 272815  -3942595.5773   3369727.4718   3700075.8706   5  10  30.0000  30.0000  30.0000   0.0000   0.0000   0.0000   0.99    0.0
2001 272816  -3942584.6295   3369717.8331   3700088.0274   5   3   3.5399  27.4143  12.5742  -5.6589  18.1786  -1.7687   0.99    0.0
2001 272817  -3942597.2799   3369712.4348   3700092.0106   5   2  26.0615  27.8841  18.5576 -12.8237  16.1513  18.7151   0.99    0.0
2001 272818  -3942591.8431   3369712.7355   3700097.0040   5  11  30.0000  30.0000  30.0000   0.0000   0.0000   0.0000   0.99    0.0
2001 272819  -3942586.9819   3369712.9053   3700107.2228   5  11  30.0000  30.0000  30.0000   0.0000   0.0000   0.0000   0.99    0.0
2001 272820  -3942589.8080   3369707.5928   3700117.0678   5   2  26.0680  27.8825  18.5812 -12.8211  16.1478  18.7005   0.99    0.0
2001 272821  -3942582.4759   3369705.8524   3700117.2334   5  10  30.0000  30.0000  30.0000   0.0000   0.0000   0.0000   0.99    0.0
2001 272822  -3942578.9437   3369704.2269   3700127.2774   5  10  30.0000  30.0000  30.0000   0.0000   0.0000   0.0000   0.99    0.0
